{"130579109": {"AfN": "ihi corporation", "Location": [{"address_components": [{"long_name": "1080", "short_name": "1080", "types": ["street_number"]}, {"long_name": "Eldridge Parkway", "short_name": "Eldridge Pkwy", "types": ["route"]}, {"long_name": "George Bush Park/Eldridge", "short_name": "George Bush Park/Eldridge", "types": ["neighborhood", "political"]}, {"long_name": "Houston", "short_name": "Houston", "types": ["locality", "political"]}, {"long_name": "Harris County", "short_name": "Harris County", "types": ["administrative_area_level_2", "political"]}, {"long_name": "Texas", "short_name": "TX", "types": ["administrative_area_level_1", "political"]}, {"long_name": "United States", "short_name": "US", "types": ["country", "political"]}, {"long_name": "77077", "short_name": "77077", "types": ["postal_code"]}], "formatted_address": "1080 Eldridge Pkwy, Houston, TX 77077, USA", "geometry": {"location": {"lat": 29.7703215, "lng": -95.6226779}, "location_type": "ROOFTOP", "viewport": {"northeast": {"lat": 29.7716704802915, "lng": -95.62132891970849}, "southwest": {"lat": 29.7689725197085, "lng": -95.62402688029151}}}, "place_id": "ChIJT0jJlTrDQIYRS06sAfBTdY8", "types": ["establishment", "point_of_interest"]}]}, "877051005": {"AfN": "ii vi incorporated", "Location": [{"address_components": [{"long_name": "375", "short_name": "375", "types": ["street_number"]}, {"long_name": "Saxonburg Boulevard", "short_name": "Saxonburg Blvd", "types": ["route"]}, {"long_name": "Saxonburg", "short_name": "Saxonburg", "types": ["locality", "political"]}, {"long_name": "Clinton Township", "short_name": "Clinton Township", "types": ["administrative_area_level_3", "political"]}, {"long_name": "Butler County", "short_name": "Butler County", "types": ["administrative_area_level_2", "political"]}, {"long_name": "Pennsylvania", "short_name": "PA", "types": ["administrative_area_level_1", "political"]}, {"long_name": "United States", "short_name": "US", "types": ["country", "political"]}, {"long_name": "16056", "short_name": "16056", "types": ["postal_code"]}, {"long_name": "9499", "short_name": "9499", "types": ["postal_code_suffix"]}], "formatted_address": "375 Saxonburg Blvd, Saxonburg, PA 16056, USA", "geometry": {"location": {"lat": 40.731714, "lng": -79.818482}, "location_type": "ROOFTOP", "viewport": {"northeast": {"lat": 40.73306298029149, "lng": -79.81713301970849}, "southwest": {"lat": 40.73036501970849, "lng": -79.8198309802915}}}, "place_id": "ChIJm3H380KZNIgRQVrnEAkBQJs", "types": ["establishment", "point_of_interest"]}]}, "1310264347": {"AfN": "iit research institute", "Location": [{"address_components": [{"long_name": "10", "short_name": "10", "types": ["street_number"]}, {"long_name": "W 35th St", "short_name": "W 35th St", "types": ["route"]}, {"long_name": "Bronzeville", "short_name": "Bronzeville", "types": ["neighborhood", "political"]}, {"long_name": "Chicago", "short_name": "Chicago", "types": ["locality", "political"]}, {"long_name": "Cook County", "short_name": "Cook County", "types": ["administrative_area_level_2", "political"]}, {"long_name": "Illinois", "short_name": "IL", "types": ["administrative_area_level_1", "political"]}, {"long_name": "United States", "short_name": "US", "types": ["country", "political"]}, {"long_name": "60616", "short_name": "60616", "types": ["postal_code"]}], "formatted_address": "10 W 35th St, Chicago, IL 60616, USA", "geometry": {"location": {"lat": 41.8348731, "lng": -87.6270059}, "location_type": "ROOFTOP", "viewport": {"northeast": {"lat": 41.8362220802915, "lng": -87.6256569197085}, "southwest": {"lat": 41.8335241197085, "lng": -87.62835488029151}}}, "place_id": "ChIJD6jp03IsDogRGm_7Gmbky5E", "types": ["establishment", "point_of_interest", "university"]}]}, "110594554": {"AfN": "ikerbasque", "Location": [{"address_components": [{"long_name": "36", "short_name": "36", "types": ["street_number"]}, {"long_name": "Urkijo Kalea", "short_name": "Urkijo Kalea", "types": ["route"]}, {"long_name": "Bilbo", "short_name": "Bilbo", "types": ["locality", "political"]}, {"long_name": "Bizkaia", "short_name": "BI", "types": ["administrative_area_level_2", "political"]}, {"long_name": "Vizcaya", "short_name": "Vizcaya", "types": ["administrative_area_level_1", "political"]}, {"long_name": "Spain", "short_name": "ES", "types": ["country", "political"]}, {"long_name": "48011", "short_name": "48011", "types": ["postal_code"]}], "formatted_address": "Urkijo Kalea, 36, 48011 Bilbo, Bizkaia, Spain", "geometry": {"location": {"lat": 43.3280845, "lng": -3.0133862}, "location_type": "ROOFTOP", "viewport": {"northeast": {"lat": 43.3294334802915, "lng": -3.012037219708498}, "southwest": {"lat": 43.3267355197085, "lng": -3.014735180291502}}}, "partial_match": true, "place_id": "ChIJP8_6TitaTg0RDM0jkcPaPYE", "types": ["establishment", "local_government_office", "point_of_interest"]}]}, "67751107": {"AfN": "ilc dover", "Location": [{"address_components": [{"long_name": "1", "short_name": "1", "types": ["street_number"]}, {"long_name": "Moonwalker Road", "short_name": "Moonwalker Rd", "types": ["route"]}, {"long_name": "Frederica", "short_name": "Frederica", "types": ["locality", "political"]}, {"long_name": "Kent County", "short_name": "Kent County", "types": ["administrative_area_level_2", "political"]}, {"long_name": "Delaware", "short_name": "DE", "types": ["administrative_area_level_1", "political"]}, {"long_name": "United States", "short_name": "US", "types": ["country", "political"]}, {"long_name": "19946", "short_name": "19946", "types": ["postal_code"]}, {"long_name": "2080", "short_name": "2080", "types": ["postal_code_suffix"]}], "formatted_address": "1 Moonwalker Rd, Frederica, DE 19946, USA", "geometry": {"location": {"lat": 39.0041337, "lng": -75.4873126}, "location_type": "ROOFTOP", "viewport": {"northeast": {"lat": 39.00548268029149, "lng": -75.48596361970849}, "southwest": {"lat": 39.00278471970849, "lng": -75.48866158029149}}}, "place_id": "ChIJN2iZDoycuIkRbHFx4mQqjXY", "types": ["establishment", "point_of_interest"]}]}, "183003952": {"AfN": "ilia state university", "Location": [{"address_components": [{"long_name": "Kakuca Cholokashvili Avenue", "short_name": "Kakuca Cholokashvili Ave", "types": ["route"]}, {"long_name": "Tbilisi", "short_name": "Tbilisi", "types": ["locality", "political"]}, {"long_name": "Georgia", "short_name": "GE", "types": ["country", "political"]}], "formatted_address": "3/5, Kakuca Cholokashvili Ave, Tbilisi, Georgia", "geometry": {"location": {"lat": 41.7121551, "lng": 44.7493979}, "location_type": "GEOMETRIC_CENTER", "viewport": {"northeast": {"lat": 41.71350408029149, "lng": 44.75074688029149}, "southwest": {"lat": 41.71080611970849, "lng": 44.74804891970849}}}, "place_id": "ChIJSVZd7DhzREAR188m1oRc4-U", "types": ["establishment", "point_of_interest", "university"]}]}, "95866500": {"AfN": "illinois central college", "Location": [{"address_components": [{"long_name": "1", "short_name": "1", "types": ["street_number"]}, {"long_name": "College Drive", "short_name": "College Dr", "types": ["route"]}, {"long_name": "East Peoria", "short_name": "East Peoria", "types": ["locality", "political"]}, {"long_name": "Fondulac Township", "short_name": "Fondulac Township", "types": ["administrative_area_level_3", "political"]}, {"long_name": "Tazewell County", "short_name": "Tazewell County", "types": ["administrative_area_level_2", "political"]}, {"long_name": "Illinois", "short_name": "IL", "types": ["administrative_area_level_1", "political"]}, {"long_name": "United States", "short_name": "US", "types": ["country", "political"]}, {"long_name": "61611", "short_name": "61611", "types": ["postal_code"]}], "formatted_address": "1 College Dr, East Peoria, IL 61611, USA", "geometry": {"location": {"lat": 40.706181, "lng": -89.52445499999999}, "location_type": "ROOFTOP", "viewport": {"northeast": {"lat": 40.7075299802915, "lng": -89.52310601970848}, "southwest": {"lat": 40.7048320197085, "lng": -89.52580398029149}}}, "place_id": "ChIJnSzGui5XCogRmKRWsohLvEc", "types": ["establishment", "point_of_interest", "university"]}]}, "16820183": {"AfN": "illinois college", "Location": [{"address_components": [{"long_name": "1101", "short_name": "1101", "types": ["street_number"]}, {"long_name": "West College Avenue", "short_name": "W College Ave", "types": ["route"]}, {"long_name": "Jacksonville", "short_name": "Jacksonville", "types": ["locality", "political"]}, {"long_name": "Morgan County", "short_name": "Morgan County", "types": ["administrative_area_level_2", "political"]}, {"long_name": "Illinois", "short_name": "IL", "types": ["administrative_area_level_1", "political"]}, {"long_name": "United States", "short_name": "US", "types": ["country", "political"]}, {"long_name": "62650", "short_name": "62650", "types": ["postal_code"]}, {"long_name": "2299", "short_name": "2299", "types": ["postal_code_suffix"]}], "formatted_address": "1101 W College Ave, Jacksonville, IL 62650, USA", "geometry": {"location": {"lat": 39.730211, "lng": -90.24674999999999}, "location_type": "ROOFTOP", "viewport": {"northeast": {"lat": 39.7315599802915, "lng": -90.2454010197085}, "southwest": {"lat": 39.7288620197085, "lng": -90.2480989802915}}}, "place_id": "ChIJd7eHPNzr34cRsYBt-LXW0GY", "types": ["establishment", "point_of_interest", "university"]}]}, "1328945686": {"AfN": "illinois department of human services", "Location": [{"address_components": [{"long_name": "8001", "short_name": "8001", "types": ["street_number"]}, {"long_name": "Lincoln Avenue", "short_name": "Lincoln Ave", "types": ["route"]}, {"long_name": "Skokie", "short_name": "Skokie", "types": ["locality", "political"]}, {"long_name": "Niles Township", "short_name": "Niles Township", "types": ["administrative_area_level_3", "political"]}, {"long_name": "Cook County", "short_name": "Cook County", "types": ["administrative_area_level_2", "political"]}, {"long_name": "Illinois", "short_name": "IL", "types": ["administrative_area_level_1", "political"]}, {"long_name": "United States", "short_name": "US", "types": ["country", "political"]}, {"long_name": "60077", "short_name": "60077", "types": ["postal_code"]}], "formatted_address": "8001 Lincoln Ave, Skokie, IL 60077, USA", "geometry": {"location": {"lat": 42.0269684, "lng": -87.75349829999999}, "location_type": "ROOFTOP", "viewport": {"northeast": {"lat": 42.0283173802915, "lng": -87.7521493197085}, "southwest": {"lat": 42.0256194197085, "lng": -87.7548472802915}}}, "place_id": "ChIJgdwrwcfPD4gRr14LKljS0Fw", "types": ["establishment", "point_of_interest"]}]}, "1340669248": {"AfN": "illinois department of natural resources", "Location": [{"address_components": [{"long_name": "1", "short_name": "1", "types": ["street_number"]}, {"long_name": "Natural Resources Way", "short_name": "Natural Resources Way", "types": ["route"]}, {"long_name": "Springfield", "short_name": "Springfield", "types": ["locality", "political"]}, {"long_name": "Springfield Township", "short_name": "Springfield Township", "types": ["administrative_area_level_3", "political"]}, {"long_name": "Sangamon County", "short_name": "Sangamon County", "types": ["administrative_area_level_2", "political"]}, {"long_name": "Illinois", "short_name": "IL", "types": ["administrative_area_level_1", "political"]}, {"long_name": "United States", "short_name": "US", "types": ["country", "political"]}, {"long_name": "62702", "short_name": "62702", "types": ["postal_code"]}, {"long_name": "1289", "short_name": "1289", "types": ["postal_code_suffix"]}], "formatted_address": "1 Natural Resources Way, Springfield, IL 62702, USA", "geometry": {"location": {"lat": 39.840348, "lng": -89.646603}, "location_type": "ROOFTOP", "viewport": {"northeast": {"lat": 39.84169698029149, "lng": -89.64525401970849}, "southwest": {"lat": 39.8389990197085, "lng": -89.64795198029151}}}, "place_id": "ChIJAQAAALAwdYgRME3Kd1tNsyY", "types": ["establishment", "local_government_office", "point_of_interest"]}]}, "4099518": {"AfN": "illinois environmental protection agency", "Location": [{"address_components": [{"long_name": "1021", "short_name": "1021", "types": ["street_number"]}, {"long_name": "North Grand Avenue East", "short_name": "N Grand Ave E", "types": ["route"]}, {"long_name": "Springfield", "short_name": "Springfield", "types": ["locality", "political"]}, {"long_name": "Capital Township", "short_name": "Capital Township", "types": ["administrative_area_level_3", "political"]}, {"long_name": "Sangamon County", "short_name": "Sangamon County", "types": ["administrative_area_level_2", "political"]}, {"long_name": "Illinois", "short_name": "IL", "types": ["administrative_area_level_1", "political"]}, {"long_name": "United States", "short_name": "US", "types": ["country", "political"]}, {"long_name": "62702", "short_name": "62702", "types": ["postal_code"]}, {"long_name": "4059", "short_name": "4059", "types": ["postal_code_suffix"]}], "formatted_address": "1021 N Grand Ave E, Springfield, IL 62702, USA", "geometry": {"location": {"lat": 39.81748899999999, "lng": -89.6419301}, "location_type": "ROOFTOP", "viewport": {"northeast": {"lat": 39.81883798029149, "lng": -89.64058111970849}, "southwest": {"lat": 39.81614001970849, "lng": -89.64327908029149}}}, "place_id": "ChIJ-wenf183dYgRdQXmp0_O8yo", "types": ["establishment", "local_government_office", "point_of_interest"]}]}, "180949307": {"AfN": "illinois institute of technology", "Location": [{"address_components": [{"long_name": "10", "short_name": "10", "types": ["street_number"]}, {"long_name": "W 35th St", "short_name": "W 35th St", "types": ["route"]}, {"long_name": "Bronzeville", "short_name": "Bronzeville", "types": ["neighborhood", "political"]}, {"long_name": "Chicago", "short_name": "Chicago", "types": ["locality", "political"]}, {"long_name": "Cook County", "short_name": "Cook County", "types": ["administrative_area_level_2", "political"]}, {"long_name": "Illinois", "short_name": "IL", "types": ["administrative_area_level_1", "political"]}, {"long_name": "United States", "short_name": "US", "types": ["country", "political"]}, {"long_name": "60616", "short_name": "60616", "types": ["postal_code"]}], "formatted_address": "10 W 35th St, Chicago, IL 60616, USA", "geometry": {"location": {"lat": 41.8348731, "lng": -87.6270059}, "location_type": "ROOFTOP", "viewport": {"northeast": {"lat": 41.8362220802915, "lng": -87.6256569197085}, "southwest": {"lat": 41.8335241197085, "lng": -87.62835488029151}}}, "place_id": "ChIJD6jp03IsDogRGm_7Gmbky5E", "types": ["establishment", "point_of_interest", "university"]}]}, "113171187": {"AfN": "illinois natural history survey", "Location": [{"address_components": [{"long_name": "1816", "short_name": "1816", "types": ["street_number"]}, {"long_name": "South Oak Street", "short_name": "S Oak St", "types": ["route"]}, {"long_name": "Champaign", "short_name": "Champaign", "types": ["locality", "political"]}, {"long_name": "Champaign City Township", "short_name": "Champaign City Township", "types": ["administrative_area_level_3", "political"]}, {"long_name": "Champaign County", "short_name": "Champaign County", "types": ["administrative_area_level_2", "political"]}, {"long_name": "Illinois", "short_name": "IL", "types": ["administrative_area_level_1", "political"]}, {"long_name": "United States", "short_name": "US", "types": ["country", "political"]}, {"long_name": "61820", "short_name": "61820", "types": ["postal_code"]}, {"long_name": "6960", "short_name": "6960", "types": ["postal_code_suffix"]}], "formatted_address": "1816 S Oak St, Champaign, IL 61820, USA", "geometry": {"location": {"lat": 40.092975, "lng": -88.23994809999999}, "location_type": "ROOFTOP", "viewport": {"northeast": {"lat": 40.09432398029149, "lng": -88.23859911970848}, "southwest": {"lat": 40.09162601970849, "lng": -88.2412970802915}}}, "place_id": "ChIJIwv5oinXDIgRIEJVrSO1saU", "types": ["establishment", "point_of_interest"]}]}, "1314311274": {"AfN": "illinois state museum", "Location": [{"address_components": [{"long_name": "502", "short_name": "502", "types": ["street_number"]}, {"long_name": "South Spring Street", "short_name": "S Spring St", "types": ["route"]}, {"long_name": "Vinegar Hill", "short_name": "Vinegar Hill", "types": ["neighborhood", "political"]}, {"long_name": "Springfield", "short_name": "Springfield", "types": ["locality", "political"]}, {"long_name": "Capital Township", "short_name": "Capital Township", "types": ["administrative_area_level_3", "political"]}, {"long_name": "Sangamon County", "short_name": "Sangamon County", "types": ["administrative_area_level_2", "political"]}, {"long_name": "Illinois", "short_name": "IL", "types": ["administrative_area_level_1", "political"]}, {"long_name": "United States", "short_name": "US", "types": ["country", "political"]}, {"long_name": "62706", "short_name": "62706", "types": ["postal_code"]}], "formatted_address": "502 S Spring St, Springfield, IL 62706, USA", "geometry": {"location": {"lat": 39.7966483, "lng": -89.6554836}, "location_type": "ROOFTOP", "viewport": {"northeast": {"lat": 39.7979972802915, "lng": -89.65413461970849}, "southwest": {"lat": 39.7952993197085, "lng": -89.6568325802915}}}, "place_id": "ChIJc8Y4Msg5dYgRF9TDEdNG0nI", "types": ["establishment", "museum", "point_of_interest"]}, {"address_components": [{"long_name": "10956", "short_name": "10956", "types": ["street_number"]}, {"long_name": "North Dickson Mounds Road", "short_name": "N Dickson Mounds Rd", "types": ["route"]}, {"long_name": "Lewistown", "short_name": "Lewistown", "types": ["locality", "political"]}, {"long_name": "Waterford Township", "short_name": "Waterford Township", "types": ["administrative_area_level_3", "political"]}, {"long_name": "Fulton County", "short_name": "Fulton County", "types": ["administrative_area_level_2", "political"]}, {"long_name": "Illinois", "short_name": "IL", "types": ["administrative_area_level_1", "political"]}, {"long_name": "United States", "short_name": "US", "types": ["country", "political"]}, {"long_name": "61542", "short_name": "61542", "types": ["postal_code"]}], "formatted_address": "10956 N Dickson Mounds Rd, Lewistown, IL 61542, USA", "geometry": {"location": {"lat": 40.350632, "lng": -90.115695}, "location_type": "ROOFTOP", "viewport": {"northeast": {"lat": 40.35198098029149, "lng": -90.1143460197085}, "southwest": {"lat": 40.34928301970849, "lng": -90.11704398029151}}}, "place_id": "ChIJg73f2QEj4IcRGeOk3eTbBRw", "types": ["establishment", "museum", "point_of_interest"]}]}, "89512042": {"AfN": "illinois state police", "Location": [{"address_components": [{"long_name": "1100", "short_name": "1100", "types": ["street_number"]}, {"long_name": "Eastport Plaza Drive", "short_name": "Eastport Plaza Dr", "types": ["route"]}, {"long_name": "Collinsville", "short_name": "Collinsville", "types": ["locality", "political"]}, {"long_name": "Collinsville Township", "short_name": "Collinsville Township", "types": ["administrative_area_level_3", "political"]}, {"long_name": "Madison County", "short_name": "Madison County", "types": ["administrative_area_level_2", "political"]}, {"long_name": "Illinois", "short_name": "IL", "types": ["administrative_area_level_1", "political"]}, {"long_name": "United States", "short_name": "US", "types": ["country", "political"]}, {"long_name": "62234", "short_name": "62234", "types": ["postal_code"]}, {"long_name": "6116", "short_name": "6116", "types": ["postal_code_suffix"]}], "formatted_address": "1100 Eastport Plaza Dr, Collinsville, IL 62234, USA", "geometry": {"location": {"lat": 38.6771859, "lng": -90.02044140000001}, "location_type": "ROOFTOP", "viewport": {"northeast": {"lat": 38.6785348802915, "lng": -90.01909241970851}, "southwest": {"lat": 38.6758369197085, "lng": -90.02179038029152}}}, "place_id": "ChIJHWqHBRVV34cRUOD-xZqDEbk", "types": ["establishment", "point_of_interest", "police"]}]}, "47301684": {"AfN": "illinois state university", "Location": [{"address_components": [{"long_name": "100", "short_name": "100", "types": ["street_number"]}, {"long_name": "North University Street", "short_name": "N University St", "types": ["route"]}, {"long_name": "Normal", "short_name": "Normal", "types": ["locality", "political"]}, {"long_name": "Normal Township", "short_name": "Normal Township", "types": ["administrative_area_level_3", "political"]}, {"long_name": "McLean County", "short_name": "McLean County", "types": ["administrative_area_level_2", "political"]}, {"long_name": "Illinois", "short_name": "IL", "types": ["administrative_area_level_1", "political"]}, {"long_name": "United States", "short_name": "US", "types": ["country", "political"]}, {"long_name": "61761", "short_name": "61761", "types": ["postal_code"]}], "formatted_address": "100 N University St, Normal, IL 61761, USA", "geometry": {"location": {"lat": 40.5122833, "lng": -88.9946702}, "location_type": "ROOFTOP", "viewport": {"northeast": {"lat": 40.5136322802915, "lng": -88.99332121970849}, "southwest": {"lat": 40.5109343197085, "lng": -88.99601918029151}}}, "place_id": "ChIJc7x4lHFxC4gRNCy2X17B5RA", "types": ["establishment", "point_of_interest", "university"]}]}, "184616310": {"AfN": "illinois wesleyan university", "Location": [{"address_components": [{"long_name": "1312", "short_name": "1312", "types": ["street_number"]}, {"long_name": "Park Street", "short_name": "Park St", "types": ["route"]}, {"long_name": "Bloomington", "short_name": "Bloomington", "types": ["locality", "political"]}, {"long_name": "McLean County", "short_name": "McLean County", "types": ["administrative_area_level_2", "political"]}, {"long_name": "Illinois", "short_name": "IL", "types": ["administrative_area_level_1", "political"]}, {"long_name": "United States", "short_name": "US", "types": ["country", "political"]}, {"long_name": "61701", "short_name": "61701", "types": ["postal_code"]}], "formatted_address": "1312 Park St, Bloomington, IL 61701, USA", "geometry": {"location": {"lat": 40.4908892, "lng": -88.9906541}, "location_type": "ROOFTOP", "viewport": {"northeast": {"lat": 40.4922381802915, "lng": -88.98930511970849}, "southwest": {"lat": 40.4895402197085, "lng": -88.99200308029151}}}, "place_id": "ChIJFQnYt7lxC4gRxiPtIJEDMkk", "types": ["establishment", "point_of_interest", "university"]}, {"address_components": [{"long_name": "1401", "short_name": "1401", "types": ["street_number"]}, {"long_name": "North Main Street", "short_name": "N Main St", "types": ["route"]}, {"long_name": "Bloomington", "short_name": "Bloomington", "types": ["locality", "political"]}, {"long_name": "McLean County", "short_name": "McLean County", "types": ["administrative_area_level_2", "political"]}, {"long_name": "Illinois", "short_name": "IL", "types": ["administrative_area_level_1", "political"]}, {"long_name": "United States", "short_name": "US", "types": ["country", "political"]}, {"long_name": "61701", "short_name": "61701", "types": ["postal_code"]}, {"long_name": "1761", "short_name": "1761", "types": ["postal_code_suffix"]}], "formatted_address": "1401 N Main St, Bloomington, IL 61701, USA", "geometry": {"location": {"lat": 40.4921286, "lng": -88.9936975}, "location_type": "ROOFTOP", "viewport": {"northeast": {"lat": 40.4934775802915, "lng": -88.9923485197085}, "southwest": {"lat": 40.4907796197085, "lng": -88.9950464802915}}}, "place_id": "ChIJtYFirsRxC4gRjE6AJXqJmRM", "types": ["establishment", "point_of_interest", "university"]}]}, "178645029": {"AfN": "illumina", "Location": [{"address_components": [{"long_name": "5200", "short_name": "5200", "types": ["street_number"]}, {"long_name": "Illumina Way", "short_name": "Illumina Way", "types": ["route"]}, {"long_name": "Nobel Research Park", "short_name": "Nobel Research Park", "types": ["neighborhood", "political"]}, {"long_name": "San Diego", "short_name": "San Diego", "types": ["locality", "political"]}, {"long_name": "San Diego County", "short_name": "San Diego County", "types": ["administrative_area_level_2", "political"]}, {"long_name": "California", "short_name": "CA", "types": ["administrative_area_level_1", "political"]}, {"long_name": "United States", "short_name": "US", "types": ["country", "political"]}, {"long_name": "92122", "short_name": "92122", "types": ["postal_code"]}], "formatted_address": "5200 Illumina Way, San Diego, CA 92122, USA", "geometry": {"location": {"lat": 32.8710956, "lng": -117.1989769}, "location_type": "ROOFTOP", "viewport": {"northeast": {"lat": 32.87244458029149, "lng": -117.1976279197085}, "southwest": {"lat": 32.86974661970849, "lng": -117.2003258802915}}}, "place_id": "ChIJk2lb_soA3IAR98hHPi8TRV4", "types": ["establishment", "point_of_interest"]}]}, "240666556": {"AfN": "imam muhammad ibn saud islamic university", "Location": []}, "73077576": {"AfN": "imation", "Location": [{"address_components": [{"long_name": "# 6", "short_name": "# 6", "types": ["subpremise"]}, {"long_name": "2700", "short_name": "2700", "types": ["street_number"]}, {"long_name": "S Frontage Rd", "short_name": "S Frontage Rd", "types": ["route"]}, {"long_name": "Weatherford", "short_name": "Weatherford", "types": ["locality", "political"]}, {"long_name": "Custer County", "short_name": "Custer County", "types": ["administrative_area_level_2", "political"]}, {"long_name": "Oklahoma", "short_name": "OK", "types": ["administrative_area_level_1", "political"]}, {"long_name": "United States", "short_name": "US", "types": ["country", "political"]}, {"long_name": "73096", "short_name": "73096", "types": ["postal_code"]}, {"long_name": "6105", "short_name": "6105", "types": ["postal_code_suffix"]}], "formatted_address": "2700 S Frontage Rd # 6, Weatherford, OK 73096, USA", "geometry": {"location": {"lat": 35.534145, "lng": -98.674201}, "location_type": "ROOFTOP", "viewport": {"northeast": {"lat": 35.53549398029149, "lng": -98.6728520197085}, "southwest": {"lat": 35.53279601970849, "lng": -98.6755499802915}}}, "place_id": "ChIJl7lE-xYmrIcRUMsU7R0O-4M", "types": ["establishment", "point_of_interest"]}]}, "73953965": {"AfN": "imclone systems", "Location": [{"address_components": [{"long_name": "450", "short_name": "450", "types": ["street_number"]}, {"long_name": "East 29th Street", "short_name": "E 29th St", "types": ["route"]}, {"long_name": "Manhattan", "short_name": "Manhattan", "types": ["political", "sublocality", "sublocality_level_1"]}, {"long_name": "New York", "short_name": "New York", "types": ["locality", "political"]}, {"long_name": "New York County", "short_name": "New York County", "types": ["administrative_area_level_2", "political"]}, {"long_name": "New York", "short_name": "NY", "types": ["administrative_area_level_1", "political"]}, {"long_name": "United States", "short_name": "US", "types": ["country", "political"]}, {"long_name": "10016", "short_name": "10016", "types": ["postal_code"]}, {"long_name": "8367", "short_name": "8367", "types": ["postal_code_suffix"]}], "formatted_address": "450 E 29th St, New York, NY 10016, USA", "geometry": {"location": {"lat": 40.7394314, "lng": -73.9737791}, "location_type": "ROOFTOP", "viewport": {"northeast": {"lat": 40.7407803802915, "lng": -73.9724301197085}, "southwest": {"lat": 40.7380824197085, "lng": -73.97512808029151}}}, "place_id": "ChIJv_keOY1ZwokRKwX54_J_OkA", "types": ["establishment", "health", "point_of_interest"]}, {"address_components": [{"long_name": "50", "short_name": "50", "types": ["street_number"]}, {"long_name": "Imclone Drive", "short_name": "Imclone Dr", "types": ["route"]}, {"long_name": "Branchburg", "short_name": "Branchburg", "types": ["locality", "political"]}, {"long_name": "Somerset County", "short_name": "Somerset County", "types": ["administrative_area_level_2", "political"]}, {"long_name": "New Jersey", "short_name": "NJ", "types": ["administrative_area_level_1", "political"]}, {"long_name": "United States", "short_name": "US", "types": ["country", "political"]}, {"long_name": "08876", "short_name": "08876", "types": ["postal_code"]}, {"long_name": "3904", "short_name": "3904", "types": ["postal_code_suffix"]}], "formatted_address": "50 Imclone Dr, Branchburg, NJ 08876, USA", "geometry": {"location": {"lat": 40.55615299999999, "lng": -74.71289999999999}, "location_type": "ROOFTOP", "viewport": {"northeast": {"lat": 40.55750198029149, "lng": -74.71155101970848}, "southwest": {"lat": 40.5548040197085, "lng": -74.71424898029149}}}, "place_id": "ChIJo69SAevsw4kRXJSTQjMd1I8", "types": ["establishment", "general_contractor", "point_of_interest"]}]}, "105140100": {"AfN": "imdea", "Location": [{"address_components": [{"long_name": "8", "short_name": "8", "types": ["street_number"]}, {"long_name": "Carretera Canto Blanco", "short_name": "Ctra. Canto Blanco", "types": ["route"]}, {"long_name": "Madrid", "short_name": "Madrid", "types": ["locality", "political"]}, {"long_name": "Madrid", "short_name": "M", "types": ["administrative_area_level_2", "political"]}, {"long_name": "Comunidad de Madrid", "short_name": "Comunidad de Madrid", "types": ["administrative_area_level_1", "political"]}, {"long_name": "Spain", "short_name": "ES", "types": ["country", "political"]}, {"long_name": "28049", "short_name": "28049", "types": ["postal_code"]}], "formatted_address": "Ctra. Canto Blanco, 8, 28049 Madrid, Spain", "geometry": {"location": {"lat": 40.540111, "lng": -3.692719}, "location_type": "ROOFTOP", "viewport": {"northeast": {"lat": 40.5414599802915, "lng": -3.691370019708498}, "southwest": {"lat": 40.5387620197085, "lng": -3.694067980291502}}}, "partial_match": true, "place_id": "ChIJscagaAYrQg0RXvUqwpQTHhQ", "types": ["establishment", "hospital", "point_of_interest"]}]}, "196972281": {"AfN": "imec", "Location": [{"address_components": [{"long_name": "1716", "short_name": "1716", "types": ["street_number"]}, {"long_name": "North 9th Street", "short_name": "N 9th St", "types": ["route"]}, {"long_name": "Monett", "short_name": "Monett", "types": ["locality", "political"]}, {"long_name": "Pierce Township", "short_name": "Pierce Township", "types": ["administrative_area_level_3", "political"]}, {"long_name": "Lawrence County", "short_name": "Lawrence County", "types": ["administrative_area_level_2", "political"]}, {"long_name": "Missouri", "short_name": "MO", "types": ["administrative_area_level_1", "political"]}, {"long_name": "United States", "short_name": "US", "types": ["country", "political"]}, {"long_name": "65708", "short_name": "65708", "types": ["postal_code"]}], "formatted_address": "1716 N 9th St, Monett, MO 65708, USA", "geometry": {"location": {"lat": 36.9416887, "lng": -93.91964779999999}, "location_type": "ROOFTOP", "viewport": {"northeast": {"lat": 36.9430376802915, "lng": -93.9182988197085}, "southwest": {"lat": 36.9403397197085, "lng": -93.9209967802915}}}, "place_id": "ChIJCf-mac65yIcRCDdL-jJT_sY", "types": ["establishment", "general_contractor", "point_of_interest"]}]}, "39327780": {"AfN": "iminds", "Location": [{"address_components": [{"long_name": "1145", "short_name": "1145", "types": ["street_number"]}, {"long_name": "Bower Hill Road", "short_name": "Bower Hill Rd", "types": ["route"]}, {"long_name": "Pittsburgh", "short_name": "Pittsburgh", "types": ["locality", "political"]}, {"long_name": "Mount Lebanon Township", "short_name": "Mt Lebanon Township", "types": ["administrative_area_level_3", "political"]}, {"long_name": "Allegheny County", "short_name": "Allegheny County", "types": ["administrative_area_level_2", "political"]}, {"long_name": "Pennsylvania", "short_name": "PA", "types": ["administrative_area_level_1", "political"]}, {"long_name": "United States", "short_name": "US", "types": ["country", "political"]}, {"long_name": "15243", "short_name": "15243", "types": ["postal_code"]}], "formatted_address": "1145 Bower Hill Rd, Pittsburgh, PA 15243, USA", "geometry": {"location": {"lat": 40.374612, "lng": -80.07010199999999}, "location_type": "ROOFTOP", "viewport": {"northeast": {"lat": 40.3759609802915, "lng": -80.06875301970848}, "southwest": {"lat": 40.3732630197085, "lng": -80.0714509802915}}}, "place_id": "ChIJr80aV4z3NIgRqxPew8YhQuE", "types": ["establishment", "point_of_interest"]}]}, "88101031": {"AfN": "immersion corporation", "Location": [{"address_components": [{"long_name": "50", "short_name": "50", "types": ["street_number"]}, {"long_name": "Rio Robles", "short_name": "Rio Robles", "types": ["route"]}, {"long_name": "North San Jose", "short_name": "North San Jose", "types": ["neighborhood", "political"]}, {"long_name": "San Jose", "short_name": "San Jose", "types": ["locality", "political"]}, {"long_name": "Santa Clara County", "short_name": "Santa Clara County", "types": ["administrative_area_level_2", "political"]}, {"long_name": "California", "short_name": "CA", "types": ["administrative_area_level_1", "political"]}, {"long_name": "United States", "short_name": "US", "types": ["country", "political"]}, {"long_name": "95134", "short_name": "95134", "types": ["postal_code"]}], "formatted_address": "50 Rio Robles, San Jose, CA 95134, USA", "geometry": {"location": {"lat": 37.4042792, "lng": -121.9443168}, "location_type": "ROOFTOP", "viewport": {"northeast": {"lat": 37.40562818029149, "lng": -121.9429678197085}, "southwest": {"lat": 37.40293021970849, "lng": -121.9456657802915}}}, "place_id": "ChIJPaY21vjLj4AReXIdqvT3Wl4", "types": ["establishment", "point_of_interest"]}, {"address_components": [{"long_name": "4200", "short_name": "4200", "types": ["street_number"]}, {"long_name": "Boulevard Saint-Laurent", "short_name": "Boul St-Laurent", "types": ["route"]}, {"long_name": "Le Plateau-Mont-Royal", "short_name": "Le Plateau-Mont-Royal", "types": ["political", "sublocality", "sublocality_level_1"]}, {"long_name": "Montr\u00e9al", "short_name": "Montr\u00e9al", "types": ["locality", "political"]}, {"long_name": "Communaut\u00e9-Urbaine-de-Montr\u00e9al", "short_name": "Communaut\u00e9-Urbaine-de-Montr\u00e9al", "types": ["administrative_area_level_2", "political"]}, {"long_name": "Qu\u00e9bec", "short_name": "QC", "types": ["administrative_area_level_1", "political"]}, {"long_name": "Canada", "short_name": "CA", "types": ["country", "political"]}, {"long_name": "H2W 2R2", "short_name": "H2W 2R2", "types": ["postal_code"]}], "formatted_address": "4200 Boul St-Laurent, Montr\u00e9al, QC H2W 2R2, Canada", "geometry": {"location": {"lat": 45.51800069999999, "lng": -73.58218959999999}, "location_type": "ROOFTOP", "viewport": {"northeast": {"lat": 45.5193496802915, "lng": -73.58084061970848}, "southwest": {"lat": 45.5166517197085, "lng": -73.5835385802915}}}, "place_id": "ChIJ1yW-SM0byUwRF3fPtkeWMN0", "types": ["establishment", "point_of_interest"]}]}, "194627235": {"AfN": "immunogen inc", "Location": [{"address_components": [{"long_name": "830", "short_name": "830", "types": ["street_number"]}, {"long_name": "Winter Street", "short_name": "Winter St", "types": ["route"]}, {"long_name": "West End", "short_name": "West End", "types": ["neighborhood", "political"]}, {"long_name": "Waltham", "short_name": "Waltham", "types": ["locality", "political"]}, {"long_name": "Middlesex County", "short_name": "Middlesex County", "types": ["administrative_area_level_2", "political"]}, {"long_name": "Massachusetts", "short_name": "MA", "types": ["administrative_area_level_1", "political"]}, {"long_name": "United States", "short_name": "US", "types": ["country", "political"]}, {"long_name": "02451", "short_name": "02451", "types": ["postal_code"]}], "formatted_address": "830 Winter St, Waltham, MA 02451, USA", "geometry": {"location": {"lat": 42.4018385, "lng": -71.2785565}, "location_type": "ROOFTOP", "viewport": {"northeast": {"lat": 42.40318748029149, "lng": -71.2772075197085}, "southwest": {"lat": 42.40048951970849, "lng": -71.2799054802915}}}, "place_id": "ChIJB_lHU6Sc44kRWwfMuOCMj6Q", "types": ["establishment", "point_of_interest"]}, {"address_components": [{"long_name": "333", "short_name": "333", "types": ["street_number"]}, {"long_name": "Boston-Providence Turnpike", "short_name": "Boston-Providence Turnpike", "types": ["route"]}, {"long_name": "Norwood", "short_name": "Norwood", "types": ["locality", "political"]}, {"long_name": "Norfolk County", "short_name": "Norfolk County", "types": ["administrative_area_level_2", "political"]}, {"long_name": "Massachusetts", "short_name": "MA", "types": ["administrative_area_level_1", "political"]}, {"long_name": "United States", "short_name": "US", "types": ["country", "political"]}, {"long_name": "02062", "short_name": "02062", "types": ["postal_code"]}, {"long_name": "3927", "short_name": "3927", "types": ["postal_code_suffix"]}], "formatted_address": "333 Boston-Providence Turnpike, Norwood, MA 02062, USA", "geometry": {"location": {"lat": 42.19939249999999, "lng": -71.18826609999999}, "location_type": "ROOFTOP", "viewport": {"northeast": {"lat": 42.2007414802915, "lng": -71.1869171197085}, "southwest": {"lat": 42.1980435197085, "lng": -71.1896150802915}}}, "place_id": "ChIJLzffTXSA5IkRG2EWgqAlRXU", "types": ["establishment", "point_of_interest"]}]}, "153355300": {"AfN": "imperial college healthcare", "Location": [{"address_components": [{"long_name": "20", "short_name": "20", "types": ["street_number"]}, {"long_name": "Queen Elizabeth Boulevard", "short_name": "Queen Elizabeth Blvd", "types": ["route"]}, {"long_name": "Etobicoke", "short_name": "Etobicoke", "types": ["political", "sublocality", "sublocality_level_1"]}, {"long_name": "Toronto", "short_name": "Toronto", "types": ["locality", "political"]}, {"long_name": "Toronto Division", "short_name": "Toronto Division", "types": ["administrative_area_level_2", "political"]}, {"long_name": "Ontario", "short_name": "ON", "types": ["administrative_area_level_1", "political"]}, {"long_name": "Canada", "short_name": "CA", "types": ["country", "political"]}, {"long_name": "M8Z 1L8", "short_name": "M8Z 1L8", "types": ["postal_code"]}], "formatted_address": "20 Queen Elizabeth Blvd, Etobicoke, ON M8Z 1L8, Canada", "geometry": {"location": {"lat": 43.6228336, "lng": -79.5042818}, "location_type": "ROOFTOP", "viewport": {"northeast": {"lat": 43.6241825802915, "lng": -79.5029328197085}, "southwest": {"lat": 43.6214846197085, "lng": -79.50563078029151}}}, "place_id": "ChIJ5ZskATA2K4gRV9M-g8o3aIc", "types": ["establishment", "point_of_interest", "university"]}]}, "47508984": {"AfN": "imperial college london", "Location": [{"address_components": [{"long_name": "London", "short_name": "London", "types": ["postal_town"]}, {"long_name": "Kensington", "short_name": "Kensington", "types": ["neighborhood", "political"]}, {"long_name": "Greater London", "short_name": "Greater London", "types": ["administrative_area_level_2", "political"]}, {"long_name": "England", "short_name": "England", "types": ["administrative_area_level_1", "political"]}, {"long_name": "United Kingdom", "short_name": "GB", "types": ["country", "political"]}, {"long_name": "SW7 2AZ", "short_name": "SW7 2AZ", "types": ["postal_code"]}], "formatted_address": "Kensington, London SW7 2AZ, UK", "geometry": {"location": {"lat": 51.49879970000001, "lng": -0.1748772}, "location_type": "GEOMETRIC_CENTER", "viewport": {"northeast": {"lat": 51.50014868029151, "lng": -0.173528219708498}, "southwest": {"lat": 51.49745071970851, "lng": -0.176226180291502}}}, "place_id": "ChIJAQoi2mcFdkgRhi5pHDcbkTE", "types": ["establishment", "point_of_interest", "university"]}]}, "871458030": {"AfN": "imrb international", "Location": [{"address_components": [{"long_name": "111", "short_name": "111", "types": ["street_number"]}, {"long_name": "Thayer Street", "short_name": "Thayer St", "types": ["route"]}, {"long_name": "College Hill", "short_name": "College Hill", "types": ["neighborhood", "political"]}, {"long_name": "Providence", "short_name": "Providence", "types": ["locality", "political"]}, {"long_name": "Providence County", "short_name": "Providence County", "types": ["administrative_area_level_2", "political"]}, {"long_name": "Rhode Island", "short_name": "RI", "types": ["administrative_area_level_1", "political"]}, {"long_name": "United States", "short_name": "US", "types": ["country", "political"]}, {"long_name": "02912", "short_name": "02912", "types": ["postal_code"]}, {"long_name": "9043", "short_name": "9043", "types": ["postal_code_suffix"]}], "formatted_address": "111 Thayer St, Providence, RI 02912, USA", "geometry": {"location": {"lat": 41.8243539, "lng": -71.3999158}, "location_type": "ROOFTOP", "viewport": {"northeast": {"lat": 41.82570288029149, "lng": -71.39856681970849}, "southwest": {"lat": 41.8230049197085, "lng": -71.40126478029151}}}, "place_id": "ChIJtR3xhjtF5IkRRiBIdul9hIc", "types": ["establishment", "point_of_interest", "university"]}]}, "165053356": {"AfN": "ims health", "Location": [{"address_components": [{"long_name": "# 5", "short_name": "# 5", "types": ["subpremise"]}, {"long_name": "83", "short_name": "83", "types": ["street_number"]}, {"long_name": "Wooster Heights", "short_name": "Wooster Heights", "types": ["route"]}, {"long_name": "Danbury", "short_name": "Danbury", "types": ["locality", "political"]}, {"long_name": "Fairfield County", "short_name": "Fairfield County", "types": ["administrative_area_level_2", "political"]}, {"long_name": "Connecticut", "short_name": "CT", "types": ["administrative_area_level_1", "political"]}, {"long_name": "United States", "short_name": "US", "types": ["country", "political"]}, {"long_name": "06810", "short_name": "06810", "types": ["postal_code"]}, {"long_name": "7552", "short_name": "7552", "types": ["postal_code_suffix"]}], "formatted_address": "83 Wooster Heights # 5, Danbury, CT 06810, USA", "geometry": {"location": {"lat": 41.376769, "lng": -73.471482}, "location_type": "ROOFTOP", "viewport": {"northeast": {"lat": 41.37811798029149, "lng": -73.47013301970848}, "southwest": {"lat": 41.37542001970849, "lng": -73.47283098029149}}}, "place_id": "ChIJVyMBxGZV3YkRt_vmOv3WO7U", "types": ["establishment", "health", "point_of_interest"]}]}, "127077003": {"AfN": "imt institute for advanced studies lucca", "Location": [{"address_components": [{"long_name": "19", "short_name": "19", "types": ["street_number"]}, {"long_name": "Piazza S.Francesco", "short_name": "Piazza S.Francesco", "types": ["route"]}, {"long_name": "Lucca", "short_name": "Lucca", "types": ["locality", "political"]}, {"long_name": "Lucca", "short_name": "Lucca", "types": ["administrative_area_level_3", "political"]}, {"long_name": "Provincia di Lucca", "short_name": "LU", "types": ["administrative_area_level_2", "political"]}, {"long_name": "Toscana", "short_name": "Toscana", "types": ["administrative_area_level_1", "political"]}, {"long_name": "Italy", "short_name": "IT", "types": ["country", "political"]}, {"long_name": "55100", "short_name": "55100", "types": ["postal_code"]}], "formatted_address": "Piazza S.Francesco, 19, 55100 Lucca LU, Italy", "geometry": {"location": {"lat": 43.84553570000001, "lng": 10.510861}, "location_type": "ROOFTOP", "viewport": {"northeast": {"lat": 43.84688468029151, "lng": 10.5122099802915}, "southwest": {"lat": 43.84418671970851, "lng": 10.5095120197085}}}, "place_id": "ChIJ7WNEuvOD1RIR-anFb-6n6qc", "types": ["establishment", "point_of_interest", "university"]}]}, "875825670": {"AfN": "inaf", "Location": [{"address_components": [{"long_name": "2440", "short_name": "2440", "types": ["street_number"]}, {"long_name": "Boulevard Hochelaga", "short_name": "Boulevard Hochelaga", "types": ["route"]}, {"long_name": "Qu\u00e9bec", "short_name": "Qu\u00e9bec", "types": ["locality", "political"]}, {"long_name": "Qu\u00e9bec", "short_name": "QC", "types": ["administrative_area_level_1", "political"]}, {"long_name": "Canada", "short_name": "CA", "types": ["country", "political"]}, {"long_name": "G1V 0A6", "short_name": "G1V 0A6", "types": ["postal_code"]}], "formatted_address": "Suite 1710, 2440 Boulevard Hochelaga, Qu\u00e9bec, QC G1V 0A6, Canada", "geometry": {"location": {"lat": 46.7764329, "lng": -71.279144}, "location_type": "ROOFTOP", "viewport": {"northeast": {"lat": 46.7777818802915, "lng": -71.2777950197085}, "southwest": {"lat": 46.7750839197085, "lng": -71.28049298029151}}}, "place_id": "ChIJNynZDs-WuEwRac3md3B_wzg", "types": ["establishment", "point_of_interest"]}, {"address_components": [{"long_name": "2440", "short_name": "2440", "types": ["street_number"]}, {"long_name": "Boulevard Hochelaga", "short_name": "Boulevard Hochelaga", "types": ["route"]}, {"long_name": "Sainte-Foy-Sillery-Cap-Rouge", "short_name": "Sainte-Foy-Sillery-Cap-Rouge", "types": ["political", "sublocality", "sublocality_level_1"]}, {"long_name": "Qu\u00e9bec", "short_name": "Qu\u00e9bec", "types": ["locality", "political"]}, {"long_name": "Communaut\u00e9-Urbaine-de-Qu\u00e9bec", "short_name": "Communaut\u00e9-Urbaine-de-Qu\u00e9bec", "types": ["administrative_area_level_2", "political"]}, {"long_name": "Qu\u00e9bec", "short_name": "QC", "types": ["administrative_area_level_1", "political"]}, {"long_name": "Canada", "short_name": "CA", "types": ["country", "political"]}, {"long_name": "G1V 0A6", "short_name": "G1V 0A6", "types": ["postal_code"]}], "formatted_address": "2440 Boulevard Hochelaga, Qu\u00e9bec, QC G1V 0A6, Canada", "geometry": {"location": {"lat": 46.7762584, "lng": -71.2796509}, "location_type": "ROOFTOP", "viewport": {"northeast": {"lat": 46.77760738029149, "lng": -71.27830191970848}, "southwest": {"lat": 46.77490941970849, "lng": -71.28099988029149}}}, "place_id": "ChIJmTi5B8-WuEwRbOdtqPeh4WM", "types": ["establishment", "point_of_interest"]}]}, "146429904": {"AfN": "incheon national university", "Location": [{"address_components": [{"long_name": "119", "short_name": "119", "types": ["premise"]}, {"long_name": "Academy-ro", "short_name": "Academy-ro", "types": ["political", "sublocality", "sublocality_level_4"]}, {"long_name": "Songdo 1(il)-dong", "short_name": "Songdo 1(il)-dong", "types": ["political", "sublocality", "sublocality_level_2"]}, {"long_name": "Yeonsu-gu", "short_name": "Yeonsu-gu", "types": ["political", "sublocality", "sublocality_level_1"]}, {"long_name": "Incheon", "short_name": "Incheon", "types": ["administrative_area_level_1", "political"]}, {"long_name": "South Korea", "short_name": "KR", "types": ["country", "political"]}, {"long_name": "406-081", "short_name": "406-081", "types": ["postal_code"]}], "formatted_address": "119 Academy-ro, Songdo 1(il)-dong, Yeonsu-gu, Incheon, South Korea", "geometry": {"location": {"lat": 37.3750548, "lng": 126.6328998}, "location_type": "ROOFTOP", "viewport": {"northeast": {"lat": 37.3764037802915, "lng": 126.6342487802915}, "southwest": {"lat": 37.3737058197085, "lng": 126.6315508197085}}}, "place_id": "ChIJy9xwuUd2ezUREZpjyUeMW3I", "types": ["establishment", "point_of_interest", "university"]}]}, "924451375": {"AfN": "incyte", "Location": [{"address_components": [{"long_name": "1801", "short_name": "1801", "types": ["street_number"]}, {"long_name": "Augustine Cut Off", "short_name": "Augustine Cut Off", "types": ["route"]}, {"long_name": "Wilmington", "short_name": "Wilmington", "types": ["locality", "political"]}, {"long_name": "New Castle County", "short_name": "New Castle County", "types": ["administrative_area_level_2", "political"]}, {"long_name": "Delaware", "short_name": "DE", "types": ["administrative_area_level_1", "political"]}, {"long_name": "United States", "short_name": "US", "types": ["country", "political"]}, {"long_name": "19803", "short_name": "19803", "types": ["postal_code"]}, {"long_name": "4404", "short_name": "4404", "types": ["postal_code_suffix"]}], "formatted_address": "1801 Augustine Cut Off, Wilmington, DE 19803, USA", "geometry": {"location": {"lat": 39.7625852, "lng": -75.5535578}, "location_type": "ROOFTOP", "viewport": {"northeast": {"lat": 39.76393418029149, "lng": -75.5522088197085}, "southwest": {"lat": 39.76123621970849, "lng": -75.5549067802915}}}, "place_id": "ChIJJ9xCKx_9xokRI9A7LjWWZ_U", "types": ["establishment", "health", "point_of_interest"]}]}, "83792477": {"AfN": "indah water konsortium", "Location": [{"address_components": [{"long_name": "Kampung Kastam Greentown", "short_name": "Kampung Kastam Greentown", "types": ["political", "sublocality", "sublocality_level_1"]}, {"long_name": "Ipoh", "short_name": "Ipoh", "types": ["locality", "political"]}, {"long_name": "Perak", "short_name": "Perak", "types": ["administrative_area_level_1", "political"]}, {"long_name": "Malaysia", "short_name": "MY", "types": ["country", "political"]}, {"long_name": "30450", "short_name": "30450", "types": ["postal_code"]}], "formatted_address": "C-G-8, Block C, Greentown Square, Jalan Dato' Seri Ahmad Said, 30450, Ipoh, Perak, Kampung Kastam Greentown, 30450 Ipoh, Perak, Malaysia", "geometry": {"location": {"lat": 4.6005623, "lng": 101.0947055}, "location_type": "GEOMETRIC_CENTER", "viewport": {"northeast": {"lat": 4.601911280291502, "lng": 101.0960544802915}, "southwest": {"lat": 4.599213319708498, "lng": 101.0933565197085}}}, "place_id": "ChIJpdSOefXsyjERcTVUstlACn4", "types": ["establishment", "point_of_interest"]}]}, "69295118": {"AfN": "independent university of moscow", "Location": [{"address_components": [{"long_name": "11", "short_name": "11", "types": ["street_number"]}, {"long_name": "Bol'shoy Vlas'yevskiy Pereulok", "short_name": "Bol'shoy Vlas'yevskiy Pereulok", "types": ["route"]}, {"long_name": "Tsentralnyy administrativnyy okrug", "short_name": "Tsentralnyy administrativnyy okrug", "types": ["political", "sublocality", "sublocality_level_1"]}, {"long_name": "Moskva", "short_name": "Moskva", "types": ["locality", "political"]}, {"long_name": "Moskva", "short_name": "Moskva", "types": ["administrative_area_level_2", "political"]}, {"long_name": "Russia", "short_name": "RU", "types": ["country", "political"]}, {"long_name": "119002", "short_name": "119002", "types": ["postal_code"]}], "formatted_address": "Bol'shoy Vlas'yevskiy Pereulok, 11, Moskva, Russia, 119002", "geometry": {"location": {"lat": 55.7462746, "lng": 37.5899423}, "location_type": "ROOFTOP", "viewport": {"northeast": {"lat": 55.7476235802915, "lng": 37.59129128029149}, "southwest": {"lat": 55.7449256197085, "lng": 37.58859331970849}}}, "place_id": "ChIJrQbOMbJLtUYRAs7aEgOFFpc", "types": ["establishment", "point_of_interest", "university"]}]}, "1329659770": {"AfN": "index fund advisors", "Location": [{"address_components": [{"long_name": "#150", "short_name": "#150", "types": ["subpremise"]}, {"long_name": "19200", "short_name": "19200", "types": ["street_number"]}, {"long_name": "Von Karman Avenue", "short_name": "Von Karman Ave", "types": ["route"]}, {"long_name": "Irvine Business Complex", "short_name": "Irvine Business Complex", "types": ["neighborhood", "political"]}, {"long_name": "Irvine", "short_name": "Irvine", "types": ["locality", "political"]}, {"long_name": "Orange County", "short_name": "Orange County", "types": ["administrative_area_level_2", "political"]}, {"long_name": "California", "short_name": "CA", "types": ["administrative_area_level_1", "political"]}, {"long_name": "United States", "short_name": "US", "types": ["country", "political"]}, {"long_name": "92612", "short_name": "92612", "types": ["postal_code"]}], "formatted_address": "19200 Von Karman Ave #150, Irvine, CA 92612, USA", "geometry": {"location": {"lat": 33.6705792, "lng": -117.8578392}, "location_type": "ROOFTOP", "viewport": {"northeast": {"lat": 33.6719281802915, "lng": -117.8564902197085}, "southwest": {"lat": 33.6692302197085, "lng": -117.8591881802915}}}, "place_id": "ChIJaQmqnfXe3IARQ6ClrwzYSGY", "types": ["establishment", "point_of_interest"]}, {"address_components": [{"long_name": "303", "short_name": "303", "types": ["street_number"]}, {"long_name": "East Lubbock Street", "short_name": "E Lubbock St", "types": ["route"]}, {"long_name": "Brenham", "short_name": "Brenham", "types": ["locality", "political"]}, {"long_name": "Washington County", "short_name": "Washington County", "types": ["administrative_area_level_2", "political"]}, {"long_name": "Texas", "short_name": "TX", "types": ["administrative_area_level_1", "political"]}, {"long_name": "United States", "short_name": "US", "types": ["country", "political"]}, {"long_name": "77833", "short_name": "77833", "types": ["postal_code"]}, {"long_name": "4999", "short_name": "4999", "types": ["postal_code_suffix"]}], "formatted_address": "303 E Lubbock St, Brenham, TX 77833, USA", "geometry": {"location": {"lat": 30.1535643, "lng": -96.3922861}, "location_type": "ROOFTOP", "viewport": {"northeast": {"lat": 30.1549132802915, "lng": -96.39093711970851}, "southwest": {"lat": 30.1522153197085, "lng": -96.39363508029152}}}, "place_id": "ChIJmWObBzqoRoYRZxVX0xFjoAM", "types": ["establishment", "point_of_interest"]}]}, "45509622": {"AfN": "indian agricultural research institute", "Location": [{"address_components": [{"long_name": "2199", "short_name": "2199", "types": ["street_number"]}, {"long_name": "South Rock Road", "short_name": "S Rock Rd", "types": ["route"]}, {"long_name": "Fort Pierce", "short_name": "Fort Pierce", "types": ["locality", "political"]}, {"long_name": "St. Lucie County", "short_name": "St Lucie County", "types": ["administrative_area_level_2", "political"]}, {"long_name": "Florida", "short_name": "FL", "types": ["administrative_area_level_1", "political"]}, {"long_name": "United States", "short_name": "US", "types": ["country", "political"]}, {"long_name": "34945", "short_name": "34945", "types": ["postal_code"]}, {"long_name": "3138", "short_name": "3138", "types": ["postal_code_suffix"]}], "formatted_address": "2199 S Rock Rd, Fort Pierce, FL 34945, USA", "geometry": {"location": {"lat": 27.426089, "lng": -80.4080479}, "location_type": "ROOFTOP", "viewport": {"northeast": {"lat": 27.4274379802915, "lng": -80.4066989197085}, "southwest": {"lat": 27.4247400197085, "lng": -80.40939688029151}}}, "place_id": "ChIJySyQB2Hy3ogRBIbnNCu56bE", "types": ["establishment", "library", "point_of_interest"]}]}, "165998391": {"AfN": "indian association for the cultivation of science", "Location": [{"address_components": [{"long_name": "Kolkata", "short_name": "Kolkata", "types": ["locality", "political"]}, {"long_name": "West Bengal", "short_name": "WB", "types": ["administrative_area_level_1", "political"]}, {"long_name": "India", "short_name": "IN", "types": ["country", "political"]}, {"long_name": "700032", "short_name": "700032", "types": ["postal_code"]}], "formatted_address": "2A & 2B Raja S C Mullick Road, Poddar Nagar, Jadavpur, Kolkata, West Bengal 700032, India", "geometry": {"location": {"lat": 22.4983119, "lng": 88.3685598}, "location_type": "GEOMETRIC_CENTER", "viewport": {"northeast": {"lat": 22.4996608802915, "lng": 88.3699087802915}, "southwest": {"lat": 22.49696291970849, "lng": 88.36721081970849}}}, "place_id": "ChIJ5-9aBCRxAjoRyubKmVoZaj8", "types": ["establishment", "point_of_interest"]}]}, "179420787": {"AfN": "indian council of agricultural research", "Location": [{"address_components": [{"long_name": "New Delhi", "short_name": "New Delhi", "types": ["locality", "political"]}, {"long_name": "Delhi", "short_name": "DL", "types": ["administrative_area_level_1", "political"]}, {"long_name": "India", "short_name": "IN", "types": ["country", "political"]}, {"long_name": "110001", "short_name": "110001", "types": ["postal_code"]}], "formatted_address": "Krishi Bhavan, Raisina Road, Opp Rail Bhavan, New Delhi, Delhi 110001, India", "geometry": {"location": {"lat": 28.6259513, "lng": 77.1609848}, "location_type": "GEOMETRIC_CENTER", "viewport": {"northeast": {"lat": 28.6273002802915, "lng": 77.16233378029149}, "southwest": {"lat": 28.6246023197085, "lng": 77.15963581970848}}}, "place_id": "ChIJRfKJI84CDTkR74sCXKLutd0", "types": ["establishment", "point_of_interest"]}]}, "37048141": {"AfN": "indian council of medical research", "Location": [{"address_components": [{"long_name": "New Delhi", "short_name": "New Delhi", "types": ["locality", "political"]}, {"long_name": "Delhi", "short_name": "DL", "types": ["administrative_area_level_1", "political"]}, {"long_name": "India", "short_name": "IN", "types": ["country", "political"]}, {"long_name": "110029", "short_name": "110029", "types": ["postal_code"]}], "formatted_address": "Ansari Nagar East, New Delhi, Delhi 110029, India", "geometry": {"location": {"lat": 28.5685185, "lng": 77.2144867}, "location_type": "GEOMETRIC_CENTER", "viewport": {"northeast": {"lat": 28.56986748029151, "lng": 77.2158356802915}, "southwest": {"lat": 28.5671695197085, "lng": 77.21313771970848}}}, "place_id": "ChIJ-VsVVWbiDDkRffFp3tJa2ok", "types": ["establishment", "health", "point_of_interest"]}]}, "1301384047": {"AfN": "indian department of telecommunications", "Location": [{"address_components": [{"long_name": "800", "short_name": "800", "types": ["street_number"]}, {"long_name": "East 3rd Street", "short_name": "E 3rd St", "types": ["route"]}, {"long_name": "Bloomington", "short_name": "Bloomington", "types": ["locality", "political"]}, {"long_name": "Perry Township", "short_name": "Perry Township", "types": ["administrative_area_level_3", "political"]}, {"long_name": "Monroe County", "short_name": "Monroe County", "types": ["administrative_area_level_2", "political"]}, {"long_name": "Indiana", "short_name": "IN", "types": ["administrative_area_level_1", "political"]}, {"long_name": "United States", "short_name": "US", "types": ["country", "political"]}, {"long_name": "47405", "short_name": "47405", "types": ["postal_code"]}, {"long_name": "3657", "short_name": "3657", "types": ["postal_code_suffix"]}], "formatted_address": "800 E 3rd St, Bloomington, IN 47405, USA", "geometry": {"location": {"lat": 39.1637055, "lng": -86.5237326}, "location_type": "ROOFTOP", "viewport": {"northeast": {"lat": 39.1650544802915, "lng": -86.52238361970849}, "southwest": {"lat": 39.1623565197085, "lng": -86.5250815802915}}}, "partial_match": true, "place_id": "ChIJewElu75mbIgRvAN1EDZx0NM", "types": ["establishment", "point_of_interest"]}]}, "157850169": {"AfN": "indian health service", "Location": [{"address_components": [{"long_name": "701", "short_name": "701", "types": ["street_number"]}, {"long_name": "Market Drive", "short_name": "Market Dr", "types": ["route"]}, {"long_name": "Oklahoma City", "short_name": "Oklahoma City", "types": ["locality", "political"]}, {"long_name": "Oklahoma", "short_name": "OK", "types": ["administrative_area_level_1", "political"]}, {"long_name": "United States", "short_name": "US", "types": ["country", "political"]}, {"long_name": "73131", "short_name": "73131", "types": ["postal_code"]}], "formatted_address": "73114, 701 Market Dr, Oklahoma City, OK 73131, United States", "geometry": {"location": {"lat": 35.5973989, "lng": -97.5003808}, "location_type": "ROOFTOP", "viewport": {"northeast": {"lat": 35.5987478802915, "lng": -97.49903181970849}, "southwest": {"lat": 35.59604991970851, "lng": -97.50172978029151}}}, "place_id": "ChIJEfW8qssesocRKfF_aUayITA", "types": ["establishment", "health", "point_of_interest"]}]}, "140717209": {"AfN": "indian institute of astrophysics", "Location": [{"address_components": [{"long_name": "Bengaluru", "short_name": "Bengaluru", "types": ["locality", "political"]}, {"long_name": "Karnataka", "short_name": "KA", "types": ["administrative_area_level_1", "political"]}, {"long_name": "India", "short_name": "IN", "types": ["country", "political"]}, {"long_name": "560034", "short_name": "560034", "types": ["postal_code"]}], "formatted_address": "Sarjapur Main Road, 2nd Block, Koramangala, Bengaluru, Karnataka 560034, India", "geometry": {"location": {"lat": 12.9270386, "lng": 77.6212048}, "location_type": "GEOMETRIC_CENTER", "viewport": {"northeast": {"lat": 12.9283875802915, "lng": 77.62255378029151}, "southwest": {"lat": 12.9256896197085, "lng": 77.6198558197085}}}, "place_id": "ChIJ__0vslkUrjsR3u7KsFgpZ6k", "types": ["establishment", "point_of_interest"]}]}, "160344538": {"AfN": "indian institute of chemical biology", "Location": [{"address_components": [{"long_name": "4, Raja", "short_name": "4, Raja", "types": ["street_number"]}, {"long_name": "Raja Subodh Chandra Mallick Road", "short_name": "SC Mullick Road", "types": ["route"]}, {"long_name": "Poddar Nagar", "short_name": "Poddar Nagar", "types": ["political", "sublocality", "sublocality_level_2"]}, {"long_name": "Jadavpur", "short_name": "Jadavpur", "types": ["political", "sublocality", "sublocality_level_1"]}, {"long_name": "Kolkata", "short_name": "Kolkata", "types": ["locality", "political"]}, {"long_name": "Kolkata", "short_name": "Kolkata", "types": ["administrative_area_level_2", "political"]}, {"long_name": "West Bengal", "short_name": "WB", "types": ["administrative_area_level_1", "political"]}, {"long_name": "India", "short_name": "IN", "types": ["country", "political"]}, {"long_name": "700032", "short_name": "700032", "types": ["postal_code"]}], "formatted_address": "4, Raja, Raja Subodh Chandra Mallick Rd, Poddar Nagar, Jadavpur, Kolkata, West Bengal 700032, India", "geometry": {"location": {"lat": 22.4974066, "lng": 88.369979}, "location_type": "ROOFTOP", "viewport": {"northeast": {"lat": 22.4987555802915, "lng": 88.37132798029151}, "southwest": {"lat": 22.49605761970849, "lng": 88.3686300197085}}}, "place_id": "ChIJV9H16qV1AjoRNOHk_60kTSQ", "types": ["establishment", "point_of_interest"]}]}, "55664587": {"AfN": "indian institute of chemical technology", "Location": [{"address_components": [{"long_name": "Hyderabad", "short_name": "Hyderabad", "types": ["locality", "political"]}, {"long_name": "Telangana", "short_name": "Telangana", "types": ["administrative_area_level_1", "political"]}, {"long_name": "India", "short_name": "IN", "types": ["country", "political"]}, {"long_name": "500007", "short_name": "500007", "types": ["postal_code"]}], "formatted_address": "Uppal Road, IICT Colony, Tarnaka, Hyderabad, Telangana 500007, India", "geometry": {"location": {"lat": 17.4219634, "lng": 78.5395307}, "location_type": "GEOMETRIC_CENTER", "viewport": {"northeast": {"lat": 17.4233123802915, "lng": 78.5408796802915}, "southwest": {"lat": 17.4206144197085, "lng": 78.53818171970849}}}, "place_id": "ChIJWTGGAmeZyzsRw5nbFzWj7ho", "types": ["establishment", "point_of_interest"]}]}, "98365261": {"AfN": "indian institute of engineering science and technology shibpur", "Location": [{"address_components": [{"long_name": "Howrah", "short_name": "Howrah", "types": ["locality", "political"]}, {"long_name": "West Bengal", "short_name": "WB", "types": ["administrative_area_level_1", "political"]}, {"long_name": "India", "short_name": "IN", "types": ["country", "political"]}, {"long_name": "711103", "short_name": "711103", "types": ["postal_code"]}], "formatted_address": "P.O. - Botanic Garden, Howrah, West Bengal 711103, India", "geometry": {"location": {"lat": 22.5551808, "lng": 88.3071379}, "location_type": "GEOMETRIC_CENTER", "viewport": {"northeast": {"lat": 22.5565297802915, "lng": 88.30848688029151}, "southwest": {"lat": 22.5538318197085, "lng": 88.30578891970849}}}, "place_id": "ChIJSS2NGsl5AjoRHQPPdIxQ7sY", "types": ["establishment", "point_of_interest", "university"]}]}, "26072440": {"AfN": "indian institute of information technology allahabad", "Location": [{"address_components": [{"long_name": "Allahabad", "short_name": "Allahabad", "types": ["locality", "political"]}, {"long_name": "Uttar Pradesh", "short_name": "UP", "types": ["administrative_area_level_1", "political"]}, {"long_name": "India", "short_name": "IN", "types": ["country", "political"]}, {"long_name": "211015", "short_name": "211015", "types": ["postal_code"]}], "formatted_address": "IIIT Rd, Near Boys Hostel, Devghat, Jhalwa, Allahabad, Uttar Pradesh 211015, India", "geometry": {"location": {"lat": 25.430287, "lng": 81.770789}, "location_type": "GEOMETRIC_CENTER", "viewport": {"northeast": {"lat": 25.4316359802915, "lng": 81.7721379802915}, "southwest": {"lat": 25.4289380197085, "lng": 81.76944001970848}}}, "place_id": "ChIJUUSUaMfKmjkRP0z3MaADDB8", "types": ["establishment", "point_of_interest", "university"]}]}, "207223250": {"AfN": "indian institute of information technology design and manufacturing jabalpur", "Location": [{"address_components": [{"long_name": "Jabalpur", "short_name": "Jabalpur", "types": ["locality", "political"]}, {"long_name": "Madhya Pradesh", "short_name": "MP", "types": ["administrative_area_level_1", "political"]}, {"long_name": "India", "short_name": "IN", "types": ["country", "political"]}, {"long_name": "482005", "short_name": "482005", "types": ["postal_code"]}], "formatted_address": "Dumna Airport Road, Dumna, Jabalpur, Madhya Pradesh 482005, India", "geometry": {"location": {"lat": 23.1801406, "lng": 80.0268662}, "location_type": "GEOMETRIC_CENTER", "viewport": {"northeast": {"lat": 23.1814895802915, "lng": 80.02821518029151}, "southwest": {"lat": 23.1787916197085, "lng": 80.0255172197085}}}, "place_id": "ChIJ_TWYPUGpgTkRLkVY0JkA4_8", "types": ["establishment", "point_of_interest", "university"]}]}, "150870154": {"AfN": "indian institute of management ahmedabad", "Location": [{"address_components": [{"long_name": "Ahmedabad", "short_name": "Ahmedabad", "types": ["locality", "political"]}, {"long_name": "Gujarat", "short_name": "GJ", "types": ["administrative_area_level_1", "political"]}, {"long_name": "India", "short_name": "IN", "types": ["country", "political"]}, {"long_name": "380015", "short_name": "380015", "types": ["postal_code"]}], "formatted_address": "Sargam Marg, Vastrapur, Ahmedabad, Gujarat 380015, India", "geometry": {"location": {"lat": 23.0329473, "lng": 72.5327703}, "location_type": "GEOMETRIC_CENTER", "viewport": {"northeast": {"lat": 23.0342962802915, "lng": 72.5341192802915}, "southwest": {"lat": 23.0315983197085, "lng": 72.53142131970849}}}, "place_id": "ChIJe_V428eEXjkROVzQPrY9pxg", "types": ["establishment", "point_of_interest", "university"]}]}, "44430492": {"AfN": "indian institute of management bangalore", "Location": [{"address_components": [{"long_name": "Bengaluru", "short_name": "Bengaluru", "types": ["locality", "political"]}, {"long_name": "Karnataka", "short_name": "KA", "types": ["administrative_area_level_1", "political"]}, {"long_name": "India", "short_name": "IN", "types": ["country", "political"]}, {"long_name": "560076", "short_name": "560076", "types": ["postal_code"]}], "formatted_address": "Bannerghatta Road, Bengaluru, Karnataka 560076, India", "geometry": {"location": {"lat": 12.8956152, "lng": 77.602547}, "location_type": "GEOMETRIC_CENTER", "viewport": {"northeast": {"lat": 12.8969641802915, "lng": 77.60389598029151}, "southwest": {"lat": 12.8942662197085, "lng": 77.60119801970849}}}, "place_id": "ChIJaXFeSyIVrjsR3Zs_dNq5vSU", "types": ["establishment", "point_of_interest", "university"]}]}, "71495548": {"AfN": "indian institute of management calcutta", "Location": [{"address_components": [{"long_name": "Kolkata", "short_name": "Kolkata", "types": ["locality", "political"]}, {"long_name": "West Bengal", "short_name": "WB", "types": ["administrative_area_level_1", "political"]}, {"long_name": "India", "short_name": "IN", "types": ["country", "political"]}, {"long_name": "700104", "short_name": "700104", "types": ["postal_code"]}], "formatted_address": "Diamond Harbour Road, Joka, Kolkata, West Bengal 700104, India", "geometry": {"location": {"lat": 22.4447493, "lng": 88.2996716}, "location_type": "GEOMETRIC_CENTER", "viewport": {"northeast": {"lat": 22.4460982802915, "lng": 88.3010205802915}, "southwest": {"lat": 22.4434003197085, "lng": 88.2983226197085}}}, "place_id": "ChIJV4FN1cF6AjoRQn268hSP9QY", "types": ["establishment", "point_of_interest", "university"]}]}, "111245572": {"AfN": "indian institute of management raipur", "Location": [{"address_components": [{"long_name": "Raipur", "short_name": "Raipur", "types": ["locality", "political"]}, {"long_name": "Chhattisgarh", "short_name": "CT", "types": ["administrative_area_level_1", "political"]}, {"long_name": "India", "short_name": "IN", "types": ["country", "political"]}, {"long_name": "492015", "short_name": "492015", "types": ["postal_code"]}], "formatted_address": "GEC Campus, Sejbahar, Raipur, Chhattisgarh 492015, India", "geometry": {"location": {"lat": 21.1638888, "lng": 81.6586428}, "location_type": "GEOMETRIC_CENTER", "viewport": {"northeast": {"lat": 21.1652377802915, "lng": 81.65999178029149}, "southwest": {"lat": 21.1625398197085, "lng": 81.65729381970849}}}, "place_id": "ChIJa8tdNWXbKDoRLhgpR4mHNms", "types": ["establishment", "point_of_interest"]}]}, "84279003": {"AfN": "indian institute of petroleum", "Location": [{"address_components": [{"long_name": "Haridwar Road", "short_name": "Haridwar Rd", "types": ["route"]}, {"long_name": "IIP", "short_name": "IIP", "types": ["political", "sublocality", "sublocality_level_2"]}, {"long_name": "Mohkampur", "short_name": "Mohkampur", "types": ["political", "sublocality", "sublocality_level_1"]}, {"long_name": "Dehradun", "short_name": "Dehradun", "types": ["locality", "political"]}, {"long_name": "Dehradun", "short_name": "Dehradun", "types": ["administrative_area_level_2", "political"]}, {"long_name": "Uttarakhand", "short_name": "UK", "types": ["administrative_area_level_1", "political"]}, {"long_name": "India", "short_name": "IN", "types": ["country", "political"]}, {"long_name": "248005", "short_name": "248005", "types": ["postal_code"]}], "formatted_address": "Haridwar Rd, IIP, Mohkampur, Dehradun, Uttarakhand 248005, India", "geometry": {"location": {"lat": 30.2684978, "lng": 78.0785026}, "location_type": "GEOMETRIC_CENTER", "viewport": {"northeast": {"lat": 30.2698467802915, "lng": 78.0798515802915}, "southwest": {"lat": 30.2671488197085, "lng": 78.0771536197085}}}, "place_id": "ChIJg0DsVsUoCTkR8CgMvx9Zn3o", "types": ["establishment", "point_of_interest", "university"]}]}, "59270414": {"AfN": "indian institute of science", "Location": [{"address_components": [{"long_name": "CV Raman Road", "short_name": "CV Raman Rd", "types": ["route"]}, {"long_name": "Bengaluru", "short_name": "Bengaluru", "types": ["locality", "political"]}, {"long_name": "Bangalore Urban", "short_name": "Bangalore Urban", "types": ["administrative_area_level_2", "political"]}, {"long_name": "Karnataka", "short_name": "KA", "types": ["administrative_area_level_1", "political"]}, {"long_name": "India", "short_name": "IN", "types": ["country", "political"]}, {"long_name": "560012", "short_name": "560012", "types": ["postal_code"]}], "formatted_address": "CV Raman Rd, Bengaluru, Karnataka 560012, India", "geometry": {"location": {"lat": 13.0218597, "lng": 77.5671423}, "location_type": "GEOMETRIC_CENTER", "viewport": {"northeast": {"lat": 13.0232086802915, "lng": 77.56849128029151}, "southwest": {"lat": 13.0205107197085, "lng": 77.56579331970849}}}, "place_id": "ChIJ-xvRV9cXrjsRP8FF02TNwT8", "types": ["establishment", "point_of_interest"]}, {"address_components": [{"long_name": "Bengaluru", "short_name": "Bengaluru", "types": ["locality", "political"]}, {"long_name": "Karnataka", "short_name": "KA", "types": ["administrative_area_level_1", "political"]}, {"long_name": "India", "short_name": "IN", "types": ["country", "political"]}, {"long_name": "560012", "short_name": "560012", "types": ["postal_code"]}], "formatted_address": "Indian Institute of Science, Bengaluru, Karnataka 560012, India", "geometry": {"location": {"lat": 13.0214502, "lng": 77.56850299999999}, "location_type": "GEOMETRIC_CENTER", "viewport": {"northeast": {"lat": 13.0227991802915, "lng": 77.5698519802915}, "southwest": {"lat": 13.0201012197085, "lng": 77.56715401970848}}}, "place_id": "ChIJ34g7utAXrjsRgdkMML8uHkk", "types": ["establishment", "lodging", "point_of_interest"]}]}, "127439422": {"AfN": "indian institute of science education and research kolkata", "Location": [{"address_components": [{"long_name": "Kolkata", "short_name": "Kolkata", "types": ["locality", "political"]}, {"long_name": "West Bengal", "short_name": "WB", "types": ["administrative_area_level_1", "political"]}, {"long_name": "India", "short_name": "IN", "types": ["country", "political"]}, {"long_name": "700064", "short_name": "700064", "types": ["postal_code"]}], "formatted_address": "35/1, 2nd Avenue, DC Block, Sector-1, Salt Lake City, Bidhannagar, Kolkata, West Bengal 700064, India", "geometry": {"location": {"lat": 22.5893924, "lng": 88.40789170000001}, "location_type": "GEOMETRIC_CENTER", "viewport": {"northeast": {"lat": 22.5907413802915, "lng": 88.40924068029152}, "southwest": {"lat": 22.5880434197085, "lng": 88.40654271970851}}}, "place_id": "ChIJ9fq_a-d1AjoRb81LZvrAKvw", "types": ["establishment", "point_of_interest"]}]}, "165916956": {"AfN": "indian institute of science education and research mohali", "Location": [{"address_components": [{"long_name": "Sahibzada Ajit Singh Nagar", "short_name": "SAS Nagar", "types": ["locality", "political"]}, {"long_name": "Punjab", "short_name": "PB", "types": ["administrative_area_level_1", "political"]}, {"long_name": "India", "short_name": "IN", "types": ["country", "political"]}, {"long_name": "140306", "short_name": "140306", "types": ["postal_code"]}], "formatted_address": "Knowledge city, Sector 81, Manauli PO, Sahibzada Ajit Singh Nagar, Punjab 140306, India", "geometry": {"location": {"lat": 30.6649526, "lng": 76.73004209999999}, "location_type": "GEOMETRIC_CENTER", "viewport": {"northeast": {"lat": 30.6663015802915, "lng": 76.7313910802915}, "southwest": {"lat": 30.6636036197085, "lng": 76.7286931197085}}}, "place_id": "ChIJz4uor1XpDzkRfxlvShFWY6s", "types": ["establishment", "point_of_interest"]}]}, "181996519": {"AfN": "indian institute of science education and research pune", "Location": [{"address_components": [{"long_name": "Pune", "short_name": "Pune", "types": ["locality", "political"]}, {"long_name": "Maharashtra", "short_name": "MH", "types": ["administrative_area_level_1", "political"]}, {"long_name": "India", "short_name": "IN", "types": ["country", "political"]}, {"long_name": "411008", "short_name": "411008", "types": ["postal_code"]}], "formatted_address": "Doctor Homi Bhabha Road, NCL Colony, Pashan, Pune, Maharashtra 411008, India", "geometry": {"location": {"lat": 18.547456, "lng": 73.8076288}, "location_type": "GEOMETRIC_CENTER", "viewport": {"northeast": {"lat": 18.5488049802915, "lng": 73.80897778029151}, "southwest": {"lat": 18.5461070197085, "lng": 73.80627981970851}}}, "place_id": "ChIJscdVhxe_wjsRyt9yGYbQ5tA", "types": ["establishment", "point_of_interest"]}]}, "50557253": {"AfN": "indian institute of science education and research thiruvananthapuram", "Location": [{"address_components": [{"long_name": "Kurisadi Road, Manvila", "short_name": "Kurisadi Road, Manvila", "types": ["street_number"]}, {"long_name": "Sreekariyam - Kazhakuttam Road", "short_name": "Sreekariyam - Kazhakuttam Rd", "types": ["route"]}, {"long_name": "Ambady Nagar", "short_name": "Ambady Nagar", "types": ["neighborhood", "political"]}, {"long_name": "Thiruvananthapuram", "short_name": "TVM", "types": ["locality", "political"]}, {"long_name": "Thiruvananthapuram", "short_name": "TVM", "types": ["administrative_area_level_2", "political"]}, {"long_name": "Kerala", "short_name": "KL", "types": ["administrative_area_level_1", "political"]}, {"long_name": "India", "short_name": "IN", "types": ["country", "political"]}, {"long_name": "695016", "short_name": "695016", "types": ["postal_code"]}], "formatted_address": "Kurisadi Road, Manvila, Sreekariyam - Kazhakuttam Rd, Ambady Nagar, Thiruvananthapuram, Kerala 695016, India", "geometry": {"location": {"lat": 8.546472999999999, "lng": 76.90454129999999}, "location_type": "ROOFTOP", "viewport": {"northeast": {"lat": 8.5478219802915, "lng": 76.9058902802915}, "southwest": {"lat": 8.545124019708496, "lng": 76.9031923197085}}}, "place_id": "ChIJY42rkMe-BTsRJoWbPn1eLqI", "types": ["establishment", "point_of_interest", "school"]}, {"address_components": [{"long_name": "Thiruvananthapuram", "short_name": "Thiruvananthapuram", "types": ["locality", "political"]}, {"long_name": "Kerala", "short_name": "KL", "types": ["administrative_area_level_1", "political"]}, {"long_name": "India", "short_name": "IN", "types": ["country", "political"]}, {"long_name": "695551", "short_name": "695551", "types": ["postal_code"]}], "formatted_address": "Maruthamala PO, Vithura, Thiruvananthapuram, Kerala 695551, India", "geometry": {"location": {"lat": 8.6822594, "lng": 77.1365292}, "location_type": "GEOMETRIC_CENTER", "viewport": {"northeast": {"lat": 8.683608380291503, "lng": 77.13787818029151}, "southwest": {"lat": 8.680910419708498, "lng": 77.13518021970849}}}, "place_id": "ChIJ_XCrgMe-BTsRbwjvDE2pYMk", "types": ["establishment", "point_of_interest", "university"]}]}, "882761360": {"AfN": "indian institute of space science and technology", "Location": [{"address_components": [{"long_name": "Thiruvananthapuram", "short_name": "Thiruvananthapuram", "types": ["locality", "political"]}, {"long_name": "Kerala", "short_name": "KL", "types": ["administrative_area_level_1", "political"]}, {"long_name": "India", "short_name": "IN", "types": ["country", "political"]}, {"long_name": "695547", "short_name": "695547", "types": ["postal_code"]}], "formatted_address": "Valiamala Road, Valiamala, Thiruvananthapuram, Kerala 695547, India", "geometry": {"location": {"lat": 8.6264454, "lng": 77.033811}, "location_type": "GEOMETRIC_CENTER", "viewport": {"northeast": {"lat": 8.627794380291503, "lng": 77.0351599802915}, "southwest": {"lat": 8.625096419708498, "lng": 77.03246201970849}}}, "place_id": "ChIJp_RaUj3IBTsR4dWM-bx2fk8", "types": ["establishment", "point_of_interest", "university"]}]}, "56404289": {"AfN": "indian institute of technology bhu varanasi", "Location": [{"address_components": [{"long_name": "Varanasi", "short_name": "Varanasi", "types": ["locality", "political"]}, {"long_name": "Uttar Pradesh", "short_name": "UP", "types": ["administrative_area_level_1", "political"]}, {"long_name": "India", "short_name": "IN", "types": ["country", "political"]}, {"long_name": "221005", "short_name": "221005", "types": ["postal_code"]}], "formatted_address": "IIT-BHU, Banaras Hindu University Campus, Varanasi, Uttar Pradesh 221005, India", "geometry": {"location": {"lat": 25.2624615, "lng": 82.9893807}, "location_type": "GEOMETRIC_CENTER", "viewport": {"northeast": {"lat": 25.2638104802915, "lng": 82.99072968029151}, "southwest": {"lat": 25.2611125197085, "lng": 82.9880317197085}}}, "place_id": "ChIJBSOkCysyjjkRsy7Nn7koWws", "types": ["establishment", "point_of_interest"]}]}, "99729588": {"AfN": "indian institute of technology bhubaneswar", "Location": [{"address_components": [{"long_name": "Bhubaneswar", "short_name": "Bhubaneswar", "types": ["locality", "political"]}, {"long_name": "Odisha", "short_name": "OD", "types": ["administrative_area_level_1", "political"]}, {"long_name": "India", "short_name": "IN", "types": ["country", "political"]}, {"long_name": "751013", "short_name": "751013", "types": ["postal_code"]}], "formatted_address": "Samantapuri, Behind Hotel Swosti Plaza, Gajapati Nagar, Bhubaneswar, Odisha 751013, India", "geometry": {"location": {"lat": 20.3081, "lng": 85.825586}, "location_type": "GEOMETRIC_CENTER", "viewport": {"northeast": {"lat": 20.3094489802915, "lng": 85.82693498029151}, "southwest": {"lat": 20.3067510197085, "lng": 85.8242370197085}}}, "place_id": "ChIJD23UJlCnGToR9CJgQ2z-rtI", "types": ["establishment", "point_of_interest", "university"]}]}, "162827531": {"AfN": "indian institute of technology bombay", "Location": [{"address_components": [{"long_name": "Powai", "short_name": "Powai", "types": ["neighborhood", "political"]}, {"long_name": "Mumbai", "short_name": "Mumbai", "types": ["locality", "political"]}, {"long_name": "Maharashtra", "short_name": "MH", "types": ["administrative_area_level_1", "political"]}, {"long_name": "India", "short_name": "IN", "types": ["country", "political"]}, {"long_name": "400076", "short_name": "400076", "types": ["postal_code"]}], "formatted_address": "Main Gate Road, Powai, Mumbai, Maharashtra 400076, India", "geometry": {"location": {"lat": 19.1334302, "lng": 72.9132679}, "location_type": "GEOMETRIC_CENTER", "viewport": {"northeast": {"lat": 19.1347791802915, "lng": 72.9146168802915}, "southwest": {"lat": 19.1320812197085, "lng": 72.91191891970848}}}, "place_id": "ChIJOcDvifHH5zsRTonFxaTO_Wg", "types": ["establishment", "point_of_interest", "university"]}]}, "68891433": {"AfN": "indian institute of technology delhi", "Location": [{"address_components": [{"long_name": "New Delhi", "short_name": "New Delhi", "types": ["locality", "political"]}, {"long_name": "Delhi", "short_name": "DL", "types": ["administrative_area_level_1", "political"]}, {"long_name": "India", "short_name": "IN", "types": ["country", "political"]}, {"long_name": "110016", "short_name": "110016", "types": ["postal_code"]}], "formatted_address": "Outer Ring Road, Hauz Khas, New Delhi, Delhi 110016, India", "geometry": {"location": {"lat": 28.5449756, "lng": 77.19262839999999}, "location_type": "GEOMETRIC_CENTER", "viewport": {"northeast": {"lat": 28.5463245802915, "lng": 77.1939773802915}, "southwest": {"lat": 28.5436266197085, "lng": 77.1912794197085}}}, "place_id": "ChIJtV8FufYdDTkRwKMeayYLwYE", "types": ["establishment", "point_of_interest", "university"]}]}, "27674431": {"AfN": "indian institute of technology gandhinagar", "Location": [{"address_components": [{"long_name": "Gandhinagar", "short_name": "Gandhinagar", "types": ["locality", "political"]}, {"long_name": "Gujarat", "short_name": "GJ", "types": ["administrative_area_level_1", "political"]}, {"long_name": "India", "short_name": "IN", "types": ["country", "political"]}, {"long_name": "382355", "short_name": "382355", "types": ["postal_code"]}], "formatted_address": "Palaj, Gandhinagar, Gujarat 382355, India", "geometry": {"location": {"lat": 23.2130988, "lng": 72.6870318}, "location_type": "GEOMETRIC_CENTER", "viewport": {"northeast": {"lat": 23.2144477802915, "lng": 72.68838078029151}, "southwest": {"lat": 23.21174981970849, "lng": 72.6856828197085}}}, "place_id": "ChIJjW3xwd4qXDkRw5toBod7RNw", "types": ["establishment", "point_of_interest", "university"]}, {"address_components": [{"long_name": "Gandhinagar", "short_name": "Gandhinagar", "types": ["locality", "political"]}, {"long_name": "Gujarat", "short_name": "GJ", "types": ["administrative_area_level_1", "political"]}, {"long_name": "India", "short_name": "IN", "types": ["country", "political"]}, {"long_name": "382355", "short_name": "382355", "types": ["postal_code"]}], "formatted_address": "Village Palaj Simkheda, Gandhinagar, Gujarat 382355, India", "geometry": {"location": {"lat": 23.2134528, "lng": 72.68463659999999}, "location_type": "GEOMETRIC_CENTER", "viewport": {"northeast": {"lat": 23.2148017802915, "lng": 72.6859855802915}, "southwest": {"lat": 23.2121038197085, "lng": 72.6832876197085}}}, "place_id": "ChIJkavyH-AqXDkRVWlbn17Hx6M", "types": ["establishment", "point_of_interest", "university"]}]}, "1317621060": {"AfN": "indian institute of technology guwahati", "Location": [{"address_components": [{"long_name": "Guwahati", "short_name": "Guwahati", "types": ["locality", "political"]}, {"long_name": "Assam", "short_name": "AS", "types": ["administrative_area_level_1", "political"]}, {"long_name": "India", "short_name": "IN", "types": ["country", "political"]}, {"long_name": "781039", "short_name": "781039", "types": ["postal_code"]}], "formatted_address": "Near Doul Gobinda Road, Amingaon, North Guwahati, Guwahati, Assam 781039, India", "geometry": {"location": {"lat": 26.1902523, "lng": 91.6920239}, "location_type": "GEOMETRIC_CENTER", "viewport": {"northeast": {"lat": 26.1916012802915, "lng": 91.6933728802915}, "southwest": {"lat": 26.18890331970849, "lng": 91.6906749197085}}}, "place_id": "ChIJ1ZPM58FaWjcR4ZDEz-OB9As", "types": ["establishment", "point_of_interest", "university"]}]}, "65181880": {"AfN": "indian institute of technology hyderabad", "Location": [{"address_components": [{"long_name": "Kandi", "short_name": "Kandi", "types": ["locality", "political"]}, {"long_name": "Telangana", "short_name": "Telangana", "types": ["administrative_area_level_1", "political"]}, {"long_name": "India", "short_name": "IN", "types": ["country", "political"]}, {"long_name": "502285", "short_name": "502285", "types": ["postal_code"]}], "formatted_address": "IITH Main Road, Near NH-65, Sangareddy, Kandi, Telangana 502285, India", "geometry": {"location": {"lat": 17.5947033, "lng": 78.1231054}, "location_type": "GEOMETRIC_CENTER", "viewport": {"northeast": {"lat": 17.5960522802915, "lng": 78.12445438029151}, "southwest": {"lat": 17.5933543197085, "lng": 78.1217564197085}}}, "place_id": "ChIJu_9rE9zvyzsRkZFMWfZPQXM", "types": ["establishment", "point_of_interest", "university"]}]}, "64295750": {"AfN": "indian institute of technology indore", "Location": [{"address_components": [{"long_name": "Khandwa Road", "short_name": "Khandwa Rd", "types": ["route"]}, {"long_name": "Simrol", "short_name": "Simrol", "types": ["locality", "political"]}, {"long_name": "Indore", "short_name": "Indore", "types": ["administrative_area_level_2", "political"]}, {"long_name": "Madhya Pradesh", "short_name": "MP", "types": ["administrative_area_level_1", "political"]}, {"long_name": "India", "short_name": "IN", "types": ["country", "political"]}, {"long_name": "453552", "short_name": "453552", "types": ["postal_code"]}], "formatted_address": "Khandwa Rd, Simrol, Madhya Pradesh 453552, India", "geometry": {"location": {"lat": 22.5203597, "lng": 75.9207231}, "location_type": "GEOMETRIC_CENTER", "viewport": {"northeast": {"lat": 22.5217086802915, "lng": 75.92207208029151}, "southwest": {"lat": 22.5190107197085, "lng": 75.9193741197085}}}, "place_id": "ChIJRXHOy8zvYjkRa1kYmLaMTng", "types": ["establishment", "point_of_interest", "university"]}]}, "94234084": {"AfN": "indian institute of technology kanpur", "Location": [{"address_components": [{"long_name": "Kalyanpur", "short_name": "Kalyanpur", "types": ["political", "sublocality", "sublocality_level_1"]}, {"long_name": "Kanpur", "short_name": "Kanpur", "types": ["locality", "political"]}, {"long_name": "Kanpur Nagar", "short_name": "Kanpur Nagar", "types": ["administrative_area_level_2", "political"]}, {"long_name": "Uttar Pradesh", "short_name": "UP", "types": ["administrative_area_level_1", "political"]}, {"long_name": "India", "short_name": "IN", "types": ["country", "political"]}, {"long_name": "208016", "short_name": "208016", "types": ["postal_code"]}], "formatted_address": "Kalyanpur, Kanpur, Uttar Pradesh 208016, India", "geometry": {"location": {"lat": 26.5123388, "lng": 80.2329}, "location_type": "GEOMETRIC_CENTER", "viewport": {"northeast": {"lat": 26.5136877802915, "lng": 80.23424898029151}, "southwest": {"lat": 26.5109898197085, "lng": 80.23155101970849}}}, "place_id": "ChIJcb6oxAE3nDkRNoTDq4Do-zo", "types": ["establishment", "point_of_interest", "university"]}]}, "145894827": {"AfN": "indian institute of technology kharagpur", "Location": [{"address_components": [{"long_name": "Kharagpur", "short_name": "KGP", "types": ["locality", "political"]}, {"long_name": "West Medinipur", "short_name": "West Medinipur", "types": ["administrative_area_level_2", "political"]}, {"long_name": "West Bengal", "short_name": "WB", "types": ["administrative_area_level_1", "political"]}, {"long_name": "India", "short_name": "IN", "types": ["country", "political"]}, {"long_name": "721302", "short_name": "721302", "types": ["postal_code"]}], "formatted_address": "Kharagpur, West Bengal 721302, India", "geometry": {"location": {"lat": 22.3149274, "lng": 87.31053109999999}, "location_type": "GEOMETRIC_CENTER", "viewport": {"northeast": {"lat": 22.3162763802915, "lng": 87.31188008029149}, "southwest": {"lat": 22.3135784197085, "lng": 87.30918211970848}}}, "place_id": "ChIJR1VVVQJEHToRk2cNDN0gL28", "types": ["establishment", "point_of_interest", "university"]}]}, "24676775": {"AfN": "indian institute of technology madras", "Location": [{"address_components": [{"long_name": "Chennai", "short_name": "Chennai", "types": ["locality", "political"]}, {"long_name": "Tamil Nadu", "short_name": "TN", "types": ["administrative_area_level_1", "political"]}, {"long_name": "India", "short_name": "IN", "types": ["country", "political"]}, {"long_name": "600036", "short_name": "600036", "types": ["postal_code"]}], "formatted_address": "Sardar Patel Road, Opposite to C, L.R.I, Adyar, Chennai, Tamil Nadu 600036, India", "geometry": {"location": {"lat": 13.0052137, "lng": 80.24200119999999}, "location_type": "GEOMETRIC_CENTER", "viewport": {"northeast": {"lat": 13.0065626802915, "lng": 80.2433501802915}, "southwest": {"lat": 13.0038647197085, "lng": 80.24065221970848}}}, "place_id": "ChIJH6apmvJnUjoRlKDmhUAm7yQ", "types": ["establishment", "point_of_interest", "university"]}]}, "9579091": {"AfN": "indian institute of technology mandi", "Location": [{"address_components": [{"long_name": "Kamand", "short_name": "Kamand", "types": ["locality", "political"]}, {"long_name": "Himachal Pradesh", "short_name": "HP", "types": ["administrative_area_level_1", "political"]}, {"long_name": "India", "short_name": "IN", "types": ["country", "political"]}, {"long_name": "175005", "short_name": "175005", "types": ["postal_code"]}], "formatted_address": "Parashar Road, Tehsil Sadar, Near Kataula, Kamand, Himachal Pradesh 175005, India", "geometry": {"location": {"lat": 31.7753998, "lng": 76.9860747}, "location_type": "GEOMETRIC_CENTER", "viewport": {"northeast": {"lat": 31.77674878029149, "lng": 76.98742368029151}, "southwest": {"lat": 31.7740508197085, "lng": 76.98472571970849}}}, "place_id": "ChIJgf2xVGDjBDkROfPJ3pBKF8M", "types": ["establishment", "point_of_interest", "university"]}, {"address_components": [{"long_name": "Mandi", "short_name": "Mandi", "types": ["locality", "political"]}, {"long_name": "Himachal Pradesh", "short_name": "HP", "types": ["administrative_area_level_1", "political"]}, {"long_name": "India", "short_name": "IN", "types": ["country", "political"]}, {"long_name": "175001", "short_name": "175001", "types": ["postal_code"]}], "formatted_address": "Paddal, Kartarpur, Mandi, Himachal Pradesh 175001, India", "geometry": {"location": {"lat": 31.7061736, "lng": 76.9386272}, "location_type": "GEOMETRIC_CENTER", "viewport": {"northeast": {"lat": 31.7075225802915, "lng": 76.93997618029151}, "southwest": {"lat": 31.7048246197085, "lng": 76.93727821970849}}}, "place_id": "ChIJVR50qj_iBDkRgI6XTxaLNbU", "types": ["establishment", "point_of_interest", "university"]}]}, "132153292": {"AfN": "indian institute of technology patna", "Location": [{"address_components": [{"long_name": "Patna", "short_name": "Patna", "types": ["locality", "political"]}, {"long_name": "Bihar", "short_name": "BR", "types": ["administrative_area_level_1", "political"]}, {"long_name": "India", "short_name": "IN", "types": ["country", "political"]}, {"long_name": "801103", "short_name": "801103", "types": ["postal_code"]}], "formatted_address": "Bihta, Patna, Bihar 801103, India", "geometry": {"location": {"lat": 25.5357523, "lng": 84.8510653}, "location_type": "GEOMETRIC_CENTER", "viewport": {"northeast": {"lat": 25.5371012802915, "lng": 84.85241428029151}, "southwest": {"lat": 25.5344033197085, "lng": 84.8497163197085}}}, "place_id": "ChIJq6RUaX9X7TkRKqAq_Lnx6Gw", "types": ["establishment", "point_of_interest", "university"]}]}, "154851008": {"AfN": "indian institute of technology roorkee", "Location": [{"address_components": [{"long_name": "Roorkee", "short_name": "Roorkee", "types": ["locality", "political"]}, {"long_name": "Uttarakhand", "short_name": "UK", "types": ["administrative_area_level_1", "political"]}, {"long_name": "India", "short_name": "IN", "types": ["country", "political"]}, {"long_name": "247667", "short_name": "247667", "types": ["postal_code"]}], "formatted_address": "Roorkee - Haridwar Highway, Roorkee, Uttarakhand 247667, India", "geometry": {"location": {"lat": 29.8648599, "lng": 77.89657869999999}, "location_type": "GEOMETRIC_CENTER", "viewport": {"northeast": {"lat": 29.8662088802915, "lng": 77.8979276802915}, "southwest": {"lat": 29.8635109197085, "lng": 77.89522971970848}}}, "place_id": "ChIJpzf-C2WzDjkRZwQFrxWb0ak", "types": ["establishment", "point_of_interest", "university"]}]}, "119241673": {"AfN": "indian institute of technology ropar", "Location": [{"address_components": [{"long_name": "Rupnagar", "short_name": "Rupnagar", "types": ["locality", "political"]}, {"long_name": "Punjab", "short_name": "PB", "types": ["administrative_area_level_1", "political"]}, {"long_name": "India", "short_name": "IN", "types": ["country", "political"]}, {"long_name": "140001", "short_name": "140001", "types": ["postal_code"]}], "formatted_address": "Nangal Road, Rupnagar, Punjab 140001, India", "geometry": {"location": {"lat": 30.9756394, "lng": 76.538868}, "location_type": "GEOMETRIC_CENTER", "viewport": {"northeast": {"lat": 30.9769883802915, "lng": 76.5402169802915}, "southwest": {"lat": 30.9742904197085, "lng": 76.5375190197085}}}, "place_id": "ChIJ91he5C9UBTkRuL39fGHCFl0", "types": ["establishment", "point_of_interest", "university"]}]}, "1333651918": {"AfN": "indian institute of tropical meteorology", "Location": [{"address_components": [{"long_name": "Pune", "short_name": "Pune", "types": ["locality", "political"]}, {"long_name": "Maharashtra", "short_name": "MH", "types": ["administrative_area_level_1", "political"]}, {"long_name": "India", "short_name": "IN", "types": ["country", "political"]}, {"long_name": "411008", "short_name": "411008", "types": ["postal_code"]}], "formatted_address": "Dr. Homi Bhabha Road, Pashan, Panchawati, Pune, Maharashtra 411008, India", "geometry": {"location": {"lat": 18.5373929, "lng": 73.8054325}, "location_type": "GEOMETRIC_CENTER", "viewport": {"northeast": {"lat": 18.5387418802915, "lng": 73.8067814802915}, "southwest": {"lat": 18.5360439197085, "lng": 73.80408351970848}}}, "place_id": "ChIJFSlM-e--wjsRwLYtr6gxOMk", "types": ["establishment", "point_of_interest"]}, {"address_components": [{"long_name": "Pune", "short_name": "Pune", "types": ["locality", "political"]}, {"long_name": "Maharashtra", "short_name": "MH", "types": ["administrative_area_level_1", "political"]}, {"long_name": "India", "short_name": "IN", "types": ["country", "political"]}, {"long_name": "411008", "short_name": "411008", "types": ["postal_code"]}], "formatted_address": "Doctor Homi Bhabha Road, Pashan, Pune, Maharashtra 411008, India", "geometry": {"location": {"lat": 18.5416147, "lng": 73.80429459999999}, "location_type": "GEOMETRIC_CENTER", "viewport": {"northeast": {"lat": 18.5429636802915, "lng": 73.8056435802915}, "southwest": {"lat": 18.5402657197085, "lng": 73.8029456197085}}}, "place_id": "ChIJHcsUMQ6_wjsROIJfg6pbKbA", "types": ["establishment", "point_of_interest"]}]}, "122996671": {"AfN": "indian institutes of science education and research", "Location": [{"address_components": [{"long_name": "Pune", "short_name": "Pune", "types": ["locality", "political"]}, {"long_name": "Maharashtra", "short_name": "MH", "types": ["administrative_area_level_1", "political"]}, {"long_name": "India", "short_name": "IN", "types": ["country", "political"]}, {"long_name": "411008", "short_name": "411008", "types": ["postal_code"]}], "formatted_address": "Doctor Homi Bhabha Road, NCL Colony, Pashan, Pune, Maharashtra 411008, India", "geometry": {"location": {"lat": 18.547456, "lng": 73.8076288}, "location_type": "GEOMETRIC_CENTER", "viewport": {"northeast": {"lat": 18.5488049802915, "lng": 73.80897778029151}, "southwest": {"lat": 18.5461070197085, "lng": 73.80627981970851}}}, "place_id": "ChIJscdVhxe_wjsRyt9yGYbQ5tA", "types": ["establishment", "point_of_interest"]}]}, "161076350": {"AfN": "indian institutes of technology", "Location": [{"address_components": [{"long_name": "10", "short_name": "10", "types": ["street_number"]}, {"long_name": "W 35th St", "short_name": "W 35th St", "types": ["route"]}, {"long_name": "Bronzeville", "short_name": "Bronzeville", "types": ["neighborhood", "political"]}, {"long_name": "Chicago", "short_name": "Chicago", "types": ["locality", "political"]}, {"long_name": "Cook County", "short_name": "Cook County", "types": ["administrative_area_level_2", "political"]}, {"long_name": "Illinois", "short_name": "IL", "types": ["administrative_area_level_1", "political"]}, {"long_name": "United States", "short_name": "US", "types": ["country", "political"]}, {"long_name": "60616", "short_name": "60616", "types": ["postal_code"]}], "formatted_address": "10 W 35th St, Chicago, IL 60616, USA", "geometry": {"location": {"lat": 41.8348731, "lng": -87.6270059}, "location_type": "ROOFTOP", "viewport": {"northeast": {"lat": 41.8362220802915, "lng": -87.6256569197085}, "southwest": {"lat": 41.8335241197085, "lng": -87.62835488029151}}}, "place_id": "ChIJD6jp03IsDogRGm_7Gmbky5E", "types": ["establishment", "point_of_interest", "university"]}, {"address_components": [{"long_name": "6", "short_name": "6", "types": ["street_number"]}, {"long_name": "Wellington Lane Avenue", "short_name": "Wellington Ln Ave", "types": ["route"]}, {"long_name": "Lexington", "short_name": "Lexington", "types": ["locality", "political"]}, {"long_name": "Middlesex County", "short_name": "Middlesex County", "types": ["administrative_area_level_2", "political"]}, {"long_name": "Massachusetts", "short_name": "MA", "types": ["administrative_area_level_1", "political"]}, {"long_name": "United States", "short_name": "US", "types": ["country", "political"]}, {"long_name": "02421", "short_name": "02421", "types": ["postal_code"]}, {"long_name": "7146", "short_name": "7146", "types": ["postal_code_suffix"]}], "formatted_address": "6 Wellington Ln Ave, Lexington, MA 02421, USA", "geometry": {"location": {"lat": 42.421805, "lng": -71.2208859}, "location_type": "ROOFTOP", "viewport": {"northeast": {"lat": 42.4231539802915, "lng": -71.2195369197085}, "southwest": {"lat": 42.4204560197085, "lng": -71.22223488029151}}}, "place_id": "ChIJfdBCQaGd44kRRl3PpLCtSWY", "types": ["establishment", "point_of_interest"]}]}, "1314849024": {"AfN": "indian ministry of culture", "Location": [{"address_components": [{"long_name": "1102-1108", "short_name": "1102-1108", "types": ["street_number"]}, {"long_name": "Wasco Street", "short_name": "Wasco St", "types": ["route"]}, {"long_name": "Madras", "short_name": "Madras", "types": ["locality", "political"]}, {"long_name": "Jefferson County", "short_name": "Jefferson County", "types": ["administrative_area_level_2", "political"]}, {"long_name": "Oregon", "short_name": "OR", "types": ["administrative_area_level_1", "political"]}, {"long_name": "United States", "short_name": "US", "types": ["country", "political"]}, {"long_name": "97741", "short_name": "97741", "types": ["postal_code"]}], "formatted_address": "1102-1108 Wasco St, Madras, OR 97741, USA", "geometry": {"location": {"lat": 44.7645642, "lng": -121.2699268}, "location_type": "ROOFTOP", "viewport": {"northeast": {"lat": 44.7659131802915, "lng": -121.2685778197085}, "southwest": {"lat": 44.7632152197085, "lng": -121.2712757802915}}}, "partial_match": true, "place_id": "ChIJ81aLe8vzvlQRD6geHEcEAuo", "types": ["establishment", "point_of_interest"]}, {"address_components": [{"long_name": "Camp Verde", "short_name": "Camp Verde", "types": ["locality", "political"]}, {"long_name": "Yavapai County", "short_name": "Yavapai County", "types": ["administrative_area_level_2", "political"]}, {"long_name": "Arizona", "short_name": "AZ", "types": ["administrative_area_level_1", "political"]}, {"long_name": "United States", "short_name": "US", "types": ["country", "political"]}, {"long_name": "86322", "short_name": "86322", "types": ["postal_code"]}], "formatted_address": "Camp Verde, AZ 86322, USA", "geometry": {"location": {"lat": 34.6045676, "lng": -111.8577542},