{"1297743664": {"AfN": "boyce thompson institute for plant research", "Location": [{"address_components": [{"long_name": "533", "short_name": "533", "types": ["street_number"]}, {"long_name": "Tower Road", "short_name": "Tower Rd", "types": ["route"]}, {"long_name": "Ithaca", "short_name": "Ithaca", "types": ["locality", "political"]}, {"long_name": "Ithaca", "short_name": "Ithaca", "types": ["administrative_area_level_3", "political"]}, {"long_name": "Tompkins County", "short_name": "Tompkins County", "types": ["administrative_area_level_2", "political"]}, {"long_name": "New York", "short_name": "NY", "types": ["administrative_area_level_1", "political"]}, {"long_name": "United States", "short_name": "US", "types": ["country", "political"]}, {"long_name": "14853", "short_name": "14853", "types": ["postal_code"]}], "formatted_address": "533 Tower Rd, Ithaca, NY 14853, USA", "geometry": {"location": {"lat": 42.44692999999999, "lng": -76.467666}, "location_type": "ROOFTOP", "viewport": {"northeast": {"lat": 42.4482789802915, "lng": -76.4663170197085}, "southwest": {"lat": 42.4455810197085, "lng": -76.4690149802915}}}, "place_id": "ChIJz-HnzYqB0IkRE3s1ie9t8O4", "types": ["establishment", "point_of_interest"]}]}, "1307497284": {"AfN": "boys town", "Location": [{"address_components": [{"long_name": "Boys Town", "short_name": "Boys Town", "types": ["locality", "political"]}, {"long_name": "West Omaha", "short_name": "West Omaha", "types": ["neighborhood", "political"]}, {"long_name": "McArdle", "short_name": "McArdle", "types": ["administrative_area_level_3", "political"]}, {"long_name": "Douglas County", "short_name": "Douglas County", "types": ["administrative_area_level_2", "political"]}, {"long_name": "Nebraska", "short_name": "NE", "types": ["administrative_area_level_1", "political"]}, {"long_name": "United States", "short_name": "US", "types": ["country", "political"]}], "formatted_address": "Boys Town, NE, USA", "geometry": {"bounds": {"northeast": {"lat": 41.2644341, "lng": -96.119704}, "southwest": {"lat": 41.2485689, "lng": -96.14836799999999}}, "location": {"lat": 41.2611099, "lng": -96.1319649}, "location_type": "APPROXIMATE", "viewport": {"northeast": {"lat": 41.2644341, "lng": -96.119704}, "southwest": {"lat": 41.2485689, "lng": -96.14836799999999}}}, "place_id": "ChIJvyXv0hvyk4cREwOp1CNmQps", "types": ["locality", "political"]}]}, "20303223": {"AfN": "bp", "Location": [{"address_components": [{"long_name": "414", "short_name": "414", "types": ["street_number"]}, {"long_name": "West Main Street", "short_name": "W Main St", "types": ["route"]}, {"long_name": "Mound City", "short_name": "Mound City", "types": ["locality", "political"]}, {"long_name": "Mound City", "short_name": "Mound City", "types": ["administrative_area_level_3", "political"]}, {"long_name": "Linn County", "short_name": "Linn County", "types": ["administrative_area_level_2", "political"]}, {"long_name": "Kansas", "short_name": "KS", "types": ["administrative_area_level_1", "political"]}, {"long_name": "United States", "short_name": "US", "types": ["country", "political"]}, {"long_name": "66056", "short_name": "66056", "types": ["postal_code"]}], "formatted_address": "414 W Main St, Mound City, KS 66056, USA", "geometry": {"location": {"lat": 38.142886, "lng": -94.811872}, "location_type": "ROOFTOP", "viewport": {"northeast": {"lat": 38.1442349802915, "lng": -94.81052301970848}, "southwest": {"lat": 38.1415370197085, "lng": -94.81322098029149}}}, "place_id": "ChIJ2y4Iv1dpx4cRcKiJIRidaO0", "types": ["establishment", "gas_station", "point_of_interest"]}]}, "35447125": {"AfN": "bp solar", "Location": [{"address_components": [{"long_name": "2530", "short_name": "2530", "types": ["street_number"]}, {"long_name": "Indianapolis Boulevard", "short_name": "Indianapolis Blvd", "types": ["route"]}, {"long_name": "Whiting", "short_name": "Whiting", "types": ["locality", "political"]}, {"long_name": "North Township", "short_name": "North Township", "types": ["administrative_area_level_3", "political"]}, {"long_name": "Lake County", "short_name": "Lake County", "types": ["administrative_area_level_2", "political"]}, {"long_name": "Indiana", "short_name": "IN", "types": ["administrative_area_level_1", "political"]}, {"long_name": "United States", "short_name": "US", "types": ["country", "political"]}, {"long_name": "46394", "short_name": "46394", "types": ["postal_code"]}, {"long_name": "4101", "short_name": "4101", "types": ["postal_code_suffix"]}], "formatted_address": "2530 Indianapolis Blvd, Whiting, IN 46394, USA", "geometry": {"location": {"lat": 41.6680954, "lng": -87.4873192}, "location_type": "ROOFTOP", "viewport": {"northeast": {"lat": 41.6694443802915, "lng": -87.4859702197085}, "southwest": {"lat": 41.6667464197085, "lng": -87.48866818029151}}}, "place_id": "ChIJbad2gzvZEYgRvdxjzQBnGfE", "types": ["establishment", "point_of_interest"]}, {"address_components": [{"long_name": "Suite 101", "short_name": "Suite 101", "types": ["subpremise"]}, {"long_name": "104", "short_name": "104", "types": ["street_number"]}, {"long_name": "Whispering Pines Drive", "short_name": "Whispering Pines Dr", "types": ["route"]}, {"long_name": "Scotts Valley", "short_name": "Scotts Valley", "types": ["locality", "political"]}, {"long_name": "Santa Cruz County", "short_name": "Santa Cruz County", "types": ["administrative_area_level_2", "political"]}, {"long_name": "California", "short_name": "CA", "types": ["administrative_area_level_1", "political"]}, {"long_name": "United States", "short_name": "US", "types": ["country", "political"]}, {"long_name": "95066", "short_name": "95066", "types": ["postal_code"]}, {"long_name": "4799", "short_name": "4799", "types": ["postal_code_suffix"]}], "formatted_address": "104 Whispering Pines Dr Suite 101, Scotts Valley, CA 95066, USA", "geometry": {"location": {"lat": 37.0436439, "lng": -122.026652}, "location_type": "ROOFTOP", "viewport": {"northeast": {"lat": 37.0449928802915, "lng": -122.0253030197085}, "southwest": {"lat": 37.0422949197085, "lng": -122.0280009802915}}}, "place_id": "ChIJJcRoVmAVjoAR3BzbZj7pa5w", "types": ["establishment", "point_of_interest", "store"]}]}, "5518804": {"AfN": "brac university", "Location": [{"address_components": [{"long_name": "BRAC University UB01", "short_name": "BRAC University UB01", "types": ["premise"]}, {"long_name": "Mohakhali", "short_name": "Mohakhali", "types": ["premise"]}, {"long_name": "66", "short_name": "66", "types": ["street_number"]}, {"long_name": "Bir Uttam AK Khandakar Road", "short_name": "Bir Uttam AK Khandakar Road", "types": ["route"]}, {"long_name": "Dhaka", "short_name": "Dhaka", "types": ["locality", "political"]}, {"long_name": "Dhaka District", "short_name": "Dhaka District", "types": ["administrative_area_level_2", "political"]}, {"long_name": "Dhaka Division", "short_name": "Dhaka Division", "types": ["administrative_area_level_1", "political"]}, {"long_name": "Bangladesh", "short_name": "BD", "types": ["country", "political"]}, {"long_name": "1212", "short_name": "1212", "types": ["postal_code"]}], "formatted_address": "BRAC University UB01, Mohakhali, 66 Bir Uttam AK Khandakar Road, Dhaka 1212, Bangladesh", "geometry": {"location": {"lat": 23.7801679, "lng": 90.4071914}, "location_type": "ROOFTOP", "viewport": {"northeast": {"lat": 23.7815168802915, "lng": 90.40854038029151}, "southwest": {"lat": 23.7788189197085, "lng": 90.40584241970849}}}, "place_id": "ChIJA8ZAWnHHVTcR9Tkx83XNAew", "types": ["establishment", "point_of_interest", "university"]}]}, "24648388": {"AfN": "bradley university", "Location": [{"address_components": [{"long_name": "1501", "short_name": "1501", "types": ["street_number"]}, {"long_name": "West Bradley Avenue", "short_name": "W Bradley Ave", "types": ["route"]}, {"long_name": "Peoria", "short_name": "Peoria", "types": ["locality", "political"]}, {"long_name": "Peoria City Township", "short_name": "Peoria City Township", "types": ["administrative_area_level_3", "political"]}, {"long_name": "Peoria County", "short_name": "Peoria County", "types": ["administrative_area_level_2", "political"]}, {"long_name": "Illinois", "short_name": "IL", "types": ["administrative_area_level_1", "political"]}, {"long_name": "United States", "short_name": "US", "types": ["country", "political"]}, {"long_name": "61625", "short_name": "61625", "types": ["postal_code"]}], "formatted_address": "1501 W Bradley Ave, Peoria, IL 61625, USA", "geometry": {"location": {"lat": 40.6977743, "lng": -89.6153484}, "location_type": "ROOFTOP", "viewport": {"northeast": {"lat": 40.6991232802915, "lng": -89.6139994197085}, "southwest": {"lat": 40.6964253197085, "lng": -89.61669738029151}}}, "place_id": "ChIJgR_ZrUdZCogRj1gzkhkaNfY", "types": ["establishment", "point_of_interest", "university"]}]}, "932542399": {"AfN": "brain and creativity institute", "Location": [{"address_components": [{"long_name": "3620", "short_name": "3620", "types": ["street_number"]}, {"long_name": "McClintock Avenue", "short_name": "McClintock Ave", "types": ["route"]}, {"long_name": "South Los Angeles", "short_name": "South Los Angeles", "types": ["neighborhood", "political"]}, {"long_name": "Los Angeles", "short_name": "Los Angeles", "types": ["locality", "political"]}, {"long_name": "Los Angeles County", "short_name": "Los Angeles County", "types": ["administrative_area_level_2", "political"]}, {"long_name": "California", "short_name": "CA", "types": ["administrative_area_level_1", "political"]}, {"long_name": "United States", "short_name": "US", "types": ["country", "political"]}, {"long_name": "90089", "short_name": "90089", "types": ["postal_code"]}], "formatted_address": "3620 McClintock Ave, Los Angeles, CA 90089, USA", "geometry": {"location": {"lat": 34.0214394, "lng": -118.2888716}, "location_type": "ROOFTOP", "viewport": {"northeast": {"lat": 34.02278838029149, "lng": -118.2875226197085}, "southwest": {"lat": 34.0200904197085, "lng": -118.2902205802915}}}, "place_id": "ChIJwTasXPvHwoARySSh_4_qrXE", "types": ["establishment", "point_of_interest"]}, {"address_components": [{"long_name": "Los Angeles", "short_name": "Los Angeles", "types": ["locality", "political"]}, {"long_name": "South Los Angeles", "short_name": "South Los Angeles", "types": ["neighborhood", "political"]}, {"long_name": "Los Angeles County", "short_name": "Los Angeles County", "types": ["administrative_area_level_2", "political"]}, {"long_name": "California", "short_name": "CA", "types": ["administrative_area_level_1", "political"]}, {"long_name": "United States", "short_name": "US", "types": ["country", "political"]}, {"long_name": "90007", "short_name": "90007", "types": ["postal_code"]}], "formatted_address": "Los Angeles, CA 90007, USA", "geometry": {"location": {"lat": 34.0223519, "lng": -118.285117}, "location_type": "GEOMETRIC_CENTER", "viewport": {"northeast": {"lat": 34.0237008802915, "lng": -118.2837680197085}, "southwest": {"lat": 34.0210029197085, "lng": -118.2864659802915}}}, "place_id": "ChIJ7aVxnOTHwoARxKIntFtakKo", "types": ["establishment", "point_of_interest", "university"]}]}, "6902469": {"AfN": "brandeis university", "Location": [{"address_components": [{"long_name": "415", "short_name": "415", "types": ["street_number"]}, {"long_name": "South Street", "short_name": "South St", "types": ["route"]}, {"long_name": "Brandeis", "short_name": "Brandeis", "types": ["neighborhood", "political"]}, {"long_name": "Waltham", "short_name": "Waltham", "types": ["locality", "political"]}, {"long_name": "Middlesex County", "short_name": "Middlesex County", "types": ["administrative_area_level_2", "political"]}, {"long_name": "Massachusetts", "short_name": "MA", "types": ["administrative_area_level_1", "political"]}, {"long_name": "United States", "short_name": "US", "types": ["country", "political"]}, {"long_name": "02453", "short_name": "02453", "types": ["postal_code"]}], "formatted_address": "415 South St, Waltham, MA 02453, USA", "geometry": {"location": {"lat": 42.364989, "lng": -71.258663}, "location_type": "ROOFTOP", "viewport": {"northeast": {"lat": 42.3663379802915, "lng": -71.2573140197085}, "southwest": {"lat": 42.3636400197085, "lng": -71.26001198029151}}}, "place_id": "ChIJL1wetD2D44kRrjNOWrq8etY", "types": ["establishment", "point_of_interest", "university"]}]}, "51783024": {"AfN": "brandenburg university of technology", "Location": [{"address_components": [{"long_name": "1", "short_name": "1", "types": ["street_number"]}, {"long_name": "Platz der deutschen Einheit", "short_name": "Platz der deutschen Einheit", "types": ["route"]}, {"long_name": "Cottbus", "short_name": "CB", "types": ["locality", "political"]}, {"long_name": "Brandenburg", "short_name": "BB", "types": ["administrative_area_level_1", "political"]}, {"long_name": "Germany", "short_name": "DE", "types": ["country", "political"]}, {"long_name": "03046", "short_name": "03046", "types": ["postal_code"]}], "formatted_address": "Platz der deutschen Einheit 1, 03046 Cottbus, Germany", "geometry": {"location": {"lat": 51.766987, "lng": 14.3269501}, "location_type": "ROOFTOP", "viewport": {"northeast": {"lat": 51.7683359802915, "lng": 14.3282990802915}, "southwest": {"lat": 51.7656380197085, "lng": 14.3256011197085}}}, "place_id": "ChIJTQ9EAlx0CEcRob6G86zTBSY", "types": ["establishment", "point_of_interest", "university"]}]}, "48890080": {"AfN": "brandon university", "Location": [{"address_components": [{"long_name": "270", "short_name": "270", "types": ["street_number"]}, {"long_name": "18th Street", "short_name": "18th St", "types": ["route"]}, {"long_name": "Brandon", "short_name": "Brandon", "types": ["locality", "political"]}, {"long_name": "Division No. 7", "short_name": "Division No. 7", "types": ["administrative_area_level_2", "political"]}, {"long_name": "Manitoba", "short_name": "MB", "types": ["administrative_area_level_1", "political"]}, {"long_name": "Canada", "short_name": "CA", "types": ["country", "political"]}, {"long_name": "R7A 6A9", "short_name": "R7A 6A9", "types": ["postal_code"]}], "formatted_address": "270 18th St, Brandon, MB R7A 6A9, Canada", "geometry": {"location": {"lat": 49.845352, "lng": -99.962159}, "location_type": "ROOFTOP", "viewport": {"northeast": {"lat": 49.84670098029149, "lng": -99.9608100197085}, "southwest": {"lat": 49.8440030197085, "lng": -99.96350798029151}}}, "place_id": "ChIJ6aoUBVeX51IRdKPh4o7Wx54", "types": ["establishment", "point_of_interest", "university"]}]}, "125947907": {"AfN": "brattle group", "Location": [{"address_components": [{"long_name": "Washington", "short_name": "Washington", "types": ["locality", "political"]}, {"long_name": "District of Columbia", "short_name": "DC", "types": ["administrative_area_level_1", "political"]}, {"long_name": "United States", "short_name": "US", "types": ["country", "political"]}, {"long_name": "20036", "short_name": "20036", "types": ["postal_code"]}], "formatted_address": "1800 M Street Northwest, Suite 700 North, Washington, DC 20036, United States", "geometry": {"location": {"lat": 38.90542500000001, "lng": -77.042153}, "location_type": "GEOMETRIC_CENTER", "viewport": {"northeast": {"lat": 38.90677398029151, "lng": -77.0408040197085}, "southwest": {"lat": 38.90407601970851, "lng": -77.04350198029151}}}, "place_id": "ChIJzWcHQ7i3t4kReuNIBwyOoe8", "types": ["establishment", "finance", "point_of_interest"]}]}, "94509681": {"AfN": "braunschweig university of technology", "Location": [{"address_components": [{"long_name": "Braunschweig", "short_name": "BS", "types": ["locality", "political"]}, {"long_name": "Germany", "short_name": "DE", "types": ["country", "political"]}, {"long_name": "38106", "short_name": "38106", "types": ["postal_code"]}], "formatted_address": "Pockelsstra\u00dfe 14, neu: Universit\u00e4tsplatz 2, 38106 Braunschweig, Germany", "geometry": {"location": {"lat": 52.2735074, "lng": 10.5296839}, "location_type": "GEOMETRIC_CENTER", "viewport": {"northeast": {"lat": 52.2748563802915, "lng": 10.5310328802915}, "southwest": {"lat": 52.2721584197085, "lng": 10.5283349197085}}}, "place_id": "ChIJybRmtiD0r0cRcnzgzTf4UwQ", "types": ["establishment", "point_of_interest", "university"]}]}, "30667456": {"AfN": "brescia university", "Location": [{"address_components": [{"long_name": "717", "short_name": "717", "types": ["street_number"]}, {"long_name": "Frederica Street", "short_name": "Frederica St", "types": ["route"]}, {"long_name": "Owensboro", "short_name": "Owensboro", "types": ["locality", "political"]}, {"long_name": "Daviess County", "short_name": "Daviess County", "types": ["administrative_area_level_2", "political"]}, {"long_name": "Kentucky", "short_name": "KY", "types": ["administrative_area_level_1", "political"]}, {"long_name": "United States", "short_name": "US", "types": ["country", "political"]}, {"long_name": "42301", "short_name": "42301", "types": ["postal_code"]}, {"long_name": "3019", "short_name": "3019", "types": ["postal_code_suffix"]}], "formatted_address": "717 Frederica St, Owensboro, KY 42301, USA", "geometry": {"location": {"lat": 37.7689415, "lng": -87.11198259999999}, "location_type": "ROOFTOP", "viewport": {"northeast": {"lat": 37.7702904802915, "lng": -87.11063361970848}, "southwest": {"lat": 37.7675925197085, "lng": -87.1133315802915}}}, "place_id": "ChIJS9OkWne6b4gRyIYs9IDwWcw", "types": ["establishment", "point_of_interest", "university"]}]}, "197173152": {"AfN": "brics", "Location": [{"address_components": [{"long_name": "901", "short_name": "901", "types": ["street_number"]}, {"long_name": "East 64th Street", "short_name": "E 64th St", "types": ["route"]}, {"long_name": "Broad Ripple", "short_name": "Broad Ripple", "types": ["neighborhood", "political"]}, {"long_name": "Indianapolis", "short_name": "Indianapolis", "types": ["locality", "political"]}, {"long_name": "Washington Township", "short_name": "Washington Township", "types": ["administrative_area_level_3", "political"]}, {"long_name": "Marion County", "short_name": "Marion County", "types": ["administrative_area_level_2", "political"]}, {"long_name": "Indiana", "short_name": "IN", "types": ["administrative_area_level_1", "political"]}, {"long_name": "United States", "short_name": "US", "types": ["country", "political"]}, {"long_name": "46220", "short_name": "46220", "types": ["postal_code"]}], "formatted_address": "901 E 64th St, Indianapolis, IN 46220, USA", "geometry": {"location": {"lat": 39.8722155, "lng": -86.14217359999999}, "location_type": "ROOFTOP", "viewport": {"northeast": {"lat": 39.87356448029149, "lng": -86.14082461970848}, "southwest": {"lat": 39.8708665197085, "lng": -86.14352258029149}}}, "place_id": "ChIJ8xnh36hTa4gR_4qDoOI3c2c", "types": ["cafe", "establishment", "food", "point_of_interest", "restaurant", "store"]}]}, "91443412": {"AfN": "bridgestone", "Location": [{"address_components": [{"long_name": "Tulsa", "short_name": "Tulsa", "types": ["locality", "political"]}, {"long_name": "Tulsa County", "short_name": "Tulsa County", "types": ["administrative_area_level_2", "political"]}, {"long_name": "Oklahoma", "short_name": "OK", "types": ["administrative_area_level_1", "political"]}, {"long_name": "United States", "short_name": "US", "types": ["country", "political"]}, {"long_name": "74133", "short_name": "74133", "types": ["postal_code"]}], "formatted_address": "Tulsa, OK 74133, USA", "geometry": {"location": {"lat": 36.0604659, "lng": -95.88302519999999}, "location_type": "GEOMETRIC_CENTER", "viewport": {"northeast": {"lat": 36.06181488029149, "lng": -95.88167621970848}, "southwest": {"lat": 36.05911691970849, "lng": -95.88437418029149}}}, "place_id": "ChIJ2UIGS5GNtocRqGh_dG25nCM", "types": ["car_repair", "establishment", "point_of_interest", "store"]}]}, "36194888": {"AfN": "bridgewater college", "Location": [{"address_components": [{"long_name": "402", "short_name": "402", "types": ["street_number"]}, {"long_name": "East College Street", "short_name": "E College St", "types": ["route"]}, {"long_name": "Bridgewater", "short_name": "Bridgewater", "types": ["locality", "political"]}, {"long_name": "Ashby", "short_name": "Ashby", "types": ["administrative_area_level_3", "political"]}, {"long_name": "Rockingham County", "short_name": "Rockingham County", "types": ["administrative_area_level_2", "political"]}, {"long_name": "Virginia", "short_name": "VA", "types": ["administrative_area_level_1", "political"]}, {"long_name": "United States", "short_name": "US", "types": ["country", "political"]}, {"long_name": "22812", "short_name": "22812", "types": ["postal_code"]}], "formatted_address": "402 E College St, Bridgewater, VA 22812, USA", "geometry": {"location": {"lat": 38.378879, "lng": -78.969386}, "location_type": "ROOFTOP", "viewport": {"northeast": {"lat": 38.3802279802915, "lng": -78.96803701970849}, "southwest": {"lat": 38.3775300197085, "lng": -78.97073498029151}}}, "place_id": "ChIJSVBTOIGWtIkR5fRndyC2AMg", "types": ["establishment", "point_of_interest", "university"]}]}, "17856709": {"AfN": "bridgewater state university", "Location": [{"address_components": [{"long_name": "131", "short_name": "131", "types": ["street_number"]}, {"long_name": "Summer Street", "short_name": "Summer St", "types": ["route"]}, {"long_name": "Bridgewater", "short_name": "Bridgewater", "types": ["neighborhood", "political"]}, {"long_name": "Bridgewater", "short_name": "Bridgewater", "types": ["locality", "political"]}, {"long_name": "Bridgewater", "short_name": "Bridgewater", "types": ["administrative_area_level_3", "political"]}, {"long_name": "Plymouth County", "short_name": "Plymouth County", "types": ["administrative_area_level_2", "political"]}, {"long_name": "Massachusetts", "short_name": "MA", "types": ["administrative_area_level_1", "political"]}, {"long_name": "United States", "short_name": "US", "types": ["country", "political"]}, {"long_name": "02324", "short_name": "02324", "types": ["postal_code"]}], "formatted_address": "131 Summer St, Bridgewater, MA 02324, USA", "geometry": {"location": {"lat": 41.9877398, "lng": -70.9660014}, "location_type": "ROOFTOP", "viewport": {"northeast": {"lat": 41.9890887802915, "lng": -70.96465241970849}, "southwest": {"lat": 41.9863908197085, "lng": -70.96735038029149}}}, "place_id": "ChIJL9ElALKR5IkRItCJYsK4XOI", "types": ["establishment", "point_of_interest", "university"]}]}, "1283280774": {"AfN": "brigham and women s hospital", "Location": [{"address_components": [{"long_name": "45", "short_name": "45", "types": ["street_number"]}, {"long_name": "Francis Street", "short_name": "Francis St", "types": ["route"]}, {"long_name": "Fenway/Kenmore", "short_name": "Fenway/Kenmore", "types": ["neighborhood", "political"]}, {"long_name": "Boston", "short_name": "Boston", "types": ["locality", "political"]}, {"long_name": "Suffolk County", "short_name": "Suffolk County", "types": ["administrative_area_level_2", "political"]}, {"long_name": "Massachusetts", "short_name": "MA", "types": ["administrative_area_level_1", "political"]}, {"long_name": "United States", "short_name": "US", "types": ["country", "political"]}, {"long_name": "02115", "short_name": "02115", "types": ["postal_code"]}, {"long_name": "6105", "short_name": "6105", "types": ["postal_code_suffix"]}], "formatted_address": "45 Francis St, Boston, MA 02115, USA", "geometry": {"location": {"lat": 42.3360139, "lng": -71.10698409999999}, "location_type": "ROOFTOP", "viewport": {"northeast": {"lat": 42.33736288029149, "lng": -71.1056351197085}, "southwest": {"lat": 42.3346649197085, "lng": -71.1083330802915}}}, "partial_match": true, "place_id": "ChIJK2kOXo5544kRWzSiW2J2mO4", "types": ["establishment", "health", "hospital", "point_of_interest"]}]}, "100005738": {"AfN": "brigham young university", "Location": [{"address_components": [{"long_name": "Provo", "short_name": "Provo", "types": ["locality", "political"]}, {"long_name": "Utah County", "short_name": "Utah County", "types": ["administrative_area_level_2", "political"]}, {"long_name": "Utah", "short_name": "UT", "types": ["administrative_area_level_1", "political"]}, {"long_name": "United States", "short_name": "US", "types": ["country", "political"]}, {"long_name": "84602", "short_name": "84602", "types": ["postal_code"]}], "formatted_address": "Provo, UT 84602, USA", "geometry": {"location": {"lat": 40.2518435, "lng": -111.6493156}, "location_type": "GEOMETRIC_CENTER", "viewport": {"northeast": {"lat": 40.2531924802915, "lng": -111.6479666197085}, "southwest": {"lat": 40.2504945197085, "lng": -111.6506645802915}}}, "place_id": "ChIJjbagSryQTYcRTNwP86OzPr8", "types": ["establishment", "point_of_interest", "university"]}]}, "43943889": {"AfN": "brigham young university idaho", "Location": [{"address_components": [{"long_name": "525", "short_name": "525", "types": ["street_number"]}, {"long_name": "South Center Street", "short_name": "S Center St", "types": ["route"]}, {"long_name": "Rexburg", "short_name": "Rexburg", "types": ["locality", "political"]}, {"long_name": "Madison County", "short_name": "Madison County", "types": ["administrative_area_level_2", "political"]}, {"long_name": "Idaho", "short_name": "ID", "types": ["administrative_area_level_1", "political"]}, {"long_name": "United States", "short_name": "US", "types": ["country", "political"]}, {"long_name": "83460", "short_name": "83460", "types": ["postal_code"]}], "formatted_address": "525 S Center St, Rexburg, ID 83460, USA", "geometry": {"location": {"lat": 43.8144635, "lng": -111.7833857}, "location_type": "ROOFTOP", "viewport": {"northeast": {"lat": 43.81581248029149, "lng": -111.7820367197085}, "southwest": {"lat": 43.81311451970849, "lng": -111.7847346802915}}}, "place_id": "ChIJz6VI3AMLVFMREvSOw9M0VR4", "types": ["establishment", "point_of_interest", "university"]}]}, "100063501": {"AfN": "brighton and sussex medical school", "Location": [{"address_components": [{"long_name": "94", "short_name": "94", "types": ["street_number"]}, {"long_name": "North - South Road", "short_name": "N - S Rd", "types": ["route"]}, {"long_name": "Falmer", "short_name": "Falmer", "types": ["locality", "political"]}, {"long_name": "Brighton", "short_name": "Brighton", "types": ["postal_town"]}, {"long_name": "The City of Brighton and Hove", "short_name": "The City of Brighton and Hove", "types": ["administrative_area_level_2", "political"]}, {"long_name": "England", "short_name": "England", "types": ["administrative_area_level_1", "political"]}, {"long_name": "United Kingdom", "short_name": "GB", "types": ["country", "political"]}, {"long_name": "BN1 9PX", "short_name": "BN1 9PX", "types": ["postal_code"]}], "formatted_address": "94 N - S Rd, Falmer, Brighton BN1 9PX, UK", "geometry": {"location": {"lat": 50.8641901, "lng": -0.0857006}, "location_type": "ROOFTOP", "viewport": {"northeast": {"lat": 50.86553908029151, "lng": -0.08435161970849797}, "southwest": {"lat": 50.86284111970851, "lng": -0.08704958029150203}}}, "place_id": "ChIJESUDDsqIdUgRkcoEfQ2KVXk", "types": ["establishment", "health", "point_of_interest", "university"]}]}, "157075465": {"AfN": "bristol myers squibb", "Location": [{"address_components": [{"long_name": "Bristol-Myers Squibb", "short_name": "Bristol-Myers Squibb", "types": ["airport", "establishment", "health", "point_of_interest"]}, {"long_name": "5", "short_name": "5", "types": ["street_number"]}, {"long_name": "Research Parkway", "short_name": "Research Pkwy", "types": ["route"]}, {"long_name": "Wallingford", "short_name": "Wallingford", "types": ["locality", "political"]}, {"long_name": "Wallingford", "short_name": "Wallingford", "types": ["administrative_area_level_3", "political"]}, {"long_name": "New Haven County", "short_name": "New Haven County", "types": ["administrative_area_level_2", "political"]}, {"long_name": "Connecticut", "short_name": "CT", "types": ["administrative_area_level_1", "political"]}, {"long_name": "United States", "short_name": "US", "types": ["country", "political"]}, {"long_name": "06492", "short_name": "06492", "types": ["postal_code"]}, {"long_name": "1996", "short_name": "1996", "types": ["postal_code_suffix"]}], "formatted_address": "Bristol-Myers Squibb, 5 Research Pkwy, Wallingford, CT 06492, USA", "geometry": {"location": {"lat": 41.4813271, "lng": -72.76006939999999}, "location_type": "ROOFTOP", "viewport": {"northeast": {"lat": 41.4826760802915, "lng": -72.75872041970848}, "southwest": {"lat": 41.4799781197085, "lng": -72.76141838029149}}}, "place_id": "ChIJVQSb93fL54kR0lhFqACWUZg", "types": ["airport", "establishment", "health", "point_of_interest"]}]}, "1319328641": {"AfN": "british antarctic survey", "Location": [{"address_components": [{"long_name": "High Cross", "short_name": "High Cross", "types": ["premise"]}, {"long_name": "Madingley Road", "short_name": "Madingley Rd", "types": ["route"]}, {"long_name": "Cambridge", "short_name": "Cambridge", "types": ["postal_town"]}, {"long_name": "Cambridgeshire", "short_name": "Cambridgeshire", "types": ["administrative_area_level_2", "political"]}, {"long_name": "England", "short_name": "England", "types": ["administrative_area_level_1", "political"]}, {"long_name": "United Kingdom", "short_name": "GB", "types": ["country", "political"]}, {"long_name": "CB3 0ET", "short_name": "CB3 0ET", "types": ["postal_code"]}], "formatted_address": "High Cross, Madingley Rd, Cambridge CB3 0ET, UK", "geometry": {"location": {"lat": 52.212991, "lng": 0.08001599999999999}, "location_type": "ROOFTOP", "viewport": {"northeast": {"lat": 52.2143399802915, "lng": 0.08136498029150202}, "southwest": {"lat": 52.2116420197085, "lng": 0.07866701970849796}}}, "place_id": "ChIJKWrr2El32EcRQ1bN-QtSiZQ", "types": ["establishment", "point_of_interest"]}]}, "206046368": {"AfN": "british astronomical association", "Location": [{"address_components": [{"long_name": "5274", "short_name": "5274", "types": ["street_number"]}, {"long_name": "Zion Road", "short_name": "Zion Rd", "types": ["route"]}, {"long_name": "Cleves", "short_name": "Cleves", "types": ["locality", "political"]}, {"long_name": "Miami Township", "short_name": "Miami Township", "types": ["administrative_area_level_3", "political"]}, {"long_name": "Hamilton County", "short_name": "Hamilton County", "types": ["administrative_area_level_2", "political"]}, {"long_name": "Ohio", "short_name": "OH", "types": ["administrative_area_level_1", "political"]}, {"long_name": "United States", "short_name": "US", "types": ["country", "political"]}, {"long_name": "45002", "short_name": "45002", "types": ["postal_code"]}, {"long_name": "9692", "short_name": "9692", "types": ["postal_code_suffix"]}], "formatted_address": "5274 Zion Rd, Cleves, OH 45002, USA", "geometry": {"location": {"lat": 39.1918684, "lng": -84.7107869}, "location_type": "ROOFTOP", "viewport": {"northeast": {"lat": 39.19321738029149, "lng": -84.7094379197085}, "southwest": {"lat": 39.1905194197085, "lng": -84.71213588029151}}}, "place_id": "ChIJ3_-vwrfMQYgRhOv51DSgiTY", "types": ["establishment", "point_of_interest"]}]}, "174167972": {"AfN": "british columbia institute of technology", "Location": [{"address_components": [{"long_name": "3700", "short_name": "3700", "types": ["street_number"]}, {"long_name": "Willingdon Avenue", "short_name": "Willingdon Ave", "types": ["route"]}, {"long_name": "Burnaby", "short_name": "Burnaby", "types": ["locality", "political"]}, {"long_name": "Greater Vancouver", "short_name": "Greater Vancouver", "types": ["administrative_area_level_2", "political"]}, {"long_name": "British Columbia", "short_name": "BC", "types": ["administrative_area_level_1", "political"]}, {"long_name": "Canada", "short_name": "CA", "types": ["country", "political"]}, {"long_name": "V5G 3H2", "short_name": "V5G 3H2", "types": ["postal_code"]}], "formatted_address": "3700 Willingdon Ave, Burnaby, BC V5G 3H2, Canada", "geometry": {"location": {"lat": 49.25092799999999, "lng": -123.0034159}, "location_type": "ROOFTOP", "viewport": {"northeast": {"lat": 49.25227698029149, "lng": -123.0020669197085}, "southwest": {"lat": 49.2495790197085, "lng": -123.0047648802915}}}, "place_id": "ChIJNbea5OF2hlQRDfHhEXerrAM", "types": ["establishment", "point_of_interest"]}]}, "139290333": {"AfN": "british geological survey", "Location": [{"address_components": [{"long_name": "865", "short_name": "865", "types": ["street_number"]}, {"long_name": "Hornby Street", "short_name": "Hornby St", "types": ["route"]}, {"long_name": "Central", "short_name": "Central", "types": ["neighborhood", "political"]}, {"long_name": "Vancouver", "short_name": "Vancouver", "types": ["locality", "political"]}, {"long_name": "Greater Vancouver", "short_name": "Greater Vancouver", "types": ["administrative_area_level_2", "political"]}, {"long_name": "British Columbia", "short_name": "BC", "types": ["administrative_area_level_1", "political"]}, {"long_name": "Canada", "short_name": "CA", "types": ["country", "political"]}, {"long_name": "V6Z 2G3", "short_name": "V6Z 2G3", "types": ["postal_code"]}], "formatted_address": "865 Hornby St, Vancouver, BC V6Z 2G3, Canada", "geometry": {"location": {"lat": 49.2822427, "lng": -123.1230451}, "location_type": "ROOFTOP", "viewport": {"northeast": {"lat": 49.28359168029149, "lng": -123.1216961197085}, "southwest": {"lat": 49.28089371970849, "lng": -123.1243940802915}}}, "place_id": "ChIJVVEr5X9xhlQRR-m2ZSkrhOQ", "types": ["establishment", "local_government_office", "point_of_interest"]}]}, "32003884": {"AfN": "british heart foundation", "Location": [{"address_components": [{"long_name": "Leeds", "short_name": "Leeds", "types": ["postal_town"]}, {"long_name": "United Kingdom", "short_name": "GB", "types": ["country", "political"]}, {"long_name": "LS12 2EJ", "short_name": "LS12 2EJ", "types": ["postal_code"]}], "formatted_address": "Unit 6 Albion Park, Leeds LS12 2EJ, United Kingdom", "geometry": {"location": {"lat": 53.7981473, "lng": -1.570368}, "location_type": "GEOMETRIC_CENTER", "viewport": {"northeast": {"lat": 53.79949628029151, "lng": -1.569019019708498}, "southwest": {"lat": 53.79679831970851, "lng": -1.571716980291502}}}, "place_id": "ChIJT1glW7leeUgRW-tysuJxn50", "types": ["establishment", "point_of_interest", "store"]}, {"address_components": [{"long_name": "Peacock Street", "short_name": "Peacock St", "types": ["route"]}, {"long_name": "Gravesend", "short_name": "Gravesend", "types": ["postal_town"]}, {"long_name": "Kent", "short_name": "Kent", "types": ["administrative_area_level_2", "political"]}, {"long_name": "England", "short_name": "England", "types": ["administrative_area_level_1", "political"]}, {"long_name": "United Kingdom", "short_name": "GB", "types": ["country", "political"]}, {"long_name": "DA12 9BE", "short_name": "DA12 9BE", "types": ["postal_code"]}], "formatted_address": "Peacock St, Gravesend DA12 9BE, UK", "geometry": {"location": {"lat": 51.4412207, "lng": 0.3733137}, "location_type": "GEOMETRIC_CENTER", "viewport": {"northeast": {"lat": 51.44256968029149, "lng": 0.374662680291502}, "southwest": {"lat": 51.43987171970849, "lng": 0.3719647197084979}}}, "place_id": "ChIJhbSlLh222EcRvpNMmgNVO9M", "types": ["establishment", "point_of_interest", "store"]}]}, "22912315": {"AfN": "british institute of international and comparative law", "Location": [{"address_components": [{"long_name": "Charles Clore House", "short_name": "Charles Clore House", "types": ["subpremise"]}, {"long_name": "17", "short_name": "17", "types": ["street_number"]}, {"long_name": "Russell Square", "short_name": "Russell Square", "types": ["route"]}, {"long_name": "Bloomsbury", "short_name": "Bloomsbury", "types": ["neighborhood", "political"]}, {"long_name": "London", "short_name": "London", "types": ["postal_town"]}, {"long_name": "Greater London", "short_name": "Greater London", "types": ["administrative_area_level_2", "political"]}, {"long_name": "England", "short_name": "England", "types": ["administrative_area_level_1", "political"]}, {"long_name": "United Kingdom", "short_name": "GB", "types": ["country", "political"]}, {"long_name": "WC1B 5JP", "short_name": "WC1B 5JP", "types": ["postal_code"]}], "formatted_address": "Charles Clore House, 17 Russell Square, Bloomsbury, London WC1B 5JP, UK", "geometry": {"location": {"lat": 51.5224053, "lng": -0.1272543}, "location_type": "ROOFTOP", "viewport": {"northeast": {"lat": 51.52375428029149, "lng": -0.125905319708498}, "southwest": {"lat": 51.52105631970849, "lng": -0.128603280291502}}}, "place_id": "ChIJlfqotjEbdkgRjsi7Vp0IDXM", "types": ["establishment", "point_of_interest"]}]}, "1329245128": {"AfN": "british oceanographic data centre", "Location": [{"address_components": [{"long_name": "Brownlow Street", "short_name": "Brownlow St", "types": ["route"]}, {"long_name": "Liverpool", "short_name": "Liverpool", "types": ["postal_town"]}, {"long_name": "Merseyside", "short_name": "Merseyside", "types": ["administrative_area_level_2", "political"]}, {"long_name": "England", "short_name": "England", "types": ["administrative_area_level_1", "political"]}, {"long_name": "United Kingdom", "short_name": "GB", "types": ["country", "political"]}, {"long_name": "L3 5DA", "short_name": "L3 5DA", "types": ["postal_code"]}], "formatted_address": "National Oceanography Centre Joseph Proudman Building, 6, Brownlow St, Liverpool L3 5DA, UK", "geometry": {"location": {"lat": 53.407598, "lng": -2.968884}, "location_type": "GEOMETRIC_CENTER", "viewport": {"northeast": {"lat": 53.4089469802915, "lng": -2.967535019708498}, "southwest": {"lat": 53.4062490197085, "lng": -2.970232980291502}}}, "place_id": "ChIJgY42Jhghe0gRFaTs5uQiP90", "types": ["establishment", "point_of_interest"]}]}, "86229248": {"AfN": "british trust for ornithology", "Location": [{"address_components": [{"long_name": "Thetford", "short_name": "Thetford", "types": ["postal_town"]}, {"long_name": "United Kingdom", "short_name": "GB", "types": ["country", "political"]}, {"long_name": "IP24 2PU", "short_name": "IP24 2PU", "types": ["postal_code"]}], "formatted_address": "The Nunnery, Thetford IP24 2PU, United Kingdom", "geometry": {"location": {"lat": 52.4063278, "lng": 0.7521922}, "location_type": "GEOMETRIC_CENTER", "viewport": {"northeast": {"lat": 52.4076767802915, "lng": 0.7535411802915021}, "southwest": {"lat": 52.4049788197085, "lng": 0.750843219708498}}}, "place_id": "ChIJQ56vN-E02EcRYmoW6kcJEhE", "types": ["establishment", "point_of_interest"]}]}, "154023281": {"AfN": "british university in egypt", "Location": [{"address_components": [{"long_name": "Suez Road", "short_name": "Suez Rd", "types": ["route"]}, {"long_name": "EL SHEROUK CITY", "short_name": "EL SHEROUK CITY", "types": ["administrative_area_level_3", "political"]}, {"long_name": "Cairo Governorate", "short_name": "Cairo Governorate", "types": ["administrative_area_level_1", "political"]}, {"long_name": "Egypt", "short_name": "EG", "types": ["country", "political"]}, {"long_name": "11837", "short_name": "11837", "types": ["postal_code"]}], "formatted_address": "Suez Rd, EL SHEROUK CITY\u060c Cairo Governorate 11837, Egypt", "geometry": {"location": {"lat": 30.1186755, "lng": 31.6106162}, "location_type": "GEOMETRIC_CENTER", "viewport": {"northeast": {"lat": 30.1200244802915, "lng": 31.6119651802915}, "southwest": {"lat": 30.1173265197085, "lng": 31.6092672197085}}}, "place_id": "ChIJO2j8VOodWBQRcwF--dbEWPs", "types": ["establishment", "point_of_interest", "university"]}]}, "60587646": {"AfN": "brno university of technology", "Location": [{"address_components": [{"long_name": "601 90", "short_name": "601 90", "types": ["postal_code"]}, {"long_name": "Czechia", "short_name": "CZ", "types": ["country", "political"]}], "formatted_address": "1 548 Anton\u00ednsk\u00e1 Brno-st\u0159ed Brno \u010cesk\u00e1 republika, 601 90, Czechia", "geometry": {"location": {"lat": 49.20171999999999, "lng": 16.6033168}, "location_type": "GEOMETRIC_CENTER", "viewport": {"northeast": {"lat": 49.20306898029149, "lng": 16.6046657802915}, "southwest": {"lat": 49.20037101970849, "lng": 16.60196781970849}}}, "place_id": "ChIJKSchnUSUEkcRU8FP5yl3txI", "types": ["establishment", "point_of_interest", "university"]}, {"address_components": [{"long_name": "2", "short_name": "2", "types": ["street_number"]}, {"long_name": "1", "short_name": "1", "types": ["premise"]}, {"long_name": "Bo\u017eet\u011bchova", "short_name": "Bo\u017eet\u011bchova", "types": ["route"]}, {"long_name": "Brno-Kr\u00e1lovo Pole", "short_name": "Brno-Kr\u00e1lovo Pole", "types": ["political", "sublocality", "sublocality_level_1"]}, {"long_name": "Brno-m\u011bsto", "short_name": "Brno-m\u011bsto", "types": ["administrative_area_level_2", "political"]}, {"long_name": "Jihomoravsk\u00fd kraj", "short_name": "Jihomoravsk\u00fd kraj", "types": ["administrative_area_level_1", "political"]}, {"long_name": "Czechia", "short_name": "CZ", "types": ["country", "political"]}, {"long_name": "612 00", "short_name": "612 00", "types": ["postal_code"]}], "formatted_address": "Bo\u017eet\u011bchova 1/2, 612 00 Brno-Kr\u00e1lovo Pole, Czechia", "geometry": {"location": {"lat": 49.226616, "lng": 16.5966401}, "location_type": "ROOFTOP", "viewport": {"northeast": {"lat": 49.2279649802915, "lng": 16.5979890802915}, "southwest": {"lat": 49.2252670197085, "lng": 16.5952911197085}}}, "place_id": "ChIJu2vAnQmUEkcRDYukARsWz78", "types": ["establishment", "point_of_interest", "university"]}]}, "107606265": {"AfN": "broad institute", "Location": [{"address_components": [{"long_name": "415", "short_name": "415", "types": ["street_number"]}, {"long_name": "Main Street", "short_name": "Main St", "types": ["route"]}, {"long_name": "Area 2/MIT", "short_name": "Area 2/MIT", "types": ["neighborhood", "political"]}, {"long_name": "Cambridge", "short_name": "Cambridge", "types": ["locality", "political"]}, {"long_name": "Middlesex County", "short_name": "Middlesex County", "types": ["administrative_area_level_2", "political"]}, {"long_name": "Massachusetts", "short_name": "MA", "types": ["administrative_area_level_1", "political"]}, {"long_name": "United States", "short_name": "US", "types": ["country", "political"]}, {"long_name": "02142", "short_name": "02142", "types": ["postal_code"]}], "formatted_address": "415 Main St, Cambridge, MA 02142, USA", "geometry": {"location": {"lat": 42.3628858, "lng": -71.0889581}, "location_type": "ROOFTOP", "viewport": {"northeast": {"lat": 42.3642347802915, "lng": -71.0876091197085}, "southwest": {"lat": 42.3615368197085, "lng": -71.09030708029151}}}, "place_id": "ChIJfyQ_0K5w44kRN55uy-7_Bao", "types": ["establishment", "point_of_interest"]}]}, "1296127346": {"AfN": "broadcom", "Location": [{"address_components": [{"long_name": "810", "short_name": "810", "types": ["street_number"]}, {"long_name": "Hesters Crossing Road", "short_name": "Hesters Crossing Rd", "types": ["route"]}, {"long_name": "La Frontera Village", "short_name": "La Frontera Village", "types": ["neighborhood", "political"]}, {"long_name": "Round Rock", "short_name": "Round Rock", "types": ["locality", "political"]}, {"long_name": "Williamson County", "short_name": "Williamson County", "types": ["administrative_area_level_2", "political"]}, {"long_name": "Texas", "short_name": "TX", "types": ["administrative_area_level_1", "political"]}, {"long_name": "United States", "short_name": "US", "types": ["country", "political"]}, {"long_name": "78681", "short_name": "78681", "types": ["postal_code"]}], "formatted_address": "810 Hesters Crossing Rd, Round Rock, TX 78681, USA", "geometry": {"location": {"lat": 30.4852731, "lng": -97.6871392}, "location_type": "ROOFTOP", "viewport": {"northeast": {"lat": 30.48662208029149, "lng": -97.68579021970851}, "southwest": {"lat": 30.4839241197085, "lng": -97.68848818029151}}}, "place_id": "ChIJ8QS8VR3ORIYRv1-UONnBKpA", "types": ["establishment", "point_of_interest"]}]}, "186803428": {"AfN": "brock university", "Location": [{"address_components": [{"long_name": "1812", "short_name": "1812", "types": ["street_number"]}, {"long_name": "Sir Isaac Brock Way", "short_name": "Sir Isaac Brock Way", "types": ["route"]}, {"long_name": "Glenridge", "short_name": "Glenridge", "types": ["neighborhood", "political"]}, {"long_name": "St. Catharines", "short_name": "St. Catharines", "types": ["locality", "political"]}, {"long_name": "Niagara Regional Municipality", "short_name": "Niagara Regional Municipality", "types": ["administrative_area_level_2", "political"]}, {"long_name": "Ontario", "short_name": "ON", "types": ["administrative_area_level_1", "political"]}, {"long_name": "Canada", "short_name": "CA", "types": ["country", "political"]}, {"long_name": "L2S 3A1", "short_name": "L2S 3A1", "types": ["postal_code"]}], "formatted_address": "1812 Sir Isaac Brock Way, St. Catharines, ON L2S 3A1, Canada", "geometry": {"location": {"lat": 43.1175731, "lng": -79.2476925}, "location_type": "ROOFTOP", "viewport": {"northeast": {"lat": 43.1189220802915, "lng": -79.2463435197085}, "southwest": {"lat": 43.11622411970851, "lng": -79.24904148029151}}}, "place_id": "ChIJpeTw-TJO04kR0qerzeaJe9s", "types": ["establishment", "point_of_interest", "university"]}]}, "1289079397": {"AfN": "bronx lebanon hospital center", "Location": [{"address_components": [{"long_name": "1650", "short_name": "1650", "types": ["street_number"]}, {"long_name": "Grand Concourse", "short_name": "Grand Concourse", "types": ["route"]}, {"long_name": "Claremont", "short_name": "Claremont", "types": ["neighborhood", "political"]}, {"long_name": "Bronx", "short_name": "Bronx", "types": ["political", "sublocality", "sublocality_level_1"]}, {"long_name": "Bronx County", "short_name": "Bronx County", "types": ["administrative_area_level_2", "political"]}, {"long_name": "New York", "short_name": "NY", "types": ["administrative_area_level_1", "political"]}, {"long_name": "United States", "short_name": "US", "types": ["country", "political"]}, {"long_name": "10457", "short_name": "10457", "types": ["postal_code"]}, {"long_name": "7606", "short_name": "7606", "types": ["postal_code_suffix"]}], "formatted_address": "1650 Grand Concourse, Bronx, NY 10457, USA", "geometry": {"location": {"lat": 40.8433956, "lng": -73.9110377}, "location_type": "ROOFTOP", "viewport": {"northeast": {"lat": 40.8447445802915, "lng": -73.9096887197085}, "southwest": {"lat": 40.8420466197085, "lng": -73.9123866802915}}}, "place_id": "ChIJOWaslk_0wokRC6fbHVFa4aE", "types": ["establishment", "hospital", "point_of_interest"]}]}, "99939339": {"AfN": "brookhaven college", "Location": [{"address_components": [{"long_name": "3939", "short_name": "3939", "types": ["street_number"]}, {"long_name": "Valley View Lane", "short_name": "Valley View Ln", "types": ["route"]}, {"long_name": "Farmers Branch", "short_name": "Farmers Branch", "types": ["locality", "political"]}, {"long_name": "Dallas County", "short_name": "Dallas County", "types": ["administrative_area_level_2", "political"]}, {"long_name": "Texas", "short_name": "TX", "types": ["administrative_area_level_1", "political"]}, {"long_name": "United States", "short_name": "US", "types": ["country", "political"]}, {"long_name": "75244", "short_name": "75244", "types": ["postal_code"]}, {"long_name": "4997", "short_name": "4997", "types": ["postal_code_suffix"]}], "formatted_address": "3939 Valley View Ln, Farmers Branch, TX 75244, USA", "geometry": {"location": {"lat": 32.929646, "lng": -96.85001899999999}, "location_type": "ROOFTOP", "viewport": {"northeast": {"lat": 32.9309949802915, "lng": -96.84867001970849}, "southwest": {"lat": 32.9282970197085, "lng": -96.8513679802915}}}, "place_id": "ChIJb8_qFCQnTIYRDPKPtJBh5AI", "types": ["establishment", "point_of_interest", "school", "university"]}]}, "200870766": {"AfN": "brookhaven national laboratory", "Location": [{"address_components": [{"long_name": "98", "short_name": "98", "types": ["street_number"]}, {"long_name": "Rochester Street", "short_name": "Rochester St", "types": ["route"]}, {"long_name": "Shirley", "short_name": "Shirley", "types": ["locality", "political"]}, {"long_name": "Brookhaven", "short_name": "Brookhaven", "types": ["administrative_area_level_3", "political"]}, {"long_name": "Suffolk County", "short_name": "Suffolk County", "types": ["administrative_area_level_2", "political"]}, {"long_name": "New York", "short_name": "NY", "types": ["administrative_area_level_1", "political"]}, {"long_name": "United States", "short_name": "US", "types": ["country", "political"]}, {"long_name": "11967", "short_name": "11967", "types": ["postal_code"]}], "formatted_address": "98 Rochester St, Shirley, NY 11967, USA", "geometry": {"location": {"lat": 40.8747908, "lng": -72.8763007}, "location_type": "ROOFTOP", "viewport": {"northeast": {"lat": 40.8761397802915, "lng": -72.8749517197085}, "southwest": {"lat": 40.8734418197085, "lng": -72.87764968029151}}}, "place_id": "ChIJi9-JcF9b6IkRhUDpChRNay8", "types": ["establishment", "point_of_interest"]}]}, "115283149": {"AfN": "brookings institution", "Location": [{"address_components": [{"long_name": "1775", "short_name": "1775", "types": ["street_number"]}, {"long_name": "Massachusetts Avenue Northwest", "short_name": "Massachusetts Ave NW", "types": ["route"]}, {"long_name": "Downtown", "short_name": "Downtown", "types": ["neighborhood", "political"]}, {"long_name": "Washington", "short_name": "Washington", "types": ["locality", "political"]}, {"long_name": "District of Columbia", "short_name": "DC", "types": ["administrative_area_level_1", "political"]}, {"long_name": "United States", "short_name": "US", "types": ["country", "political"]}, {"long_name": "20036", "short_name": "20036", "types": ["postal_code"]}], "formatted_address": "1775 Massachusetts Ave NW, Washington, DC 20036, USA", "geometry": {"location": {"lat": 38.9090159, "lng": -77.04055579999999}, "location_type": "ROOFTOP", "viewport": {"northeast": {"lat": 38.9103648802915, "lng": -77.03920681970848}, "southwest": {"lat": 38.9076669197085, "lng": -77.0419047802915}}}, "place_id": "ChIJU0k7Ise3t4kRfWLIF_ig0c0", "types": ["establishment", "point_of_interest"]}]}, "83041322": {"AfN": "brooklyn college", "Location": [{"address_components": [{"long_name": "2900", "short_name": "2900", "types": ["street_number"]}, {"long_name": "Bedford Avenue", "short_name": "Bedford Ave", "types": ["route"]}, {"long_name": "Flatbush - Ditmas Park", "short_name": "Flatbush - Ditmas Park", "types": ["neighborhood", "political"]}, {"long_name": "Brooklyn", "short_name": "Brooklyn", "types": ["political", "sublocality", "sublocality_level_1"]}, {"long_name": "Kings County", "short_name": "Kings County", "types": ["administrative_area_level_2", "political"]}, {"long_name": "New York", "short_name": "NY", "types": ["administrative_area_level_1", "political"]}, {"long_name": "United States", "short_name": "US", "types": ["country", "political"]}, {"long_name": "11210", "short_name": "11210", "types": ["postal_code"]}], "formatted_address": "2900 Bedford Ave, Brooklyn, NY 11210, USA", "geometry": {"location": {"lat": 40.6314406, "lng": -73.9544488}, "location_type": "ROOFTOP", "viewport": {"northeast": {"lat": 40.6327895802915, "lng": -73.95309981970848}, "southwest": {"lat": 40.6300916197085, "lng": -73.9557977802915}}}, "place_id": "ChIJwYu_aA5bwokRhMf6N4HGekg", "types": ["establishment", "point_of_interest", "university"]}]}, "1310342693": {"AfN": "brooklyn hospital center", "Location": [{"address_components": [{"long_name": "121", "short_name": "121", "types": ["street_number"]}, {"long_name": "Dekalb Avenue", "short_name": "Dekalb Ave", "types": ["route"]}, {"long_name": "Fort Greene", "short_name": "Fort Greene", "types": ["neighborhood", "political"]}, {"long_name": "Brooklyn", "short_name": "Brooklyn", "types": ["political", "sublocality", "sublocality_level_1"]}, {"long_name": "Kings County", "short_name": "Kings County", "types": ["administrative_area_level_2", "political"]}, {"long_name": "New York", "short_name": "NY", "types": ["administrative_area_level_1", "political"]}, {"long_name": "United States", "short_name": "US", "types": ["country", "political"]}, {"long_name": "11201", "short_name": "11201", "types": ["postal_code"]}, {"long_name": "5425", "short_name": "5425", "types": ["postal_code_suffix"]}], "formatted_address": "121 Dekalb Ave, Brooklyn, NY 11201, USA", "geometry": {"location": {"lat": 40.6905691, "lng": -73.9776868}, "location_type": "ROOFTOP", "viewport": {"northeast": {"lat": 40.69191808029149, "lng": -73.97633781970849}, "southwest": {"lat": 40.68922011970849, "lng": -73.9790357802915}}}, "place_id": "ChIJW_NK97NbwokRmW5R2zMnPw0", "types": ["doctor", "establishment", "health", "point_of_interest"]}]}, "180140025": {"AfN": "brooklyn law school", "Location": [{"address_components": [{"long_name": "250", "short_name": "250", "types": ["street_number"]}, {"long_name": "Joralemon Street", "short_name": "Joralemon St", "types": ["route"]}, {"long_name": "Downtown Brooklyn", "short_name": "Downtown Brooklyn", "types": ["neighborhood", "political"]}, {"long_name": "Brooklyn", "short_name": "Brooklyn", "types": ["political", "sublocality", "sublocality_level_1"]}, {"long_name": "Kings County", "short_name": "Kings County", "types": ["administrative_area_level_2", "political"]}, {"long_name": "New York", "short_name": "NY", "types": ["administrative_area_level_1", "political"]}, {"long_name": "United States", "short_name": "US", "types": ["country", "political"]}, {"long_name": "11201", "short_name": "11201", "types": ["postal_code"]}, {"long_name": "5101", "short_name": "5101", "types": ["postal_code_suffix"]}], "formatted_address": "250 Joralemon St, Brooklyn, NY 11201, USA", "geometry": {"location": {"lat": 40.6918663, "lng": -73.9896878}, "location_type": "ROOFTOP", "viewport": {"northeast": {"lat": 40.6932152802915, "lng": -73.98833881970849}, "southwest": {"lat": 40.6905173197085, "lng": -73.9910367802915}}}, "place_id": "ChIJY81AUklawokRwOTGoBqRtI0", "types": ["book_store", "establishment", "library", "point_of_interest", "store", "university"]}, {"address_components": [{"long_name": "205", "short_name": "205", "types": ["street_number"]}, {"long_name": "State Street", "short_name": "State St", "types": ["route"]}, {"long_name": "Downtown Brooklyn", "short_name": "Downtown Brooklyn", "types": ["neighborhood", "political"]}, {"long_name": "Brooklyn", "short_name": "Brooklyn", "types": ["political", "sublocality", "sublocality_level_1"]}, {"long_name": "Kings County", "short_name": "Kings County", "types": ["administrative_area_level_2", "political"]}, {"long_name": "New York", "short_name": "NY", "types": ["administrative_area_level_1", "political"]}, {"long_name": "United States", "short_name": "US", "types": ["country", "political"]}, {"long_name": "11201", "short_name": "11201", "types": ["postal_code"]}], "formatted_address": "205 State St, Brooklyn, NY 11201, USA", "geometry": {"location": {"lat": 40.6900151, "lng": -73.9907695}, "location_type": "ROOFTOP", "viewport": {"northeast": {"lat": 40.69136408029149, "lng": -73.9894205197085}, "southwest": {"lat": 40.68866611970849, "lng": -73.99211848029151}}}, "place_id": "ChIJE1B7aU5awokRCvIe8LTN4x8", "types": ["establishment", "point_of_interest", "school"]}]}, "27804330": {"AfN": "brown university", "Location": [{"address_components": [{"long_name": "Providence", "short_name": "Providence", "types": ["locality", "political"]}, {"long_name": "College Hill", "short_name": "College Hill", "types": ["neighborhood", "political"]}, {"long_name": "Providence County", "short_name": "Providence County", "types": ["administrative_area_level_2", "political"]}, {"long_name": "Rhode Island", "short_name": "RI", "types": ["administrative_area_level_1", "political"]}, {"long_name": "United States", "short_name": "US", "types": ["country", "political"]}, {"long_name": "02912", "short_name": "02912", "types": ["postal_code"]}], "formatted_address": "Providence, RI 02912, USA", "geometry": {"location": {"lat": 41.8267718, "lng": -71.4025482}, "location_type": "GEOMETRIC_CENTER", "viewport": {"northeast": {"lat": 41.82812078029149, "lng": -71.40119921970849}, "southwest": {"lat": 41.82542281970849, "lng": -71.4038971802915}}}, "place_id": "ChIJKY6zkCRF5IkRyyCi9_xpfgs", "types": ["establishment", "point_of_interest", "university"]}]}, "59433898": {"AfN": "brunel university london", "Location": [{"address_components": [{"long_name": "Kingston Lane", "short_name": "Kingston Ln", "types": ["route"]}, {"long_name": "London", "short_name": "London", "types": ["locality", "political"]}, {"long_name": "Uxbridge", "short_name": "Uxbridge", "types": ["postal_town"]}, {"long_name": "Greater London", "short_name": "Greater London", "types": ["administrative_area_level_2", "political"]}, {"long_name": "England", "short_name": "England", "types": ["administrative_area_level_1", "political"]}, {"long_name": "United Kingdom", "short_name": "GB", "types": ["country", "political"]}, {"long_name": "UB8 3PH", "short_name": "UB8 3PH", "types": ["postal_code"]}], "formatted_address": "Kingston Ln, London, Uxbridge UB8 3PH, UK", "geometry": {"location": {"lat": 51.5328677, "lng": -0.471229}, "location_type": "GEOMETRIC_CENTER", "viewport": {"northeast": {"lat": 51.5342166802915, "lng": -0.4698800197084979}, "southwest": {"lat": 51.5315187197085, "lng": -0.472577980291502}}}, "place_id": "ChIJH3XMbwpudkgRenrfZcPl6kM", "types": ["establishment", "point_of_interest", "university"]}]}, "178712713": {"AfN": "bryant university", "Location": [{"address_components": [{"long_name": "1150", "short_name": "1150", "types": ["street_number"]}, {"long_name": "Douglas Pike", "short_name": "Douglas Pike", "types": ["route"]}, {"long_name": "Smithfield", "short_name": "Smithfield", "types": ["locality", "political"]}, {"long_name": "Providence County", "short_name": "Providence County", "types": ["administrative_area_level_2", "political"]}, {"long_name": "Rhode Island", "short_name": "RI", "types": ["administrative_area_level_1", "political"]}, {"long_name": "United States", "short_name": "US", "types": ["country", "political"]}, {"long_name": "02917", "short_name": "02917", "types": ["postal_code"]}], "formatted_address": "1150 Douglas Pike, Smithfield, RI 02917, USA", "geometry": {"location": {"lat": 41.921192, "lng": -71.537882}, "location_type": "ROOFTOP", "viewport": {"northeast": {"lat": 41.9225409802915, "lng": -71.5365330197085}, "southwest": {"lat": 41.9198430197085, "lng": -71.5392309802915}}}, "place_id": "ChIJWaAdluhA5IkR2lc-QymlVFk", "types": ["establishment", "point_of_interest", "university"]}]}, "102373834": {"AfN": "bryn mawr college", "Location": [{"address_components": [{"long_name": "101", "short_name": "101", "types": ["street_number"]}, {"long_name": "North Merion Avenue", "short_name": "N Merion Ave", "types": ["route"]}, {"long_name": "Bryn Mawr", "short_name": "Bryn Mawr", "types": ["locality", "political"]}, {"long_name": "Lower Merion Township", "short_name": "Lower Merion Township", "types": ["administrative_area_level_3", "political"]}, {"long_name": "Montgomery County", "short_name": "Montgomery County", "types": ["administrative_area_level_2", "political"]}, {"long_name": "Pennsylvania", "short_name": "PA", "types": ["administrative_area_level_1", "political"]}, {"long_name": "United States", "short_name": "US", "types": ["country", "political"]}, {"long_name": "19010", "short_name": "19010", "types": ["postal_code"]}], "formatted_address": "101 N Merion Ave, Bryn Mawr, PA 19010, USA", "geometry": {"location": {"lat": 40.0281065, "lng": -75.3152341}, "location_type": "ROOFTOP", "viewport": {"northeast": {"lat": 40.0294554802915, "lng": -75.3138851197085}, "southwest": {"lat": 40.0267575197085, "lng": -75.31658308029151}}}, "place_id": "ChIJazx-cI2_xokRROA-Ik6hyk0", "types": ["establishment", "point_of_interest", "university"]}]}, "1332878012": {"AfN": "bt group", "Location": [{"address_components": [{"long_name": "300", "short_name": "300", "types": ["subpremise"]}, {"long_name": "1717", "short_name": "1717", "types": ["street_number"]}, {"long_name": "South Boulder Avenue", "short_name": "S Boulder Ave", "types": ["route"]}, {"long_name": "Maple Ridge", "short_name": "Maple Ridge", "types": ["neighborhood", "political"]}, {"long_name": "Tulsa", "short_name": "Tulsa", "types": ["locality", "political"]}, {"long_name": "Tulsa County", "short_name": "Tulsa County", "types": ["administrative_area_level_2", "political"]}, {"long_name": "Oklahoma", "short_name": "OK", "types": ["administrative_area_level_1", "political"]}, {"long_name": "United States", "short_name": "US", "types": ["country", "political"]}, {"long_name": "74119", "short_name": "74119", "types": ["postal_code"]}, {"long_name": "4843", "short_name": "4843", "types": ["postal_code_suffix"]}], "formatted_address": "1717 S Boulder Ave #300, Tulsa, OK 74119, USA", "geometry": {"location": {"lat": 36.1374969, "lng": -95.9881376}, "location_type": "ROOFTOP", "viewport": {"northeast": {"lat": 36.13884588029149, "lng": -95.9867886197085}, "southwest": {"lat": 36.13614791970849, "lng": -95.98948658029151}}}, "place_id": "ChIJ6YDf0WDrtocRx5OAKdwmpek", "types": ["establishment", "point_of_interest"]}]}, "14689143": {"AfN": "bt research", "Location": [{"address_components": [{"long_name": "10665", "short_name": "10665", "types": ["street_number"]}, {"long_name": "Sorrento Valley Road", "short_name": "Sorrento Valley Rd", "types": ["route"]}, {"long_name": "Sorrento Valley", "short_name": "Sorrento Valley", "types": ["neighborhood", "political"]}, {"long_name": "San Diego", "short_name": "San Diego", "types": ["locality", "political"]}, {"long_name": "San Diego County", "short_name": "San Diego County", "types": ["administrative_area_level_2", "political"]}, {"long_name": "California", "short_name": "CA", "types": ["administrative_area_level_1", "political"]}, {"long_name": "United States", "short_name": "US", "types": ["country", "political"]}, {"long_name": "92121", "short_name": "92121", "types": ["postal_code"]}], "formatted_address": "10665 Sorrento Valley Rd, San Diego, CA 92121, USA", "geometry": {"location": {"lat": 32.8982056, "lng": -117.2190313}, "location_type": "ROOFTOP", "viewport": {"northeast": {"lat": 32.89955458029149, "lng": -117.2176823197085}, "southwest": {"lat": 32.8968566197085, "lng": -117.2203802802915}}}, "partial_match": true, "place_id": "ChIJZ2KtbPgG3IAR-GiKHoG6qVI", "types": ["establishment", "health", "point_of_interest"]}]}, "1337826666": {"AfN": "buck institute for research on aging", "Location": [{"address_components": [{"long_name": "8001", "short_name": "8001", "types": ["street_number"]}, {"long_name": "Redwood Boulevard", "short_name": "Redwood Boulevard", "types": ["route"]}, {"long_name": "Novato", "short_name": "Novato", "types": ["locality", "political"]}, {"long_name": "Marin County", "short_name": "Marin County", "types": ["administrative_area_level_2", "political"]}, {"long_name": "California", "short_name": "CA", "types": ["administrative_area_level_1", "political"]}, {"long_name": "United States", "short_name": "US", "types": ["country", "political"]}, {"long_name": "94945", "short_name": "94945", "types": ["postal_code"]}], "formatted_address": "8001 Redwood Boulevard, Novato, CA 94945, USA", "geometry": {"location": {"lat": 38.1338742, "lng": -122.5738758}, "location_type": "ROOFTOP", "viewport": {"northeast": {"lat": 38.1352231802915, "lng": -122.5725268197085}, "southwest": {"lat": 38.1325252197085, "lng": -122.5752247802915}}}, "place_id": "ChIJ_bmfpG67hYAR7EbDzgWbTC0", "types": ["establishment", "point_of_interest"]}]}, "131221577": {"AfN": "bucknell university", "Location": [{"address_components": [{"long_name": "701", "short_name": "701", "types": ["street_number"]}, {"long_name": "Moore Avenue", "short_name": "Moore Ave", "types": ["route"]}, {"long_name": "Lewisburg", "short_name": "Lewisburg", "types": ["locality", "political"]}, {"long_name": "Union County", "short_name": "Union County", "types": ["administrative_area_level_2", "political"]}, {"long_name": "Pennsylvania", "short_name": "PA", "types": ["administrative_area_level_1", "political"]}, {"long_name": "United States", "short_name": "US", "types": ["country", "political"]}, {"long_name": "17837", "short_name": "17837", "types": ["postal_code"]}], "formatted_address": "701 Moore Ave, Lewisburg, PA 17837, USA", "geometry": {"location": {"lat": 40.9546869, "lng": -76.8835514}, "location_type": "ROOFTOP", "viewport": {"northeast": {"lat": 40.9560358802915, "lng": -76.88220241970849}, "southwest": {"lat": 40.9533379197085, "lng": -76.88490038029151}}}, "place_id": "ChIJ3U7mfLwTz4kR-em5PjbPbPM", "types": ["establishment", "point_of_interest", "university"]}]}, "29770179": {"AfN": "budapest university of technology and economics", "Location": [{"address_components": [{"long_name": "3", "short_name": "3", "types": ["street_number"]}, {"long_name": "M\u0171egyetem rakpart", "short_name": "M\u0171egyetem rkp.", "types": ["route"]}, {"long_name": "XI. ker\u00fclet", "short_name": "XI. ker\u00fclet", "types": ["political", "sublocality", "sublocality_level_1"]}, {"long_name": "Budapest", "short_name": "Budapest", "types": ["locality", "political"]}, {"long_name": "Hungary", "short_name": "HU", "types": ["country", "political"]}, {"long_name": "1111", "short_name": "1111", "types": ["postal_code"]}], "formatted_address": "Budapest, M\u0171egyetem rkp. 3, 1111 Hungary", "geometry": {"location": {"lat": 47.4813261, "lng": 19.0554834}, "location_type": "ROOFTOP", "viewport": {"northeast": {"lat": 47.4826750802915, "lng": 19.0568323802915}, "southwest": {"lat": 47.4799771197085, "lng": 19.0541344197085}}}, "place_id": "ChIJH7Hob1PcQUcRS9EPetmSE7w", "types": ["establishment", "point_of_interest", "university"]}]}, "4843557": {"AfN": "budker institute of nuclear physics", "Location": [{"address_components": [{"long_name": "11", "short_name": "11", "types": ["street_number"]}, {"long_name": "Prospekt Akademika Lavrent'yeva", "short_name": "Prospekt Akademika Lavrent'yeva", "types": ["route"]}, {"long_name": "Novosibirsk", "short_name": "Novosibirsk", "types": ["locality", "political"]}, {"long_name": "Gorod Novosibirsk", "short_name": "Gorod Novosibirsk", "types": ["administrative_area_level_2", "political"]}, {"long_name": "Novosibirskaya oblast'", "short_name": "Novosibirskaya oblast'", "types": ["administrative_area_level_1", "political"]}, {"long_name": "Russia", "short_name": "RU", "types": ["country", "political"]}, {"long_name": "630090", "short_name": "630090", "types": ["postal_code"]}], "formatted_address": "Prospekt Akademika Lavrent'yeva, 11, Novosibirsk, Novosibirskaya oblast', Russia, 630090", "geometry": {"location": {"lat": 54.8487231, "lng": 83.1108991}, "location_type": "ROOFTOP", "viewport": {"northeast": {"lat": 54.8500720802915, "lng": 83.11224808029151}, "southwest": {"lat": 54.8473741197085, "lng": 83.10955011970849}}}, "place_id": "ChIJP9A7dwzE30IRXy7OsN8BAT0", "types": ["establishment", "point_of_interest"]}]}, "13811531": {"AfN": "buena vista university", "Location": [{"address_components": [{"long_name": "610", "short_name": "610", "types": ["street_number"]}, {"long_name": "West 4th Street", "short_name": "W 4th St", "types": ["route"]}, {"long_name": "Storm Lake", "short_name": "Storm Lake", "types": ["locality", "political"]}, {"long_name": "Buena Vista County", "short_name": "Buena Vista County", "types": ["administrative_area_level_2", "political"]}, {"long_name": "Iowa", "short_name": "IA", "types": ["administrative_area_level_1", "political"]}, {"long_name": "United States", "short_name": "US", "types": ["country", "political"]}, {"long_name": "50588", "short_name": "50588", "types": ["postal_code"]}], "formatted_address": "610 W 4th St, Storm Lake, IA 50588, USA", "geometry": {"location": {"lat": 42.6410826, "lng": -95.20981220000002}, "location_type": "ROOFTOP", "viewport": {"northeast": {"lat": 42.64243158029149, "lng": -95.20846321970852}, "southwest": {"lat": 42.6397336197085, "lng": -95.21116118029153}}}, "place_id": "ChIJi7GwUGxPjYcRvdSF4WiE5r4", "types": ["establishment", "point_of_interest", "university"]}]}, "1314361725": {"AfN": "buffalo museum of science", "Location": [{"address_components": [{"long_name": "1020", "short_name": "1020", "types": ["street_number"]}, {"long_name": "Humboldt Parkway", "short_name": "Humboldt Pkwy", "types": ["route"]}, {"long_name": "MLK Park", "short_name": "MLK Park", "types": ["neighborhood", "political"]}, {"long_name": "Buffalo", "short_name": "Buffalo", "types": ["locality", "political"]}, {"long_name": "Erie County", "short_name": "Erie County", "types": ["administrative_area_level_2", "political"]}, {"long_name": "New York", "short_name": "NY", "types": ["administrative_area_level_1", "political"]}, {"long_name": "United States", "short_name": "US", "types": ["country", "political"]}, {"long_name": "14211", "short_name": "14211", "types": ["postal_code"]}], "formatted_address": "1020 Humboldt Pkwy, Buffalo, NY 14211, USA", "geometry": {"location": {"lat": 42.90576129999999, "lng": -78.843424}, "location_type": "ROOFTOP", "viewport": {"northeast": {"lat": 42.9071102802915, "lng": -78.84207501970849}, "southwest": {"lat": 42.9044123197085, "lng": -78.8447729802915}}}, "place_id": "ChIJezlAcIMS04kR41lF3eT51VA", "types": ["establishment", "museum", "point_of_interest"]}]}, "115441956": {"AfN": "buffalo state college", "Location": [{"address_components": [{"long_name": "1300", "short_name": "1300", "types": ["street_number"]}, {"long_name": "Elmwood Avenue", "short_name": "Elmwood Ave", "types": ["route"]}, {"long_name": "Buffalo State", "short_name": "Buffalo State", "types": ["neighborhood", "political"]}, {"long_name": "Buffalo", "short_name": "Buffalo", "types": ["locality", "political"]}, {"long_name": "Erie County", "short_name": "Erie County", "types": ["administrative_area_level_2", "political"]}, {"long_name": "New York", "short_name": "NY", "types": ["administrative_area_level_1", "political"]}, {"long_name": "United States", "short_name": "US", "types": ["country", "political"]}, {"long_name": "14222", "short_name": "14222", "types": ["postal_code"]}], "formatted_address": "1300 Elmwood Ave, Buffalo, NY 14222, USA", "geometry": {"location": {"lat": 42.9335369, "lng": -78.8818886}, "location_type": "ROOFTOP", "viewport": {"northeast": {"lat": 42.9348858802915, "lng": -78.8805396197085}, "southwest": {"lat": 42.9321879197085, "lng": -78.8832375802915}}}, "place_id": "ChIJ4ZeVldcS04kRo8KXWteIfFk", "types": ["establishment", "point_of_interest", "university"]}, {"address_components": [{"long_name": "Buffalo", "short_name": "Buffalo", "types": ["locality", "political"]}, {"long_name": "New York", "short_name": "NY", "types": ["administrative_area_level_1", "political"]}, {"long_name": "United States", "short_name": "US", "types": ["country", "political"]}, {"long_name": "14222", "short_name": "14222", "types": ["postal_code"]}], "formatted_address": "Buckham Hall 1300 Elmwood Avenue, Buffalo, NY 14222, United States", "geometry": {"location": {"lat": 42.933004, "lng": -78.8865707}, "location_type": "GEOMETRIC_CENTER", "viewport": {"northeast": {"lat": 42.93435298029149, "lng": -78.88522171970848}, "southwest": {"lat": 42.9316550197085, "lng": -78.88791968029149}}}, "place_id": "ChIJJ-LY1ScT04kRMD4xk_0yvao", "types": ["establishment", "point_of_interest", "school"]}]}, "24768866": {"AfN": "bulgarian academy of sciences", "Location": [{"address_components": [{"long_name": "4", "short_name": "4", "types": ["street_number"]}, {"long_name": "ulitsa \"Serdika\"", "short_name": "ul. \"Serdika\"", "types": ["route"]}, {"long_name": "Sofia Center", "short_name": "Sofia Center", "types": ["neighborhood", "political"]}, {"long_name": "Sofia", "short_name": "Sofia", "types": ["locality", "political"]}, {"long_name": "Sofia City Province", "short_name": "Sofia City Province", "types": ["administrative_area_level_1", "political"]}, {"long_name": "Bulgaria", "short_name": "BG", "types": ["country", "political"]}, {"long_name": "1000", "short_name": "1000", "types": ["postal_code"]}], "formatted_address": "ul. \"Serdika\" 4, 1000 Sofia Center, Sofia, Bulgaria", "geometry": {"location": {"lat": 42.69821, "lng": 23.32488}, "location_type": "ROOFTOP", "viewport": {"northeast": {"lat": 42.6995589802915, "lng": 23.32622898029151}, "southwest": {"lat": 42.6968610197085, "lng": 23.3235310197085}}}, "place_id": "ChIJdWfKsnaFqkARddmAQqjodiU", "types": ["establishment", "health", "point_of_interest"]}]}, "1298036714": {"AfN": "bulgarian ministry of education and science", "Location": []}, "1330165540": {"AfN": "bundesanstalt fur materialforschung und prufung", "Location": [{"address_components": [{"long_name": "11", "short_name": "11", "types": ["street_number"]}, {"long_name": "Richard-Willst\u00e4tter-Stra\u00dfe", "short_name": "Richard-Willst\u00e4tter-Stra\u00dfe", "types": ["route"]}, {"long_name": "Berlin", "short_name": "Berlin", "types": ["locality", "political"]}, {"long_name": "Germany", "short_name": "DE", "types": ["country", "political"]}, {"long_name": "12489", "short_name": "12489", "types": ["postal_code"]}], "formatted_address": "Zweiggel\u00e4nde Adlershof, Richard-Willst\u00e4tter-Stra\u00dfe 11, 12489 Berlin, Germany", "geometry": {"location": {"lat": 52.42722209999999, "lng": 13.5389811}, "location_type": "ROOFTOP", "viewport": {"northeast": {"lat": 52.42857108029149, "lng": 13.5403300802915}, "southwest": {"lat": 52.4258731197085, "lng": 13.5376321197085}}}, "partial_match": true, "place_id": "ChIJDfzkLDJGqEcR7Mko8IOijMU", "types": ["establishment", "point_of_interest"]}, {"address_components": [{"long_name": "87", "short_name": "87", "types": ["street_number"]}, {"long_name": "Unter den Eichen", "short_name": "Unter den Eichen", "types": ["route"]}, {"long_name": "Berlin", "short_name": "Berlin", "types": ["political", "sublocality", "sublocality_level_1"]}, {"long_name": "Berlin", "short_name": "Berlin", "types": ["locality", "political"]}, {"long_name": "Berlin", "short_name": "Berlin", "types": ["administrative_area_level_2", "political"]}, {"long_name": "Berlin", "short_name": "Berlin", "types": ["administrative_area_level_1", "political"]}, {"long_name": "Germany", "short_name": "DE", "types": ["country", "political"]}, {"long_name": "12205", "short_name": "12205", "types": ["postal_code"]}], "formatted_address": "Unter den Eichen 87, 12205 Berlin, Germany", "geometry": {"location": {"lat": 52.44298500000001, "lng": 13.2876072}, "location_type": "ROOFTOP", "viewport": {"northeast": {"lat": 52.44433398029151, "lng": 13.28895618029151}, "southwest": {"lat": 52.44163601970851, "lng": 13.2862582197085}}}, "partial_match": true, "place_id": "ChIJn7CNd0NaqEcRC-iTyJFnc9s", "types": ["establishment", "point_of_interest"]}]}, "40527276": {"AfN": "bundeswehr university munich", "Location": [{"address_components": [{"long_name": "39", "short_name": "39", "types": ["street_number"]}, {"long_name": "Werner-Heisenberg-Weg", "short_name": "Werner-Heisenberg-Weg", "types": ["route"]}, {"long_name": "Unterbiberg", "short_name": "Unterbiberg", "types": ["political", "sublocality", "sublocality_level_1"]}, {"long_name": "Neubiberg", "short_name": "Neubiberg", "types": ["locality", "political"]}, {"long_name": "M\u00fcnchen", "short_name": "M\u00fcnchen", "types": ["administrative_area_level_3", "political"]}, {"long_name": "Oberbayern", "short_name": "Oberbayern", "types": ["administrative_area_level_2", "political"]}, {"long_name": "Bayern", "short_name": "BY", "types": ["administrative_area_level_1", "political"]}, {"long_name": "Germany", "short_name": "DE", "types": ["country", "political"]}, {"long_name": "85579", "short_name": "85579", "types": ["postal_code"]}], "formatted_address": "Werner-Heisenberg-Weg 39, 85579 Neubiberg, Germany", "geometry": {"location": {"lat": 48.0815617, "lng": 11.6360739}, "location_type": "ROOFTOP", "viewport": {"northeast": {"lat": 48.0829106802915, "lng": 11.6374228802915}, "southwest": {"lat": 48.08021271970851, "lng": 11.6347249197085}}}, "place_id": "ChIJbb-zr4_gnUcR61A-cEcpxlM", "types": ["establishment", "point_of_interest", "university"]}]}, "127763184": {"AfN": "bunker hill community college", "Location": [{"address_components": [{"long_name": "250", "short_name": "250", "types": ["street_number"]}, {"long_name": "Rutherford Avenue", "short_name": "Rutherford Ave", "types": ["route"]}, {"long_name": "Medford Street / The Neck", "short_name": "Medford Street / The Neck", "types": ["neighborhood", "political"]}, {"long_name": "Boston", "short_name": "Boston", "types": ["locality", "political"]}, {"long_name": "Suffolk County", "short_name": "Suffolk County", "types": ["administrative_area_level_2", "political"]}, {"long_name": "Massachusetts", "short_name": "MA", "types": ["administrative_area_level_1", "political"]}, {"long_name": "United States", "short_name": "US", "types": ["country", "political"]}, {"long_name": "02129", "short_name": "02129", "types": ["postal_code"]}, {"long_name": "2925", "short_name": "2925", "types": ["postal_code_suffix"]}], "formatted_address": "250 Rutherford Ave, Boston, MA 02129, USA", "geometry": {"location": {"lat": 42.3750919, "lng": -71.0700432}, "location_type": "ROOFTOP", "viewport": {"northeast": {"lat": 42.3764408802915, "lng": -71.0686942197085}, "southwest": {"lat": 42.3737429197085, "lng": -71.07139218029151}}}, "place_id": "ChIJny0vG-tw44kRa-6CJIycM-Q", "types": ["establishment", "point_of_interest", "university"]}]}, "153327471": {"AfN": "bunkyo university", "Location": [{"address_components": [{"long_name": "3337", "short_name": "3337", "types": ["premise"]}, {"long_name": "Minamiogishima", "short_name": "Minamiogishima", "types": ["political", "sublocality", "sublocality_level_2"]}, {"long_name": "Koshigaya", "short_name": "Koshigaya", "types": ["locality", "political"]}, {"long_name": "Saitama Prefecture", "short_name": "Saitama Prefecture", "types": ["administrative_area_level_1", "political"]}, {"long_name": "Japan", "short_name": "JP", "types": ["country", "political"]}, {"long_name": "343-0804", "short_name": "343-0804", "types": ["postal_code"]}], "formatted_address": "3337 Minamiogishima, Koshigaya, Saitama Prefecture 343-0804, Japan", "geometry": {"location": {"lat": 35.9049454, "lng": 139.7736777}, "location_type": "ROOFTOP", "viewport": {"northeast": {"lat": 35.90629438029149, "lng": 139.7750266802915}, "southwest": {"lat": 35.9035964197085, "lng": 139.7723287197085}}}, "place_id": "ChIJE0aeR_6VGGARBjNuDUIu-1c", "types": ["establishment", "point_of_interest", "university"]}]}, "78076832": {"AfN": "bunri university of hospitality", "Location": [{"address_components": [{"long_name": "311-1", "short_name": "311-1", "types": ["premise"]}, {"long_name": "Kashiwabara Shinden", "short_name": "Kashiwabara Shinden", "types": ["political", "sublocality", "sublocality_level_2"]}, {"long_name": "Sayama", "short_name": "Sayama", "types": ["locality", "political"]}, {"long_name": "Saitama Prefecture", "short_name": "Saitama Prefecture", "types": ["administrative_area_level_1", "political"]}, {"long_name": "Japan", "short_name": "JP", "types": ["country", "political"]}, {"long_name": "350-1336", "short_name": "350-1336", "types": ["postal_code"]}], "formatted_address": "311-1 Kashiwabara Shinden, Sayama, Saitama Prefecture 350-1336, Japan", "geometry": {"location": {"lat": 35.8936409, "lng": 139.4192116}, "location_type": "ROOFTOP", "viewport": {"northeast": {"lat": 35.8949898802915, "lng": 139.4205605802915}, "southwest": {"lat": 35.89229191970851, "lng": 139.4178626197085}}}, "place_id": "ChIJt8ONlbnZGGARVpn2l7XgqXg", "types": ["establishment", "point_of_interest", "university"]}]}, "129488602": {"AfN": "burapha university", "Location": [{"address_components": [{"long_name": "169", "short_name": "169", "types": ["street_number"]}, {"long_name": "Long Had Bangsaen Road", "short_name": "Long Had Bangsaen Rd", "types": ["route"]}, {"long_name": "Tambon Saen Suk", "short_name": "Tambon Saen Suk", "types": ["locality", "political"]}, {"long_name": "\u0e2d\u0e33\u0e40\u0e20\u0e2d \u0e40\u0e21\u0e37\u0e2d\u0e07\u0e0a\u0e25\u0e1a\u0e38\u0e23\u0e35", "short_name": "\u0e2d\u0e33\u0e40\u0e20\u0e2d \u0e40\u0e21\u0e37\u0e2d\u0e07\u0e0a\u0e25\u0e1a\u0e38\u0e23\u0e35", "types": ["administrative_area_level_2", "political"]}, {"long_name": "Chang Wat Chon Buri", "short_name": "\u0e08.\u0e0a\u0e25\u0e1a\u0e38\u0e23\u0e35", "types": ["administrative_area_level_1", "political"]}, {"long_name": "Thailand", "short_name": "TH", "types": ["country", "political"]}, {"long_name": "20131", "short_name": "20131", "types": ["postal_code"]}], "formatted_address": "169 Long Had Bangsaen Rd, Tambon Saen Suk, \u0e2d\u0e33\u0e40\u0e20\u0e2d \u0e40\u0e21\u0e37\u0e2d\u0e07\u0e0a\u0e25\u0e1a\u0e38\u0e23\u0e35 Chang Wat Chon Buri 20131, Thailand", "geometry": {"location": {"lat": 13.2859842, "lng": 100.925362}, "location_type": "ROOFTOP", "viewport": {"northeast": {"lat": 13.2873331802915, "lng": 100.9267109802915}, "southwest": {"lat": 13.2846352197085, "lng": 100.9240130197085}}}, "place_id": "ChIJi5ZRw-e0AjERwDDdwEvYAw8", "types": ["establishment", "point_of_interest", "university"]}]}, "166813715": {"AfN": "burdwan medical college", "Location": [{"address_components": [{"long_name": "Bardhaman", "short_name": "Bardhaman", "types": ["locality", "political"]}, {"long_name": "West Bengal", "short_name": "WB", "types": ["administrative_area_level_1", "political"]}, {"long_name": "India", "short_name": "IN", "types": ["country", "political"]}, {"long_name": "713104", "short_name": "713104", "types": ["postal_code"]}], "formatted_address": "Bardhaman University, Bardhaman, West Bengal 713104, India", "geometry": {"location": {"lat": 23.2489127, "lng": 87.8536249}, "location_type": "GEOMETRIC_CENTER", "viewport": {"northeast": {"lat": 23.2502616802915, "lng": 87.85497388029151}, "southwest": {"lat": 23.2475637197085, "lng": 87.8522759197085}}}, "place_id": "ChIJq4UPix82-DkR3YVYDVnexoA", "types": ["establishment", "health", "hospital", "point_of_interest", "university"]}, {"address_components": [{"long_name": "Bardhaman", "short_name": "Bardhaman", "types": ["locality", "political"]}, {"long_name": "West Bengal", "short_name": "WB", "types": ["administrative_area_level_1", "political"]}, {"long_name": "India", "short_name": "IN", "types": ["country", "political"]}, {"long_name": "713104", "short_name": "713104", "types": ["postal_code"]}], "formatted_address": "Opp. Shyam Sayer, Khosbagan, Bardhaman, West Bengal 713104, India", "geometry": {"location": {"lat": 23.2448356, "lng": 87.857325}, "location_type": "GEOMETRIC_CENTER", "viewport": {"northeast": {"lat": 23.2461845802915, "lng": 87.8586739802915}, "southwest": {"lat": 23.2434866197085, "lng": 87.85597601970849}}}, "place_id": "ChIJa_o1FN9J-DkRWol5-FgELI0", "types": ["establishment", "point_of_interest", "university"]}]}, "1283508050": {"AfN": "bureau of alcohol tobacco firearms and explosives", "Location": [{"address_components": [{"long_name": "1500", "short_name": "1500", "types": ["subpremise"]}, {"long_name": "Plaza Tower", "short_name": "Plaza Tower", "types": ["premise"]}, {"long_name": "110", "short_name": "110", "types": ["street_number"]}, {"long_name": "North College Avenue", "short_name": "N College Ave", "types": ["route"]}, {"long_name": "Downtown", "short_name": "Downtown", "types": ["neighborhood", "political"]}, {"long_name": "Tyler", "short_name": "Tyler", "types": ["locality", "political"]}, {"long_name": "Smith County", "short_name": "Smith County", "types": ["administrative_area_level_2", "political"]}, {"long_name": "Texas", "short_name": "TX", "types": ["administrative_area_level_1", "political"]}, {"long_name": "United States", "short_name": "US", "types": ["country", "political"]}, {"long_name": "75702", "short_name": "75702", "types": ["postal_code"]}], "formatted_address": "Plaza Tower, 110 N College Ave #1500, Tyler, TX 75702, USA", "geometry": {"location": {"lat": 32.3514197, "lng": -95.30201100000001}, "location_type": "ROOFTOP", "viewport": {"northeast": {"lat": 32.3527686802915, "lng": -95.30066201970851}, "southwest": {"lat": 32.3500707197085, "lng": -95.30335998029152}}}, "place_id": "ChIJaTTMxLDOSYYRSXSL98Q1ls0", "types": ["establishment", "point_of_interest"]}]}, "1288783943": {"AfN": "bureau of economic analysis", "Location": [{"address_components": [{"long_name": "United States", "short_name": "US", "types": ["country", "political"]}], "formatted_address": "United States", "geometry": {"bounds": {"northeast": {"lat": 71.5388001, "lng": -66.885417}, "southwest": {"lat": 18.7763, "lng": 170.5957}}, "location": {"lat": 37.09024, "lng": -95.712891}, "location_type": "APPROXIMATE", "viewport": {"northeast": {"lat": 49.38, "lng": -66.94}, "southwest": {"lat": 25.82, "lng": -124.39}}}, "place_id": "ChIJCzYy5IS16lQRQrfeQ5K5Oxw", "types": ["country", "political"]}, {"address_components": [{"long_name": "4600", "short_name": "4600", "types": ["street_number"]}, {"long_name": "Silver Hill Road", "short_name": "Silver Hill Rd", "types": ["route"]}, {"long_name": "Suitland", "short_name": "Suitland", "types": ["neighborhood", "political"]}, {"long_name": "Suitland-Silver Hill", "short_name": "Suitland-Silver Hill", "types": ["locality", "political"]}, {"long_name": "6, Spauldings", "short_name": "6, Spauldings", "types": ["administrative_area_level_3", "political"]}, {"long_name": "Prince George's County", "short_name": "Prince George's County", "types": ["administrative_area_level_2", "political"]}, {"long_name": "Maryland", "short_name": "MD", "types": ["administrative_area_level_1", "political"]}, {"long_name": "United States", "short_name": "US", "types": ["country", "political"]}, {"long_name": "20746", "short_name": "20746", "types": ["postal_code"]}], "formatted_address": "4600 Silver Hill Rd, Suitland, MD 20746, USA", "geometry": {"location": {"lat": 38.8461322, "lng": -76.9292044}, "location_type": "ROOFTOP", "viewport": {"northeast": {"lat": 38.8474811802915, "lng": -76.92785541970851}, "southwest": {"lat": 38.8447832197085, "lng": -76.93055338029151}}}, "place_id": "ChIJG1PgZE-5t4kR5CSJNd5lDxs", "types": ["establishment", "point_of_interest"]}]}, "1317755276": {"AfN": "bureau of indian affairs", "Location": [{"address_components": [{"long_name": "3100", "short_name": "3100", "types": ["street_number"]}, {"long_name": "West Peak Boulevard", "short_name": "W Peak Blvd", "types": ["route"]}, {"long_name": "Muskogee", "short_name": "Muskogee", "types": ["locality", "political"]}, {"long_name": "Muskogee County", "short_name": "Muskogee County", "types": ["administrative_area_level_2", "political"]}, {"long_name": "Oklahoma", "short_name": "OK", "types": ["administrative_area_level_1", "political"]}, {"long_name": "United States", "short_name": "US", "types": ["country", "political"]}, {"long_name": "74401", "short_name": "74401", "types": ["postal_code"]}, {"long_name": "8203", "short_name": "8203", "types": ["postal_code_suffix"]}], "formatted_address": "3100 W Peak Blvd, Muskogee, OK 74401, USA", "geometry": {"location": {"lat": 35.711901, "lng": -95.400295}, "location_type": "ROOFTOP", "viewport": {"northeast": {"lat": 35.71324998029149, "lng": -95.3989460197085}, "southwest": {"lat": 35.71055201970849, "lng": -95.40164398029151}}}, "place_id": "ChIJmwoyowbetYcRJQbZtNNBC1c", "types": ["establishment", "point_of_interest"]}]}, "1286782754": {"AfN": "bureau of justice statistics", "Location": [{"address_components": [{"long_name": "United States", "short_name": "US", "types": ["country", "political"]}], "formatted_address": "United States", "geometry": {"bounds": {"northeast": {"lat": 71.5388001, "lng": -66.885417}, "southwest": {"lat": 18.7763, "lng": 170.5957}}, "location": {"lat": 37.09024, "lng": -95.712891}, "location_type": "APPROXIMATE", "viewport": {"northeast": {"lat": 49.38, "lng": -66.94}, "southwest": {"lat": 25.82, "lng": -124.39}}}, "place_id": "ChIJCzYy5IS16lQRQrfeQ5K5Oxw", "types": ["country", "political"]}]}, "1290095210": {"AfN": "bureau of labor statistics", "Location": [{"address_components": [{"long_name": "1100", "short_name": "1100", "types": ["street_number"]}, {"long_name": "Main Street", "short_name": "Main St", "types": ["route"]}, {"long_name": "Kansas City", "short_name": "KCMO", "types": ["locality", "political"]}, {"long_name": "Kaw Township", "short_name": "Kaw Township", "types": ["administrative_area_level_3", "political"]}, {"long_name": "Jackson County", "short_name": "Jackson County", "types": ["administrative_area_level_2", "political"]}, {"long_name": "Missouri", "short_name": "MO", "types": ["administrative_area_level_1", "political"]}, {"long_name": "United States", "short_name": "US", "types": ["country", "political"]}, {"long_name": "64105", "short_name": "64105", "types": ["postal_code"]}, {"long_name": "2120", "short_name": "2120", "types": ["postal_code_suffix"]}], "formatted_address": "1100 Main St, Kansas City, MO 64105, USA", "geometry": {"location": {"lat": 39.1003362, "lng": -94.58380679999999}, "location_type": "ROOFTOP", "viewport": {"northeast": {"lat": 39.1016851802915, "lng": -94.58245781970848}, "southwest": {"lat": 39.0989872197085, "lng": -94.5851557802915}}}, "place_id": "ChIJ0YCe8F3wwIcRe6W0czXAwaM", "types": ["establishment", "health", "local_government_office", "point_of_interest"]}, {"address_components": [{"long_name": "2", "short_name": "2", "types": ["street_number"]}, {"long_name": "Massachusetts Avenue Northeast", "short_name": "Massachusetts Ave NE", "types": ["route"]}, {"long_name": "Near Northeast", "short_name": "Near Northeast", "types": ["neighborhood", "political"]}, {"long_name": "Washington", "short_name": "Washington", "types": ["locality", "political"]}, {"long_name": "District of Columbia", "short_name": "DC", "types": ["administrative_area_level_1", "political"]}, {"long_name": "United States", "short_name": "US", "types": ["country", "political"]}, {"long_name": "20212", "short_name": "20212", "types": ["postal_code"]}], "formatted_address": "2 Massachusetts Ave NE, Washington, DC 20212, USA", "geometry": {"location": {"lat": 38.8981707, "lng": -77.008198}, "location_type": "ROOFTOP", "viewport": {"northeast": {"lat": 38.8995196802915, "lng": -77.00684901970848}, "southwest": {"lat": 38.89682171970851, "lng": -77.0095469802915}}}, "place_id": "ChIJVcGEI4a3t4kR-bIG3ZElDtE", "types": ["establishment", "point_of_interest"]}]}, "1302124595": {"AfN": "bureau of land management", "Location": [{"address_components": [{"long_name": "6640", "short_name": "6640", "types": ["street_number"]}, {"long_name": "Lockheed Drive", "short_name": "Lockheed Dr", "types": ["route"]}, {"long_name": "Pacheco", "short_name": "Pacheco", "types": ["neighborhood", "political"]}, {"long_name": "Redding", "short_name": "Redding", "types": ["locality", "political"]}, {"long_name": "Shasta County", "short_name": "Shasta County", "types": ["administrative_area_level_2", "political"]}, {"long_name": "California", "short_name": "CA", "types": ["administrative_area_level_1", "political"]}, {"long_name": "United States", "short_name": "US", "types": ["country", "political"]}, {"long_name": "96002", "short_name": "96002", "types": ["postal_code"]}], "formatted_address": "6640 Lockheed Dr, Redding, CA 96002, USA", "geometry": {"location": {"lat": 40.5092434, "lng": -122.3032365}, "location_type": "ROOFTOP", "viewport": {"northeast": {"lat": 40.51059238029149, "lng": -122.3018875197085}, "southwest": {"lat": 40.50789441970849, "lng": -122.3045854802915}}}, "place_id": "ChIJFYqfq7_s0lQRdyziKeEcKUY", "types": ["establishment", "point_of_interest"]}]}, "1286406326": {"AfN": "bureau of meteorology", "Location": [{"address_components": [{"long_name": "2121", "short_name": "2121", "types": ["street_number"]}, {"long_name": "Route Transcanadienne", "short_name": "Rte Transcanadienne", "types": ["route"]}, {"long_name": "Dorval", "short_name": "Dorval", "types": ["locality", "political"]}, {"long_name": "Communaut\u00e9-Urbaine-de-Montr\u00e9al", "short_name": "Communaut\u00e9-Urbaine-de-Montr\u00e9al", "types": ["administrative_area_level_2", "political"]}, {"long_name": "Qu\u00e9bec", "short_name": "QC", "types": ["administrative_area_level_1", "political"]}, {"long_name": "Canada", "short_name": "CA", "types": ["country", "political"]}, {"long_name": "H9P 1J3", "short_name": "H9P 1J3", "types": ["postal_code"]}], "formatted_address": "2121 Rte Transcanadienne, Dorval, QC H9P 1J3, Canada", "geometry": {"location": {"lat": 45.4833291, "lng": -73.7878358}, "location_type": "ROOFTOP", "viewport": {"northeast": {"lat": 45.4846780802915, "lng": -73.7864868197085}, "southwest": {"lat": 45.4819801197085, "lng": -73.7891847802915}}}, "place_id": "ChIJkU1kS-Q8yUwRe7kduaEhOls", "types": ["establishment", "point_of_interest"]}]}, "1329210759": {"AfN": "bureau of plant industry", "Location": [{"address_components": [{"long_name": "705", "short_name": "705", "types": ["street_number"]}, {"long_name": "Stone Blvd", "short_name": "Stone Blvd", "types": ["route"]}, {"long_name": "Miss State", "short_name": "Miss State", "types": ["locality", "political"]}, {"long_name": "Oktibbeha County", "short_name": "Oktibbeha County", "types": ["administrative_area_level_2", "political"]}, {"long_name": "MS", "short_name": "MS", "types": ["administrative_area_level_1", "political"]}, {"long_name": "United States", "short_name": "US", "types": ["country", "political"]}, {"long_name": "39762", "short_name": "39762", "types": ["postal_code"]}], "formatted_address": "705 Stone Blvd, Miss State, MS 39762, USA", "geometry": {"location": {"lat": 33.4496829, "lng": -88.7953706}, "location_type": "ROOFTOP", "viewport": {"northeast": {"lat": 33.4510318802915, "lng": -88.79402161970849}, "southwest": {"lat": 33.4483339197085, "lng": -88.79671958029151}}}, "place_id": "ChIJZXDQxzc1gYgRUqIG4uZG1NU", "types": ["establishment", "local_government_office", "point_of_interest"]}, {"address_components": [{"long_name": "1911", "short_name": "1911", "types": ["street_number"]}, {"long_name": "Southwest 34th Street", "short_name": "SW 34th St", "types": ["route"]}, {"long_name": "Gainesville", "short_name": "Gainesville", "types": ["locality", "political"]}, {"long_name": "Alachua County", "short_name": "Alachua County", "types": ["administrative_area_level_2", "political"]}, {"long_name": "Florida", "short_name": "FL", "types": ["administrative_area_level_1", "political"]}, {"long_name": "United States", "short_name": "US", "types": ["country", "political"]}, {"long_name": "32608", "short_name": "32608", "types": ["postal_code"]}], "formatted_address": "1911 SW 34th St, Gainesville, FL 32608, USA", "geometry": {"location": {"lat": 29.6346798, "lng": -82.3715361}, "location_type": "ROOFTOP", "viewport": {"northeast": {"lat": 29.6360287802915, "lng": -82.3701871197085}, "southwest": {"lat": 29.6333308197085, "lng": -82.37288508029151}}}, "place_id": "ChIJo6hb5_EcE4gRVjXPemekr60", "types": ["establishment", "point_of_interest"]}]}, "145902186": {"AfN": "burnet institute", "Location": [{"address_components": [{"long_name": "85", "short_name": "85", "types": ["street_number"]}, {"long_name": "Commercial Road", "short_name": "Commercial Rd", "types": ["route"]}, {"long_name": "Melbourne", "short_name": "Melbourne", "types": ["locality", "political"]}, {"long_name": "Melbourne City", "short_name": "Melbourne", "types": ["administrative_area_level_2", "political"]}, {"long_name": "Victoria", "short_name": "VIC", "types": ["administrative_area_level_1", "political"]}, {"long_name": "Australia", "short_name": "AU", "types": ["country", "political"]}, {"long_name": "3004", "short_name": "3004", "types": ["postal_code"]}], "formatted_address": "85 Commercial Rd, Melbourne VIC 3004, Australia", "geometry": {"location": {"lat": -37.8458958, "lng": 144.9840747}, "location_type": "ROOFTOP", "viewport": {"northeast": {"lat": -37.8445468197085, "lng": 144.9854236802915}, "southwest": {"lat": -37.8472447802915, "lng": 144.9827257197085}}}, "place_id": "ChIJla-mjiJo1moReMJ-LE3VmLs", "types": ["establishment", "point_of_interest"]}]}, "3003364": {"AfN": "bursa orhangazi university", "Location": [{"address_components": [{"long_name": "Mimar Sinan Caddesi", "short_name": "Mimar Sinan Cd.", "types": ["route"]}, {"long_name": "Mimarsinan Mahallesi", "short_name": "Mimarsinan Mahallesi", "types": ["administrative_area_level_4", "political"]}, {"long_name": "Y\u0131ld\u0131r\u0131m", "short_name": "Y\u0131ld\u0131r\u0131m", "types": ["administrative_area_level_3", "political"]}, {"long_name": "Y\u0131ld\u0131r\u0131m", "short_name": "Y\u0131ld\u0131r\u0131m", "types": ["administrative_area_level_2", "political"]}, {"long_name": "Bursa", "short_name": "Bursa", "types": ["administrative_area_level_1", "political"]}, {"long_name": "Turkey", "short_name": "TR", "types": ["country", "political"]}, {"long_name": "16310", "short_name": "16310", "types": ["postal_code"]}], "formatted_address": "Mimarsinan Mahallesi, Mimar Sinan Cd., 16310 Y\u0131ld\u0131r\u0131m/Bursa, Turkey", "geometry": {"location": {"lat": 40.1869788, "lng": 29.1309135}, "location_type": "GEOMETRIC_CENTER", "viewport": {"northeast": {"lat": 40.18832778029149, "lng": 29.1322624802915}, "southwest": {"lat": 40.1856298197085, "lng": 29.1295645197085}}}, "place_id": "ChIJp6v42bc-yhQRRzSZEVdAfhI", "types": ["establishment", "point_of_interest", "university"]}]}, "192257213": {"AfN": "bursa technical university", "Location": [{"address_components": [{"long_name": "Mimar Sinan Caddesi", "short_name": "Mimar Sinan Cd.", "types": ["route"]}, {"long_name": "Mimarsinan Mahallesi", "short_name": "Mimarsinan Mahallesi", "types": ["administrative_area_level_4", "political"]}, {"long_name": "Y\u0131ld\u0131r\u0131m", "short_name": "Y\u0131ld\u0131r\u0131m", "types": ["administrative_area_level_3", "political"]}, {"long_name": "Y\u0131ld\u0131r\u0131m", "short_name": "Y\u0131ld\u0131r\u0131m", "types": ["administrative_area_level_2", "political"]}, {"long_name": "Bursa", "short_name": "Bursa", "types": ["administrative_area_level_1", "political"]}, {"long_name": "Turkey", "short_name": "TR", "types": ["country", "political"]}, {"long_name": "16310", "short_name": "16310", "types": ["postal_code"]}], "formatted_address": "Mimarsinan Mahallesi, Mimar Sinan Cd., 16310 Y\u0131ld\u0131r\u0131m/Bursa, Turkey", "geometry": {"location": {"lat": 40.1869788, "lng": 29.1309135}, "location_type": "GEOMETRIC_CENTER", "viewport": {"northeast": {"lat": 40.18832778029149, "lng": 29.1322624802915}, "southwest": {"lat": 40.1856298197085, "lng": 29.1295645197085}}}, "place_id": "ChIJp6v42bc-yhQRRzSZEVdAfhI", "types": ["establishment", "point_of_interest", "university"]}]}, "1311003375": {"AfN": "burton snowboards", "Location": [{"address_components": [{"long_name": "8175", "short_name": "8175", "types": ["street_number"]}, {"long_name": "Melrose Avenue", "short_name": "Melrose Ave", "types": ["route"]}, {"long_name": "Beverly Grove", "short_name": "Beverly Grove", "types": ["neighborhood", "political"]}, {"long_name": "Los Angeles", "short_name": "Los Angeles", "types": ["locality", "political"]}, {"long_name": "Los Angeles County", "short_name": "Los Angeles County", "types": ["administrative_area_level_2", "political"]}, {"long_name": "California", "short_name": "CA", "types": ["administrative_area_level_1", "political"]}, {"long_name": "United States", "short_name": "US", "types": ["country", "political"]}, {"long_name": "90046", "short_name": "90046", "types": ["postal_code"]}], "formatted_address": "8175 Melrose Ave, Los Angeles, CA 90046, USA", "geometry": {"location": {"lat": 34.08398, "lng": -118.3677221}, "location_type": "ROOFTOP", "viewport": {"northeast": {"lat": 34.0853289802915, "lng": -118.3663731197085}, "southwest": {"lat": 34.0826310197085, "lng": -118.3690710802915}}},