{"86677382": {"AfN": "silpakorn university", "Location": [{"address_components": [{"long_name": "31", "short_name": "31", "types": ["street_number"]}, {"long_name": "Na Phra Lan Road", "short_name": "Na Phra Lan Rd", "types": ["route"]}, {"long_name": "Khwaeng Phra Borom Maha Ratchawang", "short_name": "Khwaeng Phra Borom Maha Ratchawang", "types": ["political", "sublocality", "sublocality_level_2"]}, {"long_name": "Khet Phra Nakhon", "short_name": "Khet Phra Nakhon", "types": ["political", "sublocality", "sublocality_level_1"]}, {"long_name": "\u0e01\u0e23\u0e38\u0e07\u0e40\u0e17\u0e1e\u0e21\u0e2b\u0e32\u0e19\u0e04\u0e23", "short_name": "\u0e01\u0e23\u0e38\u0e07\u0e40\u0e17\u0e1e\u0e21\u0e2b\u0e32\u0e19\u0e04\u0e23", "types": ["administrative_area_level_1", "political"]}, {"long_name": "Thailand", "short_name": "TH", "types": ["country", "political"]}, {"long_name": "10200", "short_name": "10200", "types": ["postal_code"]}], "formatted_address": "31 Na Phra Lan Rd, Khwaeng Phra Borom Maha Ratchawang, Khet Phra Nakhon, \u0e01\u0e23\u0e38\u0e07\u0e40\u0e17\u0e1e\u0e21\u0e2b\u0e32\u0e19\u0e04\u0e23 10200, Thailand", "geometry": {"location": {"lat": 13.7529161, "lng": 100.4902354}, "location_type": "ROOFTOP", "viewport": {"northeast": {"lat": 13.7542650802915, "lng": 100.4915843802915}, "southwest": {"lat": 13.7515671197085, "lng": 100.4888864197085}}}, "place_id": "ChIJywjLUgmZ4jARkkNmxCRfTF0", "types": ["establishment", "point_of_interest", "university"]}]}, "291456972": {"AfN": "silver spring networks", "Location": [{"address_components": [{"long_name": "230", "short_name": "230", "types": ["street_number"]}, {"long_name": "West Tasman Drive", "short_name": "W Tasman Dr", "types": ["route"]}, {"long_name": "North San Jose", "short_name": "North San Jose", "types": ["neighborhood", "political"]}, {"long_name": "San Jose", "short_name": "San Jose", "types": ["locality", "political"]}, {"long_name": "Santa Clara County", "short_name": "Santa Clara County", "types": ["administrative_area_level_2", "political"]}, {"long_name": "California", "short_name": "CA", "types": ["administrative_area_level_1", "political"]}, {"long_name": "United States", "short_name": "US", "types": ["country", "political"]}, {"long_name": "95134", "short_name": "95134", "types": ["postal_code"]}], "formatted_address": "230 W Tasman Dr, San Jose, CA 95134, USA", "geometry": {"location": {"lat": 37.409758, "lng": -121.956869}, "location_type": "ROOFTOP", "viewport": {"northeast": {"lat": 37.4111069802915, "lng": -121.9555200197085}, "southwest": {"lat": 37.4084090197085, "lng": -121.9582179802915}}}, "place_id": "ChIJp9re-xqjj4ARCrsuVXfKXLA", "types": ["establishment", "point_of_interest"]}, {"address_components": [{"long_name": "1200", "short_name": "1200", "types": ["subpremise"]}, {"long_name": "300", "short_name": "300", "types": ["street_number"]}, {"long_name": "Convent Street", "short_name": "Convent St", "types": ["route"]}, {"long_name": "Downtown", "short_name": "Downtown", "types": ["neighborhood", "political"]}, {"long_name": "San Antonio", "short_name": "San Antonio", "types": ["locality", "political"]}, {"long_name": "Bexar County", "short_name": "Bexar County", "types": ["administrative_area_level_2", "political"]}, {"long_name": "Texas", "short_name": "TX", "types": ["administrative_area_level_1", "political"]}, {"long_name": "United States", "short_name": "US", "types": ["country", "political"]}, {"long_name": "78205", "short_name": "78205", "types": ["postal_code"]}], "formatted_address": "300 Convent St #1200, San Antonio, TX 78205, USA", "geometry": {"location": {"lat": 29.4295535, "lng": -98.4905483}, "location_type": "ROOFTOP", "viewport": {"northeast": {"lat": 29.4309024802915, "lng": -98.4891993197085}, "southwest": {"lat": 29.4282045197085, "lng": -98.49189728029151}}}, "place_id": "ChIJnyvDklNfXIYR8YjjrIAuIxo", "types": ["establishment", "point_of_interest"]}]}, "8696757": {"AfN": "sim university", "Location": [{"address_components": [{"long_name": "461", "short_name": "461", "types": ["street_number"]}, {"long_name": "Clementi Road", "short_name": "Clementi Rd", "types": ["route"]}, {"long_name": "Bukit Timah", "short_name": "Bukit Timah", "types": ["neighborhood", "political"]}, {"long_name": "Singapore", "short_name": "Singapore", "types": ["locality", "political"]}, {"long_name": "Singapore", "short_name": "SG", "types": ["country", "political"]}, {"long_name": "599491", "short_name": "599491", "types": ["postal_code"]}], "formatted_address": "461 Clementi Rd, Singapore 599491", "geometry": {"location": {"lat": 1.3295536, "lng": 103.7761688}, "location_type": "ROOFTOP", "viewport": {"northeast": {"lat": 1.330902580291502, "lng": 103.7775177802915}, "southwest": {"lat": 1.328204619708498, "lng": 103.7748198197085}}}, "place_id": "ChIJnRRElgoa2jERsbdrSa_e00g", "types": ["establishment", "point_of_interest", "university"]}, {"address_components": [{"long_name": "463", "short_name": "463", "types": ["street_number"]}, {"long_name": "Clementi Road", "short_name": "Clementi Rd", "types": ["route"]}, {"long_name": "Bukit Timah", "short_name": "Bukit Timah", "types": ["neighborhood", "political"]}, {"long_name": "Singapore", "short_name": "Singapore", "types": ["locality", "political"]}, {"long_name": "Singapore", "short_name": "SG", "types": ["country", "political"]}, {"long_name": "599494", "short_name": "599494", "types": ["postal_code"]}], "formatted_address": "463 Clementi Rd, Singapore 599494", "geometry": {"location": {"lat": 1.3285982, "lng": 103.7759947}, "location_type": "ROOFTOP", "viewport": {"northeast": {"lat": 1.329947180291502, "lng": 103.7773436802915}, "southwest": {"lat": 1.327249219708498, "lng": 103.7746457197085}}}, "place_id": "ChIJvQQziYAQ2jERCOP-JKA4N9k", "types": ["establishment", "point_of_interest", "university"]}]}, "179245896": {"AfN": "simmons college", "Location": [{"address_components": [{"long_name": "1018", "short_name": "1018", "types": ["street_number"]}, {"long_name": "South 7th Street", "short_name": "S 7th St", "types": ["route"]}, {"long_name": "Limerick", "short_name": "Limerick", "types": ["neighborhood", "political"]}, {"long_name": "Louisville", "short_name": "Louisville", "types": ["locality", "political"]}, {"long_name": "Jefferson County", "short_name": "Jefferson County", "types": ["administrative_area_level_2", "political"]}, {"long_name": "Kentucky", "short_name": "KY", "types": ["administrative_area_level_1", "political"]}, {"long_name": "United States", "short_name": "US", "types": ["country", "political"]}, {"long_name": "40203", "short_name": "40203", "types": ["postal_code"]}], "formatted_address": "1018 S 7th St, Louisville, KY 40203, USA", "geometry": {"location": {"lat": 38.2394955, "lng": -85.7648298}, "location_type": "ROOFTOP", "viewport": {"northeast": {"lat": 38.24084448029149, "lng": -85.76348081970849}, "southwest": {"lat": 38.2381465197085, "lng": -85.76617878029151}}}, "place_id": "ChIJJUtGIlUNaYgRTWu9_fGEOsU", "types": ["establishment", "point_of_interest", "university"]}]}, "629287": {"AfN": "simon bolivar university", "Location": [{"address_components": [{"long_name": "Caracas", "short_name": "CCS", "types": ["locality", "political"]}, {"long_name": "Miranda", "short_name": "Miranda", "types": ["administrative_area_level_1", "political"]}, {"long_name": "Venezuela", "short_name": "VE", "types": ["country", "political"]}], "formatted_address": "Sartenejas, Caracas, Miranda, Venezuela", "geometry": {"location": {"lat": 10.408363, "lng": -66.8755735}, "location_type": "GEOMETRIC_CENTER", "viewport": {"northeast": {"lat": 10.4097119802915, "lng": -66.87422451970849}, "southwest": {"lat": 10.4070140197085, "lng": -66.87692248029151}}}, "place_id": "ChIJb5--tfX2KowRrnHwIcdIqdQ", "types": ["establishment", "point_of_interest", "university"]}]}, "18014758": {"AfN": "simon fraser university", "Location": [{"address_components": [{"long_name": "8888", "short_name": "8888", "types": ["street_number"]}, {"long_name": "University Dr", "short_name": "University Dr", "types": ["route"]}, {"long_name": "Burnaby", "short_name": "Burnaby", "types": ["locality", "political"]}, {"long_name": "Greater Vancouver", "short_name": "Greater Vancouver", "types": ["administrative_area_level_2", "political"]}, {"long_name": "British Columbia", "short_name": "BC", "types": ["administrative_area_level_1", "political"]}, {"long_name": "Canada", "short_name": "CA", "types": ["country", "political"]}, {"long_name": "V5A 1S6", "short_name": "V5A 1S6", "types": ["postal_code"]}], "formatted_address": "8888 University Dr, Burnaby, BC V5A 1S6, Canada", "geometry": {"location": {"lat": 49.2780937, "lng": -122.9198833}, "location_type": "ROOFTOP", "viewport": {"northeast": {"lat": 49.2794426802915, "lng": -122.9185343197085}, "southwest": {"lat": 49.2767447197085, "lng": -122.9212322802915}}}, "place_id": "ChIJJyJ6hcB5hlQRW7Uwbj9sUAA", "types": ["establishment", "point_of_interest", "university"]}]}, "113311689": {"AfN": "simplot", "Location": [{"address_components": [{"long_name": "e", "short_name": "e", "types": ["subpremise"]}, {"long_name": "5201", "short_name": "5201", "types": ["street_number"]}, {"long_name": "West Reno Avenue", "short_name": "W Reno Ave", "types": ["route"]}, {"long_name": "Central Oklahoma City", "short_name": "Central Oklahoma City", "types": ["neighborhood", "political"]}, {"long_name": "Oklahoma City", "short_name": "Oklahoma City", "types": ["locality", "political"]}, {"long_name": "Oklahoma County", "short_name": "Oklahoma County", "types": ["administrative_area_level_2", "political"]}, {"long_name": "Oklahoma", "short_name": "OK", "types": ["administrative_area_level_1", "political"]}, {"long_name": "United States", "short_name": "US", "types": ["country", "political"]}, {"long_name": "73127", "short_name": "73127", "types": ["postal_code"]}], "formatted_address": "5201 W Reno Ave e, Oklahoma City, OK 73127, USA", "geometry": {"location": {"lat": 35.4658986, "lng": -97.6105659}, "location_type": "ROOFTOP", "viewport": {"northeast": {"lat": 35.46724758029149, "lng": -97.60921691970849}, "southwest": {"lat": 35.4645496197085, "lng": -97.61191488029151}}}, "place_id": "ChIJzxYfzSkQsocRml8zKbice0M", "types": ["establishment", "point_of_interest"]}]}, "175562750": {"AfN": "simpson gumpertz heger inc", "Location": [{"address_components": [{"long_name": "#1625", "short_name": "#1625", "types": ["subpremise"]}, {"long_name": "2050", "short_name": "2050", "types": ["street_number"]}, {"long_name": "West Sam Houston Parkway South", "short_name": "W Sam Houston Pkwy S", "types": ["route"]}, {"long_name": "Briarforest", "short_name": "Briarforest", "types": ["neighborhood", "political"]}, {"long_name": "Houston", "short_name": "Houston", "types": ["locality", "political"]}, {"long_name": "Harris County", "short_name": "Harris County", "types": ["administrative_area_level_2", "political"]}, {"long_name": "Texas", "short_name": "TX", "types": ["administrative_area_level_1", "political"]}, {"long_name": "United States", "short_name": "US", "types": ["country", "political"]}, {"long_name": "77042", "short_name": "77042", "types": ["postal_code"]}], "formatted_address": "2050 W Sam Houston Pkwy S #1625, Houston, TX 77042, USA", "geometry": {"location": {"lat": 29.7455004, "lng": -95.558984}, "location_type": "ROOFTOP", "viewport": {"northeast": {"lat": 29.7468493802915, "lng": -95.5576350197085}, "southwest": {"lat": 29.7441514197085, "lng": -95.5603329802915}}}, "place_id": "ChIJm-h3qEvDQIYRYCn42YfbjQ8", "types": ["establishment", "point_of_interest"]}]}, "1306682180": {"AfN": "singapore airlines", "Location": [{"address_components": [{"long_name": "3870", "short_name": "3870", "types": ["street_number"]}, {"long_name": "North Terminal Road", "short_name": "N Terminal Rd", "types": ["route"]}, {"long_name": "Houston", "short_name": "Houston", "types": ["locality", "political"]}, {"long_name": "Harris County", "short_name": "Harris County", "types": ["administrative_area_level_2", "political"]}, {"long_name": "Texas", "short_name": "TX", "types": ["administrative_area_level_1", "political"]}, {"long_name": "United States", "short_name": "US", "types": ["country", "political"]}, {"long_name": "77032", "short_name": "77032", "types": ["postal_code"]}], "formatted_address": "3870 N Terminal Rd, Houston, TX 77032, USA", "geometry": {"location": {"lat": 29.9877532, "lng": -95.33486239999999}, "location_type": "ROOFTOP", "viewport": {"northeast": {"lat": 29.9891021802915, "lng": -95.33351341970848}, "southwest": {"lat": 29.9864042197085, "lng": -95.3362113802915}}}, "place_id": "ChIJgwveKkK0QIYRGOwyZvV8RqA", "types": ["establishment", "point_of_interest"]}]}, "2251586001": {"AfN": "singapore general hospital", "Location": [{"address_components": [{"long_name": "169608", "short_name": "169608", "types": ["postal_code"]}, {"long_name": "Singapore", "short_name": "SG", "types": ["country", "political"]}], "formatted_address": "Outram Road, Singapore 169608", "geometry": {"location": {"lat": 1.2795017, "lng": 103.8346187}, "location_type": "GEOMETRIC_CENTER", "viewport": {"northeast": {"lat": 1.280850680291502, "lng": 103.8359676802915}, "southwest": {"lat": 1.278152719708498, "lng": 103.8332697197085}}}, "place_id": "ChIJ1WxMlW8Z2jERlkpUYbEJYFw", "types": ["establishment", "hospital", "point_of_interest"]}]}, "79891267": {"AfN": "singapore management university", "Location": [{"address_components": [{"long_name": "81", "short_name": "81", "types": ["street_number"]}, {"long_name": "Victoria Street", "short_name": "Victoria St", "types": ["route"]}, {"long_name": "Museum", "short_name": "Museum", "types": ["neighborhood", "political"]}, {"long_name": "Singapore", "short_name": "Singapore", "types": ["locality", "political"]}, {"long_name": "Singapore", "short_name": "SG", "types": ["country", "political"]}, {"long_name": "188065", "short_name": "188065", "types": ["postal_code"]}], "formatted_address": "81 Victoria St, Singapore 188065", "geometry": {"location": {"lat": 1.2962727, "lng": 103.8501578}, "location_type": "ROOFTOP", "viewport": {"northeast": {"lat": 1.297621680291502, "lng": 103.8515067802915}, "southwest": {"lat": 1.294923719708498, "lng": 103.8488088197085}}}, "place_id": "ChIJGddBg6MZ2jERACsxW7Ovm_4", "types": ["establishment", "point_of_interest", "university"]}]}, "68236693": {"AfN": "singapore mit alliance", "Location": [{"address_components": [{"long_name": "4", "short_name": "4", "types": ["street_number"]}, {"long_name": "Engineering Drive 3", "short_name": "Engineering Drive 3", "types": ["route"]}, {"long_name": "Queenstown", "short_name": "Queenstown", "types": ["neighborhood", "political"]}, {"long_name": "Singapore", "short_name": "Singapore", "types": ["locality", "political"]}, {"long_name": "Singapore", "short_name": "SG", "types": ["country", "political"]}, {"long_name": "117583", "short_name": "117583", "types": ["postal_code"]}], "formatted_address": "4 Engineering Drive 3, Singapore 117583", "geometry": {"location": {"lat": 1.298575, "lng": 103.772203}, "location_type": "ROOFTOP", "viewport": {"northeast": {"lat": 1.299923980291502, "lng": 103.7735519802915}, "southwest": {"lat": 1.297226019708498, "lng": 103.7708540197085}}}, "place_id": "ChIJUbSG1Pka2jER5tKOnfBMNLE", "types": ["establishment", "point_of_interest", "university"]}]}, "152815399": {"AfN": "singapore university of technology and design", "Location": [{"address_components": [{"long_name": "8", "short_name": "8", "types": ["street_number"]}, {"long_name": "Somapah Road", "short_name": "Somapah Rd", "types": ["route"]}, {"long_name": "Tampines", "short_name": "Tampines", "types": ["neighborhood", "political"]}, {"long_name": "Singapore", "short_name": "Singapore", "types": ["locality", "political"]}, {"long_name": "Singapore", "short_name": "SG", "types": ["country", "political"]}, {"long_name": "487372", "short_name": "487372", "types": ["postal_code"]}], "formatted_address": "8 Somapah Rd, Singapore 487372", "geometry": {"location": {"lat": 1.3412873, "lng": 103.9637891}, "location_type": "ROOFTOP", "viewport": {"northeast": {"lat": 1.342636280291502, "lng": 103.9651380802915}, "southwest": {"lat": 1.339938319708498, "lng": 103.9624401197085}}}, "place_id": "ChIJ4-kmzdg82jERbE6ZRhhr5X0", "types": ["establishment", "point_of_interest", "university"]}]}, "106994412": {"AfN": "sinopec", "Location": [{"address_components": [{"long_name": "# 1640", "short_name": "# 1640", "types": ["subpremise"]}, {"long_name": "3050", "short_name": "3050", "types": ["street_number"]}, {"long_name": "Post Oak Boulevard", "short_name": "Post Oak Blvd", "types": ["route"]}, {"long_name": "Southwest Houston", "short_name": "Southwest Houston", "types": ["neighborhood", "political"]}, {"long_name": "Houston", "short_name": "Houston", "types": ["locality", "political"]}, {"long_name": "Harris County", "short_name": "Harris County", "types": ["administrative_area_level_2", "political"]}, {"long_name": "Texas", "short_name": "TX", "types": ["administrative_area_level_1", "political"]}, {"long_name": "United States", "short_name": "US", "types": ["country", "political"]}, {"long_name": "77056", "short_name": "77056", "types": ["postal_code"]}, {"long_name": "6537", "short_name": "6537", "types": ["postal_code_suffix"]}], "formatted_address": "3050 Post Oak Blvd # 1640, Houston, TX 77056, USA", "geometry": {"location": {"lat": 29.7338536, "lng": -95.4628465}, "location_type": "ROOFTOP", "viewport": {"northeast": {"lat": 29.7352025802915, "lng": -95.46149751970849}, "southwest": {"lat": 29.7325046197085, "lng": -95.46419548029151}}}, "place_id": "ChIJS5y97nHBQIYRbb2dw19hKiM", "types": ["establishment", "point_of_interest"]}]}, "173888879": {"AfN": "sintef", "Location": [{"address_components": [{"long_name": "San Rafael", "short_name": "San Rafael", "types": ["locality", "political"]}, {"long_name": "California", "short_name": "CA", "types": ["administrative_area_level_1", "political"]}, {"long_name": "United States", "short_name": "US", "types": ["country", "political"]}, {"long_name": "94901", "short_name": "94901", "types": ["postal_code"]}], "formatted_address": "914 Mission Avenue, San Rafael, CA 94901, San Rafael, CA 94901, United States", "geometry": {"location": {"lat": 37.975039, "lng": -122.5257165}, "location_type": "GEOMETRIC_CENTER", "viewport": {"northeast": {"lat": 37.97638798029149, "lng": -122.5243675197085}, "southwest": {"lat": 37.97369001970849, "lng": -122.5270654802915}}}, "place_id": "ChIJ7UsQfvCZhYARoSbX_DA5ONQ", "types": ["doctor", "establishment", "health", "point_of_interest"]}]}, "181316896": {"AfN": "sir george williams university", "Location": [{"address_components": [{"long_name": "350", "short_name": "350", "types": ["street_number"]}, {"long_name": "Constance Boulevard", "short_name": "Constance Blvd", "types": ["route"]}, {"long_name": "Williams Bay", "short_name": "Williams Bay", "types": ["locality", "political"]}, {"long_name": "Walworth County", "short_name": "Walworth County", "types": ["administrative_area_level_2", "political"]}, {"long_name": "Wisconsin", "short_name": "WI", "types": ["administrative_area_level_1", "political"]}, {"long_name": "United States", "short_name": "US", "types": ["country", "political"]}, {"long_name": "53191", "short_name": "53191", "types": ["postal_code"]}, {"long_name": "9547", "short_name": "9547", "types": ["postal_code_suffix"]}], "formatted_address": "350 Constance Blvd, Williams Bay, WI 53191, USA", "geometry": {"location": {"lat": 42.5670436, "lng": -88.5583432}, "location_type": "ROOFTOP", "viewport": {"northeast": {"lat": 42.56839258029149, "lng": -88.55699421970849}, "southwest": {"lat": 42.5656946197085, "lng": -88.5596921802915}}}, "place_id": "ChIJQysEdHb2BYgRdcGbFZtoip0", "types": ["establishment", "point_of_interest", "university"]}]}, "23726118": {"AfN": "sirim", "Location": [{"address_components": [{"long_name": "Sirim Berhad", "short_name": "Sirim Berhad", "types": ["premise"]}, {"long_name": "Lot 80", "short_name": "Lot 80", "types": ["street_number"]}, {"long_name": "Jalan Bako", "short_name": "Jalan Bako", "types": ["route"]}, {"long_name": "Taman Perindustrian Demak Laut", "short_name": "Taman Perindustrian Demak Laut", "types": ["political", "sublocality", "sublocality_level_1"]}, {"long_name": "Kuching", "short_name": "Kuching", "types": ["locality", "political"]}, {"long_name": "Sarawak", "short_name": "Sarawak", "types": ["administrative_area_level_1", "political"]}, {"long_name": "Malaysia", "short_name": "MY", "types": ["country", "political"]}, {"long_name": "93764", "short_name": "93764", "types": ["postal_code"]}], "formatted_address": "Sirim Berhad, Lot 80, Jalan Bako, Taman Perindustrian Demak Laut, 93764 Kuching, Sarawak, Malaysia", "geometry": {"location": {"lat": 1.5849989, "lng": 110.411964}, "location_type": "ROOFTOP", "viewport": {"northeast": {"lat": 1.586347880291502, "lng": 110.4133129802915}, "southwest": {"lat": 1.583649919708498, "lng": 110.4106150197085}}}, "place_id": "ChIJR3cyjrmo-zERWo2cP7oOAsc", "types": ["establishment", "point_of_interest"]}, {"address_components": [{"long_name": "3", "short_name": "3", "types": ["street_number"]}, {"long_name": "Nirim Street", "short_name": "Nirim St", "types": ["route"]}, {"long_name": "Tel Aviv-Yafo", "short_name": "Tel Aviv-Yafo", "types": ["locality", "political"]}, {"long_name": "Tel Aviv District", "short_name": "Tel Aviv District", "types": ["administrative_area_level_1", "political"]}, {"long_name": "Israel", "short_name": "IL", "types": ["country", "political"]}], "formatted_address": "Nirim St 3, Tel Aviv-Yafo, Israel", "geometry": {"location": {"lat": 32.0624699, "lng": 34.790501}, "location_type": "ROOFTOP", "viewport": {"northeast": {"lat": 32.06381888029149, "lng": 34.7918499802915}, "southwest": {"lat": 32.06112091970849, "lng": 34.7891520197085}}}, "place_id": "ChIJt2wH_nNLHRURdKSOIUEnJ6k", "types": ["establishment", "food", "point_of_interest", "restaurant"]}]}, "51304674": {"AfN": "sirindhorn international institute of technology", "Location": [{"address_components": [{"long_name": "Phahonyothin Road", "short_name": "Phahonyothin Rd", "types": ["route"]}, {"long_name": "Tambon Khlong Nung", "short_name": "Tambon Khlong Nung", "types": ["locality", "political"]}, {"long_name": "Amphoe Khlong Luang", "short_name": "\u0e2d. \u0e04\u0e25\u0e2d\u0e07\u0e2b\u0e25\u0e27\u0e07", "types": ["administrative_area_level_2", "political"]}, {"long_name": "Chang Wat Pathum Thani", "short_name": "\u0e08.\u0e1b\u0e17\u0e38\u0e21\u0e18\u0e32\u0e19\u0e35", "types": ["administrative_area_level_1", "political"]}, {"long_name": "Thailand", "short_name": "TH", "types": ["country", "political"]}, {"long_name": "12120", "short_name": "12120", "types": ["postal_code"]}], "formatted_address": "Phahonyothin Rd, Tambon Khlong Nung, Amphoe Khlong Luang, Chang Wat Pathum Thani 12120, Thailand", "geometry": {"location": {"lat": 14.068891, "lng": 100.6074577}, "location_type": "GEOMETRIC_CENTER", "viewport": {"northeast": {"lat": 14.0702399802915, "lng": 100.6088066802915}, "southwest": {"lat": 14.0675420197085, "lng": 100.6061087197085}}}, "place_id": "ChIJ81jk3Yp_4jARvupSC7RnbFM", "types": ["establishment", "point_of_interest", "university"]}]}, "1332387789": {"AfN": "siriraj hospital", "Location": [{"address_components": [{"long_name": "2", "short_name": "2", "types": ["street_number"]}, {"long_name": "Thanon Wang Lang", "short_name": "Thanon Wang Lang", "types": ["route"]}, {"long_name": "Khwaeng Siriraj", "short_name": "Khwaeng Siriraj", "types": ["political", "sublocality", "sublocality_level_2"]}, {"long_name": "Khet Bangkok Noi", "short_name": "Khet Bangkok Noi", "types": ["political", "sublocality", "sublocality_level_1"]}, {"long_name": "\u0e01\u0e23\u0e38\u0e07\u0e40\u0e17\u0e1e\u0e21\u0e2b\u0e32\u0e19\u0e04\u0e23", "short_name": "\u0e01\u0e23\u0e38\u0e07\u0e40\u0e17\u0e1e\u0e21\u0e2b\u0e32\u0e19\u0e04\u0e23", "types": ["administrative_area_level_1", "political"]}, {"long_name": "Thailand", "short_name": "TH", "types": ["country", "political"]}, {"long_name": "10700", "short_name": "10700", "types": ["postal_code"]}], "formatted_address": "2 Thanon Wang Lang, Khwaeng Siriraj, Khet Bangkok Noi, \u0e01\u0e23\u0e38\u0e07\u0e40\u0e17\u0e1e\u0e21\u0e2b\u0e32\u0e19\u0e04\u0e23 10700, Thailand", "geometry": {"location": {"lat": 13.7566689, "lng": 100.4851427}, "location_type": "ROOFTOP", "viewport": {"northeast": {"lat": 13.7580178802915, "lng": 100.4864916802915}, "southwest": {"lat": 13.7553199197085, "lng": 100.4837937197085}}}, "place_id": "ChIJGVWx4p-Z4jAREEOd1Xc7g3k", "types": ["establishment", "hospital", "point_of_interest"]}]}, "901148624": {"AfN": "sit graduate institute", "Location": [{"address_components": [{"long_name": "1", "short_name": "1", "types": ["street_number"]}, {"long_name": "Kipling Road", "short_name": "Kipling Rd", "types": ["route"]}, {"long_name": "Brattleboro", "short_name": "Brattleboro", "types": ["locality", "political"]}, {"long_name": "Brattleboro", "short_name": "Brattleboro", "types": ["administrative_area_level_3", "political"]}, {"long_name": "Windham County", "short_name": "Windham County", "types": ["administrative_area_level_2", "political"]}, {"long_name": "Vermont", "short_name": "VT", "types": ["administrative_area_level_1", "political"]}, {"long_name": "United States", "short_name": "US", "types": ["country", "political"]}, {"long_name": "05301", "short_name": "05301", "types": ["postal_code"]}], "formatted_address": "1 Kipling Rd, Brattleboro, VT 05301, USA", "geometry": {"location": {"lat": 42.8860292, "lng": -72.56592049999999}, "location_type": "ROOFTOP", "viewport": {"northeast": {"lat": 42.8873781802915, "lng": -72.56457151970848}, "southwest": {"lat": 42.8846802197085, "lng": -72.5672694802915}}}, "place_id": "ChIJA9ONCd8a4YkRMRxmDnbtm5s", "types": ["establishment", "point_of_interest", "university"]}]}, "134353371": {"AfN": "sk group", "Location": [{"address_components": [{"long_name": "238", "short_name": "238", "types": ["street_number"]}, {"long_name": "Queen Street East", "short_name": "Queen St E", "types": ["route"]}, {"long_name": "Sault Ste. Marie", "short_name": "Sault Ste. Marie", "types": ["locality", "political"]}, {"long_name": "Algoma District", "short_name": "Algoma District", "types": ["administrative_area_level_2", "political"]}, {"long_name": "Ontario", "short_name": "ON", "types": ["administrative_area_level_1", "political"]}, {"long_name": "Canada", "short_name": "CA", "types": ["country", "political"]}, {"long_name": "P6A 1Y7", "short_name": "P6A 1Y7", "types": ["postal_code"]}], "formatted_address": "238 Queen St E, Sault Ste. Marie, ON P6A 1Y7, Canada", "geometry": {"location": {"lat": 46.514558, "lng": -84.33678499999999}, "location_type": "ROOFTOP", "viewport": {"northeast": {"lat": 46.5159069802915, "lng": -84.33543601970848}, "southwest": {"lat": 46.5132090197085, "lng": -84.3381339802915}}}, "place_id": "ChIJ_fdhQ8Q5Nk0R5ChsB0joOas", "types": ["establishment", "point_of_interest", "store"]}]}, "181418319": {"AfN": "skema business school", "Location": [{"address_components": [{"long_name": "920", "short_name": "920", "types": ["street_number"]}, {"long_name": "Main Campus Drive", "short_name": "Main Campus Dr", "types": ["route"]}, {"long_name": "Southwest Raleigh", "short_name": "Southwest Raleigh", "types": ["neighborhood", "political"]}, {"long_name": "Raleigh", "short_name": "Raleigh", "types": ["locality", "political"]}, {"long_name": "Raleigh", "short_name": "Raleigh", "types": ["administrative_area_level_3", "political"]}, {"long_name": "Wake County", "short_name": "Wake County", "types": ["administrative_area_level_2", "political"]}, {"long_name": "North Carolina", "short_name": "NC", "types": ["administrative_area_level_1", "political"]}, {"long_name": "United States", "short_name": "US", "types": ["country", "political"]}, {"long_name": "27606", "short_name": "27606", "types": ["postal_code"]}], "formatted_address": "920 Main Campus Dr, Raleigh, NC 27606, USA", "geometry": {"location": {"lat": 35.7727767, "lng": -78.6777986}, "location_type": "ROOFTOP", "viewport": {"northeast": {"lat": 35.7741256802915, "lng": -78.67644961970849}, "southwest": {"lat": 35.77142771970851, "lng": -78.6791475802915}}}, "place_id": "ChIJ2YI1u5_1rIkRFQa1BTV6jMk", "types": ["establishment", "point_of_interest", "university"]}]}, "112643650": {"AfN": "skf", "Location": [{"address_components": [{"long_name": "900", "short_name": "900", "types": ["street_number"]}, {"long_name": "North State Street", "short_name": "N State St", "types": ["route"]}, {"long_name": "Elgin", "short_name": "Elgin", "types": ["locality", "political"]}, {"long_name": "Elgin Township", "short_name": "Elgin Township", "types": ["administrative_area_level_3", "political"]}, {"long_name": "Kane County", "short_name": "Kane County", "types": ["administrative_area_level_2", "political"]}, {"long_name": "Illinois", "short_name": "IL", "types": ["administrative_area_level_1", "political"]}, {"long_name": "United States", "short_name": "US", "types": ["country", "political"]}, {"long_name": "60123", "short_name": "60123", "types": ["postal_code"]}, {"long_name": "2147", "short_name": "2147", "types": ["postal_code_suffix"]}], "formatted_address": "900 N State St, Elgin, IL 60123, USA", "geometry": {"location": {"lat": 42.05566899999999, "lng": -88.298858}, "location_type": "ROOFTOP", "viewport": {"northeast": {"lat": 42.0570179802915, "lng": -88.29750901970849}, "southwest": {"lat": 42.0543200197085, "lng": -88.30020698029149}}}, "place_id": "ChIJm3KJWG8FD4gRAH_pQeLKfZ8", "types": ["establishment", "point_of_interest"]}]}, "122690471": {"AfN": "skidaway institute of oceanography", "Location": [{"address_components": [{"long_name": "10", "short_name": "10", "types": ["street_number"]}, {"long_name": "Ocean Science Circle", "short_name": "Ocean Science Cir", "types": ["route"]}, {"long_name": "Savannah", "short_name": "Savannah", "types": ["locality", "political"]}, {"long_name": "Chatham County", "short_name": "Chatham County", "types": ["administrative_area_level_2", "political"]}, {"long_name": "Georgia", "short_name": "GA", "types": ["administrative_area_level_1", "political"]}, {"long_name": "United States", "short_name": "US", "types": ["country", "political"]}, {"long_name": "31411", "short_name": "31411", "types": ["postal_code"]}, {"long_name": "1011", "short_name": "1011", "types": ["postal_code_suffix"]}], "formatted_address": "10 Ocean Science Cir, Savannah, GA 31411, USA", "geometry": {"location": {"lat": 31.9883198, "lng": -81.0216773}, "location_type": "ROOFTOP", "viewport": {"northeast": {"lat": 31.9896687802915, "lng": -81.02032831970848}, "southwest": {"lat": 31.9869708197085, "lng": -81.0230262802915}}}, "place_id": "ChIJL_sioAZ3-4gRfGuKbXy4swE", "types": ["establishment", "point_of_interest"]}]}, "21104390": {"AfN": "skidmore college", "Location": [{"address_components": [{"long_name": "815", "short_name": "815", "types": ["street_number"]}, {"long_name": "North Broadway", "short_name": "N Broadway", "types": ["route"]}, {"long_name": "Saratoga Springs", "short_name": "Saratoga Springs", "types": ["locality", "political"]}, {"long_name": "Saratoga County", "short_name": "Saratoga County", "types": ["administrative_area_level_2", "political"]}, {"long_name": "New York", "short_name": "NY", "types": ["administrative_area_level_1", "political"]}, {"long_name": "United States", "short_name": "US", "types": ["country", "political"]}, {"long_name": "12866", "short_name": "12866", "types": ["postal_code"]}], "formatted_address": "815 N Broadway, Saratoga Springs, NY 12866, USA", "geometry": {"location": {"lat": 43.0972759, "lng": -73.7841811}, "location_type": "ROOFTOP", "viewport": {"northeast": {"lat": 43.0986248802915, "lng": -73.78283211970849}, "southwest": {"lat": 43.0959269197085, "lng": -73.7855300802915}}}, "place_id": "ChIJYZOZdXA33okRuVQF7kjjRK0", "types": ["establishment", "point_of_interest", "university"]}]}, "125989756": {"AfN": "skolkovo institute of science and technology", "Location": [{"address_components": [{"long_name": "3", "short_name": "3", "types": ["street_number"]}, {"long_name": "\u0443\u043b\u0438\u0446\u0430 \u041d\u043e\u0431\u0435\u043b\u044f", "short_name": "\u0443\u043b\u0438\u0446\u0430 \u041d\u043e\u0431\u0435\u043b\u044f", "types": ["route"]}, {"long_name": "Moscow", "short_name": "Moscow", "types": ["locality", "political"]}, {"long_name": "Odintsovskiy rayon", "short_name": "Odintsovskiy rayon", "types": ["administrative_area_level_2", "political"]}, {"long_name": "Moskovskaya oblast'", "short_name": "\u041c\u041e", "types": ["administrative_area_level_1", "political"]}, {"long_name": "Russia", "short_name": "RU", "types": ["country", "political"]}, {"long_name": "143026", "short_name": "143026", "types": ["postal_code"]}], "formatted_address": "\u0443\u043b\u0438\u0446\u0430 \u041d\u043e\u0431\u0435\u043b\u044f, 3, Moscow, Moskovskaya oblast', Russia, 143026", "geometry": {"location": {"lat": 55.69904589999999, "lng": 37.3595933}, "location_type": "ROOFTOP", "viewport": {"northeast": {"lat": 55.7003948802915, "lng": 37.3609422802915}, "southwest": {"lat": 55.6976969197085, "lng": 37.3582443197085}}}, "place_id": "ChIJNSl2djdOtUYRhlcdd_4E6jw", "types": ["establishment", "point_of_interest"]}]}, "169494899": {"AfN": "slippery rock university of pennsylvania", "Location": [{"address_components": [{"long_name": "1", "short_name": "1", "types": ["street_number"]}, {"long_name": "Morrow Way", "short_name": "Morrow Way", "types": ["route"]}, {"long_name": "Slippery Rock", "short_name": "Slippery Rock", "types": ["locality", "political"]}, {"long_name": "Slippery Rock Township", "short_name": "Slippery Rock Township", "types": ["administrative_area_level_3", "political"]}, {"long_name": "Butler County", "short_name": "Butler County", "types": ["administrative_area_level_2", "political"]}, {"long_name": "Pennsylvania", "short_name": "PA", "types": ["administrative_area_level_1", "political"]}, {"long_name": "United States", "short_name": "US", "types": ["country", "political"]}, {"long_name": "16057", "short_name": "16057", "types": ["postal_code"]}, {"long_name": "1314", "short_name": "1314", "types": ["postal_code_suffix"]}], "formatted_address": "1 Morrow Way, Slippery Rock, PA 16057, USA", "geometry": {"location": {"lat": 41.06302489999999, "lng": -80.0411691}, "location_type": "ROOFTOP", "viewport": {"northeast": {"lat": 41.06437388029149, "lng": -80.03982011970851}, "southwest": {"lat": 41.0616759197085, "lng": -80.04251808029152}}}, "place_id": "ChIJLS1ElfF2M4gRZmZLN-uEqGE", "types": ["establishment", "point_of_interest", "university"]}]}, "207624831": {"AfN": "slovak academy of sciences", "Location": [{"address_components": [{"long_name": "Slovakia", "short_name": "SK", "types": ["country", "political"]}], "formatted_address": "Slovakia", "geometry": {"bounds": {"northeast": {"lat": 49.613805, "lng": 22.5658602}, "southwest": {"lat": 47.731159, "lng": 16.8331821}}, "location": {"lat": 48.669026, "lng": 19.699024}, "location_type": "APPROXIMATE", "viewport": {"northeast": {"lat": 49.613805, "lng": 22.5658602}, "southwest": {"lat": 47.731159, "lng": 16.8331821}}}, "partial_match": true, "place_id": "ChIJf8Z8rrlgFEcRfTpysWdha80", "types": ["country", "political"]}]}, "166775468": {"AfN": "slovak medical university", "Location": [{"address_components": [{"long_name": "Bratislava", "short_name": "Bratislava", "types": ["political", "sublocality", "sublocality_level_1"]}, {"long_name": "Bratislava III", "short_name": "Bratislava III", "types": ["administrative_area_level_2", "political"]}, {"long_name": "Bratislavsk\u00fd kraj", "short_name": "Bratislavsk\u00fd kraj", "types": ["administrative_area_level_1", "political"]}, {"long_name": "Slovakia", "short_name": "SK", "types": ["country", "political"]}, {"long_name": "831 01", "short_name": "831 01", "types": ["postal_code"]}], "formatted_address": "831 01 Bratislava, Slovakia", "geometry": {"location": {"lat": 48.1682796, "lng": 17.0884191}, "location_type": "GEOMETRIC_CENTER", "viewport": {"northeast": {"lat": 48.1696285802915, "lng": 17.0897680802915}, "southwest": {"lat": 48.1669306197085, "lng": 17.0870701197085}}}, "place_id": "ChIJ0-hfbwmMbEcRnOBu963vqyo", "types": ["establishment", "point_of_interest", "university"]}]}, "110757952": {"AfN": "slovak university of technology in bratislava", "Location": [{"address_components": [{"long_name": "5", "short_name": "5", "types": ["street_number"]}, {"long_name": "Vazovova", "short_name": "Vazovova", "types": ["route"]}, {"long_name": "Bratislava", "short_name": "Bratislava", "types": ["locality", "political"]}, {"long_name": "Slovakia", "short_name": "SK", "types": ["country", "political"]}, {"long_name": "811 07", "short_name": "811 07", "types": ["postal_code"]}], "formatted_address": "public@stuba.sk, Vazovova 5, 811 07 Bratislava, Slovakia", "geometry": {"location": {"lat": 48.1547031, "lng": 17.1175266}, "location_type": "ROOFTOP", "viewport": {"northeast": {"lat": 48.1560520802915, "lng": 17.1188755802915}, "southwest": {"lat": 48.1533541197085, "lng": 17.11617761970849}}}, "place_id": "ChIJTZ6ufEWJbEcRpS9oGm0qqMg", "types": ["establishment", "point_of_interest", "university"]}]}, "185604430": {"AfN": "smart technologies", "Location": [{"address_components": [{"long_name": "# 1115", "short_name": "# 1115", "types": ["subpremise"]}, {"long_name": "200", "short_name": "200", "types": ["street_number"]}, {"long_name": "Lexington Avenue", "short_name": "Lexington Ave", "types": ["route"]}, {"long_name": "Manhattan", "short_name": "Manhattan", "types": ["political", "sublocality", "sublocality_level_1"]}, {"long_name": "New York", "short_name": "New York", "types": ["locality", "political"]}, {"long_name": "New York County", "short_name": "New York County", "types": ["administrative_area_level_2", "political"]}, {"long_name": "New York", "short_name": "NY", "types": ["administrative_area_level_1", "political"]}, {"long_name": "United States", "short_name": "US", "types": ["country", "political"]}, {"long_name": "10016", "short_name": "10016", "types": ["postal_code"]}], "formatted_address": "200 Lexington Ave # 1115, New York, NY 10016, USA", "geometry": {"location": {"lat": 40.7455705, "lng": -73.9807676}, "location_type": "ROOFTOP", "viewport": {"northeast": {"lat": 40.7469194802915, "lng": -73.9794186197085}, "southwest": {"lat": 40.7442215197085, "lng": -73.9821165802915}}}, "place_id": "ChIJ_WskzgdZwokRywVICgBMe2I", "types": ["establishment", "point_of_interest"]}]}, "202524275": {"AfN": "smith college", "Location": [{"address_components": [{"long_name": "Northampton", "short_name": "Northampton", "types": ["locality", "political"]}, {"long_name": "Hampshire County", "short_name": "Hampshire County", "types": ["administrative_area_level_2", "political"]}, {"long_name": "Massachusetts", "short_name": "MA", "types": ["administrative_area_level_1", "political"]}, {"long_name": "United States", "short_name": "US", "types": ["country", "political"]}, {"long_name": "01063", "short_name": "01063", "types": ["postal_code"]}], "formatted_address": "Northampton, MA 01063, USA", "geometry": {"location": {"lat": 42.31809570000001, "lng": -72.6372341}, "location_type": "GEOMETRIC_CENTER", "viewport": {"northeast": {"lat": 42.31944468029151, "lng": -72.63588511970849}, "southwest": {"lat": 42.31674671970851, "lng": -72.63858308029151}}}, "place_id": "ChIJiVouamjX5okRhESdeEVEFh4", "types": ["establishment", "point_of_interest", "university"]}, {"address_components": [{"long_name": "10", "short_name": "10", "types": ["street_number"]}, {"long_name": "Bryan Avenue", "short_name": "Bryan Ave", "types": ["route"]}, {"long_name": "Easthampton", "short_name": "Easthampton", "types": ["locality", "political"]}, {"long_name": "Hampshire County", "short_name": "Hampshire County", "types": ["administrative_area_level_2", "political"]}, {"long_name": "Massachusetts", "short_name": "MA", "types": ["administrative_area_level_1", "political"]}, {"long_name": "United States", "short_name": "US", "types": ["country", "political"]}, {"long_name": "01027", "short_name": "01027", "types": ["postal_code"]}, {"long_name": "2223", "short_name": "2223", "types": ["postal_code_suffix"]}], "formatted_address": "10 Bryan Ave, Easthampton, MA 01027, USA", "geometry": {"location": {"lat": 42.2596312, "lng": -72.6773111}, "location_type": "ROOFTOP", "viewport": {"northeast": {"lat": 42.2609801802915, "lng": -72.67596211970849}, "southwest": {"lat": 42.25828221970851, "lng": -72.67866008029151}}}, "place_id": "ChIJu8Kj3-7Y5okR9vGELmxwoLg", "types": ["establishment", "point_of_interest", "university"]}]}, "61628605": {"AfN": "smith kettlewell institute", "Location": [{"address_components": [{"long_name": "2318", "short_name": "2318", "types": ["street_number"]}, {"long_name": "Fillmore Street", "short_name": "Fillmore St", "types": ["route"]}, {"long_name": "Pacific Heights", "short_name": "Pacific Heights", "types": ["neighborhood", "political"]}, {"long_name": "San Francisco", "short_name": "SF", "types": ["locality", "political"]}, {"long_name": "San Francisco County", "short_name": "San Francisco County", "types": ["administrative_area_level_2", "political"]}, {"long_name": "California", "short_name": "CA", "types": ["administrative_area_level_1", "political"]}, {"long_name": "United States", "short_name": "US", "types": ["country", "political"]}, {"long_name": "94115", "short_name": "94115", "types": ["postal_code"]}, {"long_name": "1813", "short_name": "1813", "types": ["postal_code_suffix"]}], "formatted_address": "2318 Fillmore St, San Francisco, CA 94115, USA", "geometry": {"location": {"lat": 37.7912559, "lng": -122.4341831}, "location_type": "ROOFTOP", "viewport": {"northeast": {"lat": 37.7926048802915, "lng": -122.4328341197085}, "southwest": {"lat": 37.7899069197085, "lng": -122.4355320802915}}}, "place_id": "ChIJJ5FOCsaAhYARlnpmnOp6V80", "types": ["establishment", "health", "point_of_interest"]}]}, "185892350": {"AfN": "smith kline french", "Location": [{"address_components": [{"long_name": "2149", "short_name": "2149", "types": ["street_number"]}, {"long_name": "Harbor Avenue", "short_name": "Harbor Ave", "types": ["route"]}, {"long_name": "Memphis", "short_name": "Memphis", "types": ["locality", "political"]}, {"long_name": "Shelby County", "short_name": "Shelby County", "types": ["administrative_area_level_2", "political"]}, {"long_name": "Tennessee", "short_name": "TN", "types": ["administrative_area_level_1", "political"]}, {"long_name": "United States", "short_name": "US", "types": ["country", "political"]}, {"long_name": "38113", "short_name": "38113", "types": ["postal_code"]}], "formatted_address": "2149 Harbor Ave, Memphis, TN 38113, USA", "geometry": {"location": {"lat": 35.0903611, "lng": -90.1147733}, "location_type": "ROOFTOP", "viewport": {"northeast": {"lat": 35.09171008029149, "lng": -90.11342431970849}, "southwest": {"lat": 35.08901211970849, "lng": -90.11612228029149}}}, "place_id": "ChIJ7cnq3VN61YcRbgARCXW9bTk", "types": ["establishment", "health", "point_of_interest", "store"]}]}, "164133871": {"AfN": "smith nephew", "Location": [{"address_components": [{"long_name": "1450", "short_name": "1450", "types": ["street_number"]}, {"long_name": "East Brooks Road", "short_name": "E Brooks Rd", "types": ["route"]}, {"long_name": "Whitehaven", "short_name": "Whitehaven", "types": ["neighborhood", "political"]}, {"long_name": "Memphis", "short_name": "Memphis", "types": ["locality", "political"]}, {"long_name": "Shelby County", "short_name": "Shelby County", "types": ["administrative_area_level_2", "political"]}, {"long_name": "Tennessee", "short_name": "TN", "types": ["administrative_area_level_1", "political"]}, {"long_name": "United States", "short_name": "US", "types": ["country", "political"]}, {"long_name": "38116", "short_name": "38116", "types": ["postal_code"]}, {"long_name": "1804", "short_name": "1804", "types": ["postal_code_suffix"]}], "formatted_address": "1450 E Brooks Rd, Memphis, TN 38116, USA", "geometry": {"location": {"lat": 35.0621679, "lng": -90.0152751}, "location_type": "ROOFTOP", "viewport": {"northeast": {"lat": 35.0635168802915, "lng": -90.0139261197085}, "southwest": {"lat": 35.0608189197085, "lng": -90.0166240802915}}}, "place_id": "ChIJabFdlWt91YcRnOEVgoxFqsg", "types": ["establishment", "health", "point_of_interest", "store"]}]}, "13079880": {"AfN": "smith travel research", "Location": [{"address_components": [{"long_name": "735", "short_name": "735", "types": ["street_number"]}, {"long_name": "East Main Street", "short_name": "E Main St", "types": ["route"]}, {"long_name": "Hendersonville", "short_name": "Hendersonville", "types": ["locality", "political"]}, {"long_name": "Sumner County", "short_name": "Sumner County", "types": ["administrative_area_level_2", "political"]}, {"long_name": "Tennessee", "short_name": "TN", "types": ["administrative_area_level_1", "political"]}, {"long_name": "United States", "short_name": "US", "types": ["country", "political"]}, {"long_name": "37075", "short_name": "37075", "types": ["postal_code"]}, {"long_name": "2754", "short_name": "2754", "types": ["postal_code_suffix"]}], "formatted_address": "735 E Main St, Hendersonville, TN 37075, USA", "geometry": {"location": {"lat": 36.3268836, "lng": -86.5591469}, "location_type": "ROOFTOP", "viewport": {"northeast": {"lat": 36.32823258029149, "lng": -86.55779791970849}, "southwest": {"lat": 36.3255346197085, "lng": -86.5604958802915}}}, "place_id": "ChIJ1dQmQ-s4ZIgRSqWf0GqNRuM", "types": ["establishment", "point_of_interest", "travel_agency"]}, {"address_components": [{"long_name": "11001", "short_name": "11001", "types": ["street_number"]}, {"long_name": "West 120th Avenue", "short_name": "W 120th Ave", "types": ["route"]}, {"long_name": "Interlocken", "short_name": "Interlocken", "types": ["neighborhood", "political"]}, {"long_name": "Broomfield", "short_name": "Broomfield", "types": ["locality", "political"]}, {"long_name": "Broomfield County", "short_name": "Broomfield County", "types": ["administrative_area_level_2", "political"]}, {"long_name": "Colorado", "short_name": "CO", "types": ["administrative_area_level_1", "political"]}, {"long_name": "United States", "short_name": "US", "types": ["country", "political"]}, {"long_name": "80021", "short_name": "80021", "types": ["postal_code"]}], "formatted_address": "11001 W 120th Ave, Broomfield, CO 80021, USA", "geometry": {"location": {"lat": 39.9148173, "lng": -105.1206877}, "location_type": "ROOFTOP", "viewport": {"northeast": {"lat": 39.91616628029151, "lng": -105.1193387197085}, "southwest": {"lat": 39.91346831970851, "lng": -105.1220366802915}}}, "place_id": "ChIJ1VlFO-Tta4cRGQHpjODHvXU", "types": ["establishment", "point_of_interest"]}]}, "153167508": {"AfN": "smithsonian astrophysical observatory", "Location": [{"address_components": [{"long_name": "Observatory Building E", "short_name": "Observatory Building E", "types": ["premise"]}, {"long_name": "60", "short_name": "60", "types": ["street_number"]}, {"long_name": "Garden Street", "short_name": "Garden St", "types": ["route"]}, {"long_name": "Neighborhood Nine", "short_name": "Neighborhood Nine", "types": ["neighborhood", "political"]}, {"long_name": "Cambridge", "short_name": "Cambridge", "types": ["locality", "political"]}, {"long_name": "Middlesex County", "short_name": "Middlesex County", "types": ["administrative_area_level_2", "political"]}, {"long_name": "Massachusetts", "short_name": "MA", "types": ["administrative_area_level_1", "political"]}, {"long_name": "United States", "short_name": "US", "types": ["country", "political"]}, {"long_name": "02138", "short_name": "02138", "types": ["postal_code"]}], "formatted_address": "Observatory Building E, 60 Garden St, Cambridge, MA 02138, USA", "geometry": {"location": {"lat": 42.3814329, "lng": -71.1280685}, "location_type": "ROOFTOP", "viewport": {"northeast": {"lat": 42.3827818802915, "lng": -71.12671951970849}, "southwest": {"lat": 42.3800839197085, "lng": -71.12941748029151}}}, "place_id": "ChIJ5ynhxqh344kRPZlRc_uRheQ", "types": ["establishment", "point_of_interest"]}, {"address_components": [{"long_name": "600", "short_name": "600", "types": ["street_number"]}, {"long_name": "Maryland Avenue Southwest", "short_name": "Maryland Ave SW", "types": ["route"]}, {"long_name": "Southwest Washington", "short_name": "Southwest Washington", "types": ["neighborhood", "political"]}, {"long_name": "Washington", "short_name": "Washington", "types": ["locality", "political"]}, {"long_name": "District of Columbia", "short_name": "DC", "types": ["administrative_area_level_1", "political"]}, {"long_name": "United States", "short_name": "US", "types": ["country", "political"]}, {"long_name": "20002", "short_name": "20002", "types": ["postal_code"]}], "formatted_address": "600 Maryland Ave SW, Washington, DC 20002, USA", "geometry": {"location": {"lat": 38.8859942, "lng": -77.0212813}, "location_type": "ROOFTOP", "viewport": {"northeast": {"lat": 38.8873431802915, "lng": -77.0199323197085}, "southwest": {"lat": 38.8846452197085, "lng": -77.02263028029151}}}, "place_id": "ChIJZUSMKDu4t4kRWDMSA8_l8-4", "types": ["establishment", "museum", "point_of_interest"]}]}, "52218309": {"AfN": "smithsonian environmental research center", "Location": [{"address_components": [{"long_name": "647", "short_name": "647", "types": ["street_number"]}, {"long_name": "Contees Wharf Road", "short_name": "Contees Wharf Rd", "types": ["route"]}, {"long_name": "Edgewater", "short_name": "Edgewater", "types": ["locality", "political"]}, {"long_name": "1", "short_name": "1", "types": ["administrative_area_level_3", "political"]}, {"long_name": "Anne Arundel County", "short_name": "Anne Arundel County", "types": ["administrative_area_level_2", "political"]}, {"long_name": "Maryland", "short_name": "MD", "types": ["administrative_area_level_1", "political"]}, {"long_name": "United States", "short_name": "US", "types": ["country", "political"]}, {"long_name": "21037", "short_name": "21037", "types": ["postal_code"]}], "formatted_address": "647 Contees Wharf Rd, Edgewater, MD 21037, USA", "geometry": {"location": {"lat": 38.8869283, "lng": -76.54017089999999}, "location_type": "ROOFTOP", "viewport": {"northeast": {"lat": 38.8882772802915, "lng": -76.53882191970848}, "southwest": {"lat": 38.8855793197085, "lng": -76.54151988029149}}}, "place_id": "ChIJxZXcq6P0t4kR0WdazbSrvj0", "types": ["establishment", "point_of_interest"]}]}, "103187081": {"AfN": "smithsonian institution", "Location": [{"address_components": [{"long_name": "600", "short_name": "600", "types": ["street_number"]}, {"long_name": "Maryland Avenue Southwest", "short_name": "Maryland Ave SW", "types": ["route"]}, {"long_name": "Southwest Washington", "short_name": "Southwest Washington", "types": ["neighborhood", "political"]}, {"long_name": "Washington", "short_name": "Washington", "types": ["locality", "political"]}, {"long_name": "District of Columbia", "short_name": "DC", "types": ["administrative_area_level_1", "political"]}, {"long_name": "United States", "short_name": "US", "types": ["country", "political"]}, {"long_name": "20002", "short_name": "20002", "types": ["postal_code"]}], "formatted_address": "600 Maryland Ave SW, Washington, DC 20002, USA", "geometry": {"location": {"lat": 38.8859942, "lng": -77.0212813}, "location_type": "ROOFTOP", "viewport": {"northeast": {"lat": 38.8873431802915, "lng": -77.0199323197085}, "southwest": {"lat": 38.8846452197085, "lng": -77.02263028029151}}}, "place_id": "ChIJZUSMKDu4t4kRWDMSA8_l8-4", "types": ["establishment", "museum", "point_of_interest"]}]}, "128212801": {"AfN": "smithsonian tropical research institute", "Location": [{"address_components": [{"long_name": "600", "short_name": "600", "types": ["street_number"]}, {"long_name": "Maryland Avenue Southwest", "short_name": "Maryland Ave SW", "types": ["route"]}, {"long_name": "Southwest Washington", "short_name": "Southwest Washington", "types": ["neighborhood", "political"]}, {"long_name": "Washington", "short_name": "Washington", "types": ["locality", "political"]}, {"long_name": "District of Columbia", "short_name": "DC", "types": ["administrative_area_level_1", "political"]}, {"long_name": "United States", "short_name": "US", "types": ["country", "political"]}, {"long_name": "20002", "short_name": "20002", "types": ["postal_code"]}], "formatted_address": "600 Maryland Ave SW, Washington, DC 20002, USA", "geometry": {"location": {"lat": 38.8859942, "lng": -77.0212813}, "location_type": "ROOFTOP", "viewport": {"northeast": {"lat": 38.8873431802915, "lng": -77.0199323197085}, "southwest": {"lat": 38.8846452197085, "lng": -77.02263028029151}}}, "place_id": "ChIJZUSMKDu4t4kRWDMSA8_l8-4", "types": ["establishment", "museum", "point_of_interest"]}, {"address_components": [{"long_name": "647", "short_name": "647", "types": ["street_number"]}, {"long_name": "Contees Wharf Road", "short_name": "Contees Wharf Rd", "types": ["route"]}, {"long_name": "Edgewater", "short_name": "Edgewater", "types": ["locality", "political"]}, {"long_name": "1", "short_name": "1", "types": ["administrative_area_level_3", "political"]}, {"long_name": "Anne Arundel County", "short_name": "Anne Arundel County", "types": ["administrative_area_level_2", "political"]}, {"long_name": "Maryland", "short_name": "MD", "types": ["administrative_area_level_1", "political"]}, {"long_name": "United States", "short_name": "US", "types": ["country", "political"]}, {"long_name": "21037", "short_name": "21037", "types": ["postal_code"]}], "formatted_address": "647 Contees Wharf Rd, Edgewater, MD 21037, USA", "geometry": {"location": {"lat": 38.8869283, "lng": -76.54017089999999}, "location_type": "ROOFTOP", "viewport": {"northeast": {"lat": 38.8882772802915, "lng": -76.53882191970848}, "southwest": {"lat": 38.8855793197085, "lng": -76.54151988029149}}}, "place_id": "ChIJxZXcq6P0t4kR0WdazbSrvj0", "types": ["establishment", "point_of_interest"]}]}, "19986915": {"AfN": "sndt women s university", "Location": [{"address_components": [{"long_name": "Mumbai", "short_name": "Mumbai", "types": ["locality", "political"]}, {"long_name": "Maharashtra", "short_name": "MH", "types": ["administrative_area_level_1", "political"]}, {"long_name": "India", "short_name": "IN", "types": ["country", "political"]}, {"long_name": "400020", "short_name": "400020", "types": ["postal_code"]}], "formatted_address": "Nathibai Thackersey Road, New Marine Lines, Churchgate, Mumbai, Maharashtra 400020, India", "geometry": {"location": {"lat": 18.9378471, "lng": 72.8281743}, "location_type": "GEOMETRIC_CENTER", "viewport": {"northeast": {"lat": 18.9391960802915, "lng": 72.82952328029151}, "southwest": {"lat": 18.9364981197085, "lng": 72.82682531970849}}}, "place_id": "ChIJyR0_HN7R5zsRZs2dK_OLMog", "types": ["establishment", "point_of_interest", "university"]}]}, "59198280": {"AfN": "snecma", "Location": [{"address_components": [{"long_name": "Rond-point Ren\u00e9 Ravaud", "short_name": "Rond-point Ren\u00e9 Ravaud", "types": ["route"]}, {"long_name": "Moissy-Cramayel", "short_name": "Moissy-Cramayel", "types": ["locality", "political"]}, {"long_name": "Seine-et-Marne", "short_name": "Seine-et-Marne", "types": ["administrative_area_level_2", "political"]}, {"long_name": "\u00cele-de-France", "short_name": "\u00cele-de-France", "types": ["administrative_area_level_1", "political"]}, {"long_name": "France", "short_name": "FR", "types": ["country", "political"]}, {"long_name": "77550", "short_name": "77550", "types": ["postal_code"]}], "formatted_address": "Rond-point Ren\u00e9 Ravaud, 77550 Moissy-Cramayel, France", "geometry": {"location": {"lat": 48.6037603, "lng": 2.6523275}, "location_type": "GEOMETRIC_CENTER", "viewport": {"northeast": {"lat": 48.6051092802915, "lng": 2.653676480291502}, "southwest": {"lat": 48.6024113197085, "lng": 2.650978519708498}}}, "place_id": "ChIJNaeT9Wrj5UcRSErK-5drmS4", "types": ["establishment", "point_of_interest"]}, {"address_components": [{"long_name": "171", "short_name": "171", "types": ["street_number"]}, {"long_name": "Boulevard de Valmy", "short_name": "Boulevard de Valmy", "types": ["route"]}, {"long_name": "Colombes", "short_name": "Colombes", "types": ["locality", "political"]}, {"long_name": "Hauts-de-Seine", "short_name": "Hauts-de-Seine", "types": ["administrative_area_level_2", "political"]}, {"long_name": "\u00cele-de-France", "short_name": "\u00cele-de-France", "types": ["administrative_area_level_1", "political"]}, {"long_name": "France", "short_name": "FR", "types": ["country", "political"]}, {"long_name": "92700", "short_name": "92700", "types": ["postal_code"]}], "formatted_address": "171 Boulevard de Valmy, 92700 Colombes, France", "geometry": {"location": {"lat": 48.93686659999999, "lng": 2.2572779}, "location_type": "ROOFTOP", "viewport": {"northeast": {"lat": 48.9382155802915, "lng": 2.258626880291502}, "southwest": {"lat": 48.9355176197085, "lng": 2.255928919708498}}}, "place_id": "ChIJGbmwDN9l5kcRndPmL988UV8", "types": ["establishment", "point_of_interest"]}]}, "173811610": {"AfN": "snow and avalanche study establishment", "Location": [{"address_components": [{"long_name": "103", "short_name": "103", "types": ["subpremise"]}, {"long_name": "1428", "short_name": "1428", "types": ["street_number"]}, {"long_name": "Greene Street", "short_name": "Greene St", "types": ["route"]}, {"long_name": "Silverton", "short_name": "Silverton", "types": ["locality", "political"]}, {"long_name": "San Juan County", "short_name": "San Juan County", "types": ["administrative_area_level_2", "political"]}, {"long_name": "Colorado", "short_name": "CO", "types": ["administrative_area_level_1", "political"]}, {"long_name": "United States", "short_name": "US", "types": ["country", "political"]}, {"long_name": "81433", "short_name": "81433", "types": ["postal_code"]}], "formatted_address": "1428 Greene St #103, Silverton, CO 81433, USA", "geometry": {"location": {"lat": 37.8142405, "lng": -107.6619802}, "location_type": "ROOFTOP", "viewport": {"northeast": {"lat": 37.81558948029149, "lng": -107.6606312197085}, "southwest": {"lat": 37.81289151970849, "lng": -107.6633291802915}}}, "place_id": "ChIJZ-nszvvnPocRC6duMPZvu1A", "types": ["establishment", "point_of_interest"]}, {"address_components": [{"long_name": "1315", "short_name": "1315", "types": ["street_number"]}, {"long_name": "Snowden Street", "short_name": "Snowden St", "types": ["route"]}, {"long_name": "Silverton", "short_name": "Silverton", "types": ["locality", "political"]}, {"long_name": "San Juan County", "short_name": "San Juan County", "types": ["administrative_area_level_2", "political"]}, {"long_name": "Colorado", "short_name": "CO", "types": ["administrative_area_level_1", "political"]}, {"long_name": "United States", "short_name": "US", "types": ["country", "political"]}, {"long_name": "81433", "short_name": "81433", "types": ["postal_code"]}], "formatted_address": "1315 Snowden St, Silverton, CO 81433, USA", "geometry": {"location": {"lat": 37.81362379999999, "lng": -107.6652643}, "location_type": "ROOFTOP", "viewport": {"northeast": {"lat": 37.8149727802915, "lng": -107.6639153197085}, "southwest": {"lat": 37.8122748197085, "lng": -107.6666132802915}}}, "place_id": "ChIJGWhyBfnnPocRAAt8pD9yFEI", "types": ["establishment", "point_of_interest"]}]}, "31575130": {"AfN": "soas university of london", "Location": [{"address_components": [{"long_name": "London", "short_name": "London", "types": ["postal_town"]}, {"long_name": "Bloomsbury", "short_name": "Bloomsbury", "types": ["neighborhood", "political"]}, {"long_name": "Greater London", "short_name": "Greater London", "types": ["administrative_area_level_2", "political"]}, {"long_name": "England", "short_name": "England", "types": ["administrative_area_level_1", "political"]}, {"long_name": "United Kingdom", "short_name": "GB", "types": ["country", "political"]}, {"long_name": "WC1H 0XG", "short_name": "WC1H 0XG", "types": ["postal_code"]}], "formatted_address": "Bloomsbury, London WC1H 0XG, UK", "geometry": {"location": {"lat": 51.52235, "lng": -0.129259}, "location_type": "GEOMETRIC_CENTER", "viewport": {"northeast": {"lat": 51.52369898029151, "lng": -0.127910019708498}, "southwest": {"lat": 51.52100101970851, "lng": -0.130607980291502}}}, "place_id": "ChIJGQ8e2zEbdkgRC7j1E4dT2xQ", "types": ["establishment", "point_of_interest", "university"]}]}, "1284584826": {"AfN": "social science research council", "Location": [{"address_components": [{"long_name": "300", "short_name": "300", "types": ["street_number"]}, {"long_name": "Cadman Plaza West", "short_name": "Cadman Plaza W", "types": ["route"]}, {"long_name": "Brooklyn Heights", "short_name": "Brooklyn Heights", "types": ["neighborhood", "political"]}, {"long_name": "Brooklyn", "short_name": "Brooklyn", "types": ["political", "sublocality", "sublocality_level_1"]}, {"long_name": "Kings County", "short_name": "Kings County", "types": ["administrative_area_level_2", "political"]}, {"long_name": "New York", "short_name": "NY", "types": ["administrative_area_level_1", "political"]}, {"long_name": "United States", "short_name": "US", "types": ["country", "political"]}, {"long_name": "11201", "short_name": "11201", "types": ["postal_code"]}], "formatted_address": "300 Cadman Plaza W, Brooklyn, NY 11201, USA", "geometry": {"location": {"lat": 40.6951174, "lng": -73.991129}, "location_type": "ROOFTOP", "viewport": {"northeast": {"lat": 40.6964663802915, "lng": -73.98978001970849}, "southwest": {"lat": 40.6937684197085, "lng": -73.99247798029151}}}, "place_id": "ChIJ87ZtsElawokR0pEL4JV7LfU", "types": ["establishment", "point_of_interest"]}]}, "1292585137": {"AfN": "social security administration", "Location": [{"address_components": [{"long_name": "Suite A", "short_name": "Suite A", "types": ["subpremise"]}, {"long_name": "2125", "short_name": "2125", "types": ["street_number"]}, {"long_name": "North Pennsylvania Avenue", "short_name": "N Pennsylvania Ave", "types": ["route"]}, {"long_name": "Independence", "short_name": "Independence", "types": ["locality", "political"]}, {"long_name": "Montgomery County", "short_name": "Montgomery County", "types": ["administrative_area_level_2", "political"]}, {"long_name": "Kansas", "short_name": "KS", "types": ["administrative_area_level_1", "political"]}, {"long_name": "United States", "short_name": "US", "types": ["country", "political"]}, {"long_name": "67301", "short_name": "67301", "types": ["postal_code"]}], "formatted_address": "2125 N Pennsylvania Ave Suite A, Independence, KS 67301, USA", "geometry": {"location": {"lat": 37.2466323, "lng": -95.7068551}, "location_type": "ROOFTOP", "viewport": {"northeast": {"lat": 37.2479812802915, "lng": -95.7055061197085}, "southwest": {"lat": 37.24528331970851, "lng": -95.70820408029151}}}, "place_id": "ChIJr32t0p8suIcR7OVF1ApF_Ns", "types": ["establishment", "local_government_office", "point_of_interest"]}]}, "182616263": {"AfN": "society for biodemography and social biology", "Location": []}, "1322001127": {"AfN": "society of hospital medicine", "Location": [{"address_components": [{"long_name": "501", "short_name": "501", "types": ["subpremise"]}, {"long_name": "1500", "short_name": "1500", "types": ["street_number"]}, {"long_name": "Spring Garden Street", "short_name": "Spring Garden St", "types": ["route"]}, {"long_name": "Center City", "short_name": "Center City", "types": ["neighborhood", "political"]}, {"long_name": "Philadelphia", "short_name": "Philadelphia", "types": ["locality", "political"]}, {"long_name": "Philadelphia County", "short_name": "Philadelphia County", "types": ["administrative_area_level_2", "political"]}, {"long_name": "Pennsylvania", "short_name": "PA", "types": ["administrative_area_level_1", "political"]}, {"long_name": "United States", "short_name": "US", "types": ["country", "political"]}, {"long_name": "19130", "short_name": "19130", "types": ["postal_code"]}], "formatted_address": "1500 Spring Garden St #501, Philadelphia, PA 19130, USA", "geometry": {"location": {"lat": 39.9623509, "lng": -75.1637362}, "location_type": "ROOFTOP", "viewport": {"northeast": {"lat": 39.9636998802915, "lng": -75.16238721970849}, "southwest": {"lat": 39.9610019197085, "lng": -75.16508518029151}}}, "place_id": "ChIJrQPpUdLHxokRqmd4Rwi7RNU", "types": ["establishment", "point_of_interest"]}]}, "894554748": {"AfN": "society of petroleum engineers", "Location": [{"address_components": [{"long_name": "222", "short_name": "222", "types": ["street_number"]}, {"long_name": "Palisades Creek Drive", "short_name": "Palisades Creek Dr", "types": ["route"]}, {"long_name": "Richardson", "short_name": "Richardson", "types": ["locality", "political"]}, {"long_name": "Collin County", "short_name": "Collin County", "types": ["administrative_area_level_2", "political"]}, {"long_name": "Texas", "short_name": "TX", "types": ["administrative_area_level_1", "political"]}, {"long_name": "United States", "short_name": "US", "types": ["country", "political"]}, {"long_name": "75080", "short_name": "75080", "types": ["postal_code"]}, {"long_name": "2097", "short_name": "2097", "types": ["postal_code_suffix"]}], "formatted_address": "222 Palisades Creek Dr, Richardson, TX 75080, USA", "geometry": {"location": {"lat": 32.9896968, "lng": -96.71497339999999}, "location_type": "ROOFTOP", "viewport": {"northeast": {"lat": 32.9910457802915, "lng": -96.71362441970848}, "southwest": {"lat": 32.9883478197085, "lng": -96.71632238029149}}}, "place_id": "ChIJ7SwB0NIYTIYRxRjQHlxl8tU", "types": ["establishment", "point_of_interest"]}]}, "129826125": {"AfN": "sodertorn university", "Location": [{"address_components": [{"long_name": "7", "short_name": "7", "types": ["street_number"]}, {"long_name": "Alfred Nobels all\u00e9", "short_name": "Alfred Nobels all\u00e9", "types": ["route"]}, {"long_name": "Flemingsberg", "short_name": "Flemingsberg", "types": ["political", "sublocality", "sublocality_level_1"]}, {"long_name": "Huddinge", "short_name": "Huddinge", "types": ["postal_town"]}, {"long_name": "Stockholms l\u00e4n", "short_name": "Stockholms l\u00e4n", "types": ["administrative_area_level_1", "political"]}, {"long_name": "Sweden", "short_name": "SE", "types": ["country", "political"]}, {"long_name": "141 89", "short_name": "141 89", "types": ["postal_code"]}], "formatted_address": "Alfred Nobels all\u00e9 7, 141 89 Huddinge, Sweden", "geometry": {"location": {"lat": 59.21947619999999, "lng": 17.943318}, "location_type": "ROOFTOP", "viewport": {"northeast": {"lat": 59.2208251802915, "lng": 17.9446669802915}, "southwest": {"lat": 59.21812721970849, "lng": 17.94196901970849}}}, "place_id": "ChIJA_N72ONwX0YRvGndp7HZJfs", "types": ["establishment", "point_of_interest", "university"]}]}, "30147112": {"AfN": "sofia medical university", "Location": [{"address_components": [{"long_name": "15", "short_name": "15", "types": ["street_number"]}, {"long_name": "Boulevard \"Akademik Ivan Evstratiev Geshov \"", "short_name": "bulevard \"akad. Ivan Evst. Geshov\"", "types": ["route"]}, {"long_name": "Sofia Center", "short_name": "Sofia Center", "types": ["neighborhood", "political"]}, {"long_name": "Sofia", "short_name": "Sofia", "types": ["locality", "political"]}, {"long_name": "Sofia City Province", "short_name": "Sofia City Province", "types": ["administrative_area_level_1", "political"]}, {"long_name": "Bulgaria", "short_name": "BG", "types": ["country", "political"]}, {"long_name": "1431", "short_name": "1431", "types": ["postal_code"]}], "formatted_address": "Boulevard \"Akademik Ivan Evstratiev Geshov \" 15, 1431 Sofia Center, Sofia, Bulgaria", "geometry": {"location": {"lat": 42.683857, "lng": 23.3073481}, "location_type": "ROOFTOP", "viewport": {"northeast": {"lat": 42.68520598029149, "lng": 23.3086970802915}, "southwest": {"lat": 42.68250801970849, "lng": 23.3059991197085}}}, "place_id": "ChIJuRmwlRmFqkAR_tMJQQO-KK8", "types": ["establishment", "point_of_interest", "university"]}, {"address_components": [{"long_name": "15", "short_name": "15", "types": ["street_number"]}, {"long_name": "bulevard \"Tsar Osvoboditel\"", "short_name": "bul. \"Tsar Osvoboditel\"", "types": ["route"]}, {"long_name": "Sofia Center", "short_name": "Sofia Center", "types": ["neighborhood", "political"]}, {"long_name": "Sofia", "short_name": "Sofia", "types": ["locality", "political"]}, {"long_name": "Sofia City Province", "short_name": "Sofia City Province", "types": ["administrative_area_level_1", "political"]}, {"long_name": "Bulgaria", "short_name": "BG", "types": ["country", "political"]}, {"long_name": "1504", "short_name": "1504", "types": ["postal_code"]}], "formatted_address": "bul. \"Tsar Osvoboditel\" 15, 1504 Sofia Center, Sofia, Bulgaria", "geometry": {"location": {"lat": 42.6935079, "lng": 23.3347928}, "location_type": "ROOFTOP", "viewport": {"northeast": {"lat": 42.6948568802915, "lng": 23.3361417802915}, "southwest": {"lat": 42.6921589197085, "lng": 23.3334438197085}}}, "place_id": "ChIJE6JlK3SFqkARtuWiys_k6Yg", "types": ["establishment", "point_of_interest", "university"]}]}, "58918642": {"AfN": "sofia university", "Location": [{"address_components": [{"long_name": "1069", "short_name": "1069", "types": ["street_number"]}, {"long_name": "East Meadow Circle", "short_name": "E Meadow Cir", "types": ["route"]}, {"long_name": "Palo Verde", "short_name": "Palo Verde", "types": ["neighborhood", "political"]}, {"long_name": "Palo Alto", "short_name": "Palo Alto", "types": ["locality", "political"]}, {"long_name": "Santa Clara County", "short_name": "Santa Clara County", "types": ["administrative_area_level_2", "political"]}, {"long_name": "California", "short_name": "CA", "types": ["administrative_area_level_1", "political"]}, {"long_name": "United States", "short_name": "US", "types": ["country", "political"]}, {"long_name": "94303", "short_name": "94303", "types": ["postal_code"]}, {"long_name": "4231", "short_name": "4231", "types": ["postal_code_suffix"]}], "formatted_address": "1069 E Meadow Cir, Palo Alto, CA 94303, USA", "geometry": {"location": {"lat": 37.430285, "lng": -122.108785}, "location_type": "ROOFTOP", "viewport": {"northeast": {"lat": 37.4316339802915, "lng": -122.1074360197085}, "southwest": {"lat": 37.4289360197085, "lng": -122.1101339802915}}}, "place_id": "ChIJFxxe40C6j4ARlohOsKgKGnk", "types": ["establishment", "point_of_interest", "university"]}]}, "97750245": {"AfN": "software ag", "Location": [{"address_components": [{"long_name": "# 200", "short_name": "# 200", "types": ["subpremise"]}, {"long_name": "8822", "short_name": "8822", "types": ["street_number"]}, {"long_name": "South Ridgeline Boulevard", "short_name": "S Ridgeline Blvd", "types": ["route"]}, {"long_name": "Westridge", "short_name": "Westridge", "types": ["neighborhood", "political"]}, {"long_name": "Highlands Ranch", "short_name": "Highlands Ranch", "types": ["locality", "political"]}, {"long_name": "Douglas County", "short_name": "Douglas County", "types": ["administrative_area_level_2", "political"]}, {"long_name": "Colorado", "short_name": "CO", "types": ["administrative_area_level_1", "political"]}, {"long_name": "United States", "short_name": "US", "types": ["country", "political"]}, {"long_name": "80129", "short_name": "80129", "types": ["postal_code"]}, {"long_name": "2334", "short_name": "2334", "types": ["postal_code_suffix"]}], "formatted_address": "8822 S Ridgeline Blvd # 200, Highlands Ranch, CO 80129, USA", "geometry": {"location": {"lat": 39.55617710000001, "lng": -104.9945793}, "location_type": "ROOFTOP", "viewport": {"northeast": {"lat": 39.55752608029151, "lng": -104.9932303197085}, "southwest": {"lat": 39.55482811970851, "lng": -104.9959282802915}}}, "place_id": "ChIJ3UmP2jeCbIcRcSdTx5mMBT0", "types": ["establishment", "point_of_interest"]}]}, "114772536": {"AfN": "software engineering institute", "Location": [{"address_components": [{"long_name": "4500", "short_name": "4500", "types": ["street_number"]}, {"long_name": "Fifth Avenue", "short_name": "Fifth Ave", "types": ["route"]}, {"long_name": "North Oakland", "short_name": "North Oakland", "types": ["neighborhood", "political"]}, {"long_name": "Pittsburgh", "short_name": "Pittsburgh", "types": ["locality", "political"]}, {"long_name": "Allegheny County", "short_name": "Allegheny County", "types": ["administrative_area_level_2", "political"]}, {"long_name": "Pennsylvania", "short_name": "PA", "types": ["administrative_area_level_1", "political"]}, {"long_name": "United States", "short_name": "US", "types": ["country", "political"]}, {"long_name": "15213", "short_name": "15213", "types": ["postal_code"]}, {"long_name": "2612", "short_name": "2612", "types": ["postal_code_suffix"]}], "formatted_address": "4500 Fifth Ave, Pittsburgh, PA 15213, USA", "geometry": {"location": {"lat": 40.4463884, "lng": -79.950034}, "location_type": "ROOFTOP", "viewport": {"northeast": {"lat": 40.4477373802915, "lng": -79.9486850197085}, "southwest": {"lat": 40.4450394197085, "lng": -79.95138298029151}}}, "place_id": "ChIJr6AtTCTyNIgRUmrZ7Kb6ygE", "types": ["establishment", "point_of_interest"]}, {"address_components": [{"long_name": "# 200", "short_name": "# 200", "types": ["subpremise"]}, {"long_name": "4301", "short_name": "4301", "types": ["street_number"]}, {"long_name": "Wilson Boulevard", "short_name": "Wilson Blvd", "types": ["route"]}, {"long_name": "Virginia Square", "short_name": "Virginia Square", "types": ["neighborhood", "political"]}, {"long_name": "Arlington", "short_name": "Arlington", "types": ["locality", "political"]}, {"long_name": "Arlington County", "short_name": "Arlington County", "types": ["administrative_area_level_2", "political"]}, {"long_name": "Virginia", "short_name": "VA", "types": ["administrative_area_level_1", "political"]}, {"long_name": "United States", "short_name": "US", "types": ["country", "political"]}, {"long_name": "22203", "short_name": "22203", "types": ["postal_code"]}, {"long_name": "1867", "short_name": "1867", "types": ["postal_code_suffix"]}], "formatted_address": "4301 Wilson Blvd # 200, Arlington, VA 22203, USA", "geometry": {"location": {"lat": 38.8804521, "lng": -77.1128296}, "location_type": "ROOFTOP", "viewport": {"northeast": {"lat": 38.8818010802915, "lng": -77.1114806197085}, "southwest": {"lat": 38.8791031197085, "lng": -77.11417858029151}}}, "place_id": "ChIJYf-jxiS0t4kRxKQv_IqJmVk", "types": ["establishment", "point_of_interest"]}]}, "148751991": {"AfN": "sogang university", "Location": [{"address_components": [{"long_name": "35", "short_name": "35", "types": ["premise"]}, {"long_name": "Baekbeom-ro", "short_name": "Baekbeom-ro", "types": ["political", "sublocality", "sublocality_level_4"]}, {"long_name": "Sinsu-dong", "short_name": "Sinsu-dong", "types": ["political", "sublocality", "sublocality_level_2"]}, {"long_name": "Mapo-gu", "short_name": "Mapo-gu", "types": ["political", "sublocality", "sublocality_level_1"]}, {"long_name": "Seoul", "short_name": "Seoul", "types": ["administrative_area_level_1", "political"]}, {"long_name": "South Korea", "short_name": "KR", "types": ["country", "political"]}, {"long_name": "121-110", "short_name": "121-110", "types": ["postal_code"]}], "formatted_address": "35 Baekbeom-ro, Sinsu-dong, Mapo-gu, Seoul, South Korea", "geometry": {"location": {"lat": 37.5513365, "lng": 126.9407529}, "location_type": "ROOFTOP", "viewport": {"northeast": {"lat": 37.55268548029149, "lng": 126.9421018802915}, "southwest": {"lat": 37.54998751970849, "lng": 126.9394039197085}}}, "place_id": "ChIJSSMlyhSZfDURdFkdr9R1WHE", "types": ["establishment", "point_of_interest", "university"]}]}, "61986632": {"AfN": "sogn og fjordane university college", "Location": [{"address_components": [{"long_name": "1", "short_name": "1", "types": ["street_number"]}, {"long_name": "Svanehaugvegen", "short_name": "Svanehaugvegen", "types": ["route"]}, {"long_name": "F\u00f8rde", "short_name": "F\u00f8rde", "types": ["postal_town"]}, {"long_name": "F\u00f8rde", "short_name": "F\u00f8rde", "types": ["administrative_area_level_2", "political"]}, {"long_name": "Sogn og Fjordane", "short_name": "Sogn og Fjordane", "types": ["administrative_area_level_1", "political"]}, {"long_name": "Norway", "short_name": "NO", "types": ["country", "political"]}, {"long_name": "6812", "short_name": "6812", "types": ["postal_code"]}], "formatted_address": "Svanehaugvegen 1, 6812 F\u00f8rde, Norway", "geometry": {"location": {"lat": 61.4589582, "lng": 5.888483099999999}, "location_type": "ROOFTOP", "viewport": {"northeast": {"lat": 61.46030718029151, "lng": 5.889832080291502}, "southwest": {"lat": 61.4576092197085, "lng": 5.887134119708497}}}, "place_id": "ChIJa4PrkEExFkYRYsrUmciOExk", "types": ["establishment", "point_of_interest", "school", "university"]}]}, "97455420": {"AfN": "sohag university", "Location": [{"address_components": [{"long_name": "82524", "short_name": "82524", "types": ["postal_code"]}, {"long_name": "Egypt", "short_name": "EG", "types": ["country", "political"]}], "formatted_address": "\u0645\u062f\u064a\u0646\u0629 \u0646\u0627\u0635\u0631 \u2013 \u0634\u0627\u0631\u0639 \u062c\u0627\u0645\u0639\u0629 \u0633\u0648\u0647\u0627\u062c \u0633\u0648\u0647\u0627\u062c\u060c 82524, Egypt", "geometry": {"location": {"lat": 26.5637114, "lng": 31.70736819999999}, "location_type": "GEOMETRIC_CENTER", "viewport": {"northeast": {"lat": 26.56506038029151, "lng": 31.70871718029149}, "southwest": {"lat": 26.5623624197085, "lng": 31.70601921970849}}}, "place_id": "ChIJT3fN87FeTxQR_bSsyCkTsuk", "types": ["establishment", "point_of_interest", "university"]}]}, "67607428": {"AfN": "soka university of america", "Location": [{"address_components": [{"long_name": "1", "short_name": "1", "types": ["street_number"]}, {"long_name": "University Drive", "short_name": "University Drive", "types": ["route"]}, {"long_name": "Aliso Viejo", "short_name": "Aliso Viejo", "types": ["locality", "political"]}, {"long_name": "Orange County", "short_name": "Orange County", "types": ["administrative_area_level_2", "political"]}, {"long_name": "California", "short_name": "CA", "types": ["administrative_area_level_1", "political"]}, {"long_name": "United States", "short_name": "US", "types": ["country", "political"]}, {"long_name": "92656", "short_name": "92656", "types": ["postal_code"]}], "formatted_address": "1 University Drive, Aliso Viejo, CA 92656, USA", "geometry": {"location": {"lat": 33.5548343, "lng": -117.7353296}, "location_type": "ROOFTOP", "viewport": {"northeast": {"lat": 33.5561832802915, "lng": -117.7339806197085}, "southwest": {"lat": 33.5534853197085, "lng": -117.7366785802915}}}, "place_id": "ChIJ4-U6f2Dv3IARvWZ8KtpaRow", "types": ["establishment", "point_of_interest", "university"]}]}, "84641585": {"AfN": "sokoine university of agriculture", "Location": [{"address_components": [{"long_name": "Morogoro", "short_name": "Morogoro", "types": ["locality", "political"]}, {"long_name": "Morogoro", "short_name": "Morogoro", "types": ["administrative_area_level_2", "political"]}, {"long_name": "Morogoro Region", "short_name": "Morogoro Region", "types": ["administrative_area_level_1", "political"]}, {"long_name": "Tanzania", "short_name": "TZ", "types": ["country", "political"]}], "formatted_address": "Morogoro, Tanzania", "geometry": {"location": {"lat": -6.8522278, "lng": 37.6575682}, "location_type": "GEOMETRIC_CENTER", "viewport": {"northeast": {"lat": -6.850878819708497, "lng": 37.6589171802915}, "southwest": {"lat": -6.853576780291502, "lng": 37.6562192197085}}}, "place_id": "ChIJwdmq9J1dWhgRP8s-I0cK7sM", "types": ["establishment", "point_of_interest", "university"]}, {"address_components": [{"long_name": "SUA Road", "short_name": "SUA Road", "types": ["route"]}, {"long_name": "Morogoro", "short_name": "Morogoro", "types": ["locality", "political"]}, {"long_name": "Morogoro", "short_name": "Morogoro", "types": ["administrative_area_level_2", "political"]}, {"long_name": "Morogoro Region", "short_name": "Morogoro Region", "types": ["administrative_area_level_1", "political"]}, {"long_name": "Tanzania", "short_name": "TZ", "types": ["country", "political"]}], "formatted_address": "SUA Rd, Morogoro, Tanzania", "geometry": {"location": {"lat": -6.844921299999999, "lng": 37.6593571}, "location_type": "GEOMETRIC_CENTER", "viewport": {"northeast": {"lat": -6.843572319708497, "lng": 37.6607060802915}, "southwest": {"lat": -6.846270280291502, "lng": 37.65800811970851}}}, "place_id": "ChIJkYaUUHNdWhgRkj4Lf5kUi84", "types": ["establishment", "point_of_interest"]}]}, "882353424": {"AfN": "solae", "Location": [{"address_components": [{"long_name": "5532", "short_name": "5532", "types": ["street_number"]}, {"long_name": "Hunt Street", "short_name": "Hunt St", "types": ["route"]}, {"long_name": "Pryor", "short_name": "Pryor", "types": ["locality", "political"]}, {"long_name": "Mayes County", "short_name": "Mayes County", "types": ["administrative_area_level_2", "political"]}, {"long_name": "Oklahoma", "short_name": "OK", "types": ["administrative_area_level_1", "political"]}, {"long_name": "United States", "short_name": "US", "types": ["country", "political"]}, {"long_name": "74361", "short_name": "74361", "types": ["postal_code"]}], "formatted_address": "5532 Hunt St, Pryor, OK 74361, USA", "geometry": {"location": {"lat": 36.2267173, "lng": -95.2803572}, "location_type": "ROOFTOP", "viewport": {"northeast": {"lat": 36.2280662802915, "lng": -95.27900821970849}, "southwest": {"lat": 36.2253683197085, "lng": -95.28170618029151}}}, "place_id": "ChIJ96_F2fo5tocRd-f24DBJ6_c", "types": ["establishment", "food", "point_of_interest"]}]}, "9410560": {"AfN": "solar turbines", "Location": [{"address_components": [{"long_name": "4217", "short_name": "4217", "types": ["street_number"]}, {"long_name": "West Seattle Street", "short_name": "W Seattle St", "types": ["route"]}, {"long_name": "Broken Arrow", "short_name": "Broken Arrow", "types": ["locality", "political"]}, {"long_name": "Tulsa County", "short_name": "Tulsa County", "types": ["administrative_area_level_2", "political"]}, {"long_name": "Oklahoma", "short_name": "OK", "types": ["administrative_area_level_1", "political"]}, {"long_name": "United States", "short_name": "US", "types": ["country", "political"]}, {"long_name": "74012", "short_name": "74012", "types": ["postal_code"]}, {"long_name": "9113", "short_name": "9113", "types": ["postal_code_suffix"]}], "formatted_address": "4217 W Seattle St, Broken Arrow, OK 74012, USA", "geometry": {"location": {"lat": 36.068712, "lng": -95.840991}, "location_type": "ROOFTOP", "viewport": {"northeast": {"lat": 36.07006098029149, "lng": -95.8396420197085}, "southwest": {"lat": 36.0673630197085, "lng": -95.84233998029151}}}, "place_id": "ChIJcToAY1uMtocR9zFgJeTMr1o", "types": ["establishment", "point_of_interest"]}]}, "140777494": {"AfN": "solid state physics laboratory", "Location": [{"address_components": [{"long_name": "New Delhi", "short_name": "New Delhi", "types": ["locality", "political"]}, {"long_name": "Delhi", "short_name": "DL", "types": ["administrative_area_level_1", "political"]}, {"long_name": "India", "short_name": "IN", "types": ["country", "political"]}, {"long_name": "110054", "short_name": "110054", "types": ["postal_code"]}], "formatted_address": "Banarsi Das Estate, Lucknow Road, Timarpur, New Delhi, Delhi 110054, India", "geometry": {"location": {"lat": 28.7016988, "lng": 77.2170956}, "location_type": "GEOMETRIC_CENTER", "viewport": {"northeast": {"lat": 28.7030477802915, "lng": 77.2184445802915}, "southwest": {"lat": 28.7003498197085, "lng": 77.21574661970848}}}, "place_id": "ChIJVVVVVcL9DDkRE88aYxSpuUI", "types": ["establishment", "point_of_interest"]}]}, "17170469": {"AfN": "solvay", "Location": [{"address_components": [{"long_name": "5350", "short_name": "5350", "types": ["street_number"]}, {"long_name": "South 129th East Avenue", "short_name": "S 129th E Ave", "types": ["route"]}, {"long_name": "Tulsa", "short_name": "Tulsa", "types": ["locality", "political"]}, {"long_name": "Tulsa County", "short_name": "Tulsa County", "types": ["administrative_area_level_2", "political"]}, {"long_name": "Oklahoma", "short_name": "OK", "types": ["administrative_area_level_1", "political"]}, {"long_name": "United States", "short_name": "US", "types": ["country", "political"]}, {"long_name": "74134", "short_name": "74134", "types": ["postal_code"]}, {"long_name": "6703", "short_name": "6703", "types": ["postal_code_suffix"]}], "formatted_address": "5350 S 129th E Ave, Tulsa, OK 74134, USA", "geometry": {"location": {"lat": 36.0866392, "lng": -95.8346332}, "location_type": "ROOFTOP", "viewport": {"northeast": {"lat": 36.0879881802915, "lng": -95.83328421970849}, "southwest": {"lat": 36.0852902197085, "lng": -95.83598218029151}}}, "place_id": "ChIJMxjN_IyMtocRHuTUsGCaoNo", "types": ["establishment", "point_of_interest"]}]}, "1286494926": {"AfN": "somnogen canada inc", "Location": []}, "70968999": {"AfN": "sona college of technology", "Location": [{"address_components": [{"long_name": "Salem", "short_name": "Salem", "types": ["locality", "political"]}, {"long_name": "Tamil Nadu", "short_name": "TN", "types": ["administrative_area_level_1", "political"]}, {"long_name": "India", "short_name": "IN", "types": ["country", "political"]}, {"long_name": "636005", "short_name": "636005", "types": ["postal_code"]}], "formatted_address": "Junction Main Road, Suramangalam, Salem, Tamil Nadu 636005, India", "geometry": {"location": {"lat": 11.6787363, "lng": 78.12438639999999}, "location_type": "GEOMETRIC_CENTER", "viewport": {"northeast": {"lat": 11.6800852802915, "lng": 78.1257353802915}, "southwest": {"lat": 11.6773873197085, "lng": 78.1230374197085}}}, "place_id": "ChIJfV9bEWXwqzsRTbIYVdD0CB0", "types": ["establishment", "point_of_interest", "university"]}]}, "158011677": {"AfN": "sonoma state university", "Location": [{"address_components": [{"long_name": "1801", "short_name": "1801", "types": ["street_number"]}, {"long_name": "East Cotati Avenue", "short_name": "East Cotati Avenue", "types": ["route"]}, {"long_name": "Rohnert Park", "short_name": "Rohnert Park", "types": ["locality", "political"]}, {"long_name": "Sonoma County", "short_name": "Sonoma County", "types": ["administrative_area_level_2", "political"]}, {"long_name": "California", "short_name": "CA", "types": ["administrative_area_level_1", "political"]}, {"long_name": "United States", "short_name": "US", "types": ["country", "political"]}, {"long_name": "94928", "short_name": "94928", "types": ["postal_code"]}], "formatted_address": "1801 East Cotati Avenue, Rohnert Park, CA 94928, USA", "geometry": {"location": {"lat": 38.33860809999999, "lng": -122.6748358}, "location_type": "ROOFTOP", "viewport": {"northeast": {"lat": 38.3399570802915, "lng": -122.6734868197085}, "southwest": {"lat": 38.3372591197085, "lng": -122.6761847802915}}}, "place_id": "ChIJFQdilFlKhIARrYS6TFuAshU", "types": ["establishment", "point_of_interest", "university"]}, {"address_components": [{"long_name": "1801", "short_name": "1801", "types": ["street_number"]}, {"long_name": "East Cotati Avenue", "short_name": "E Cotati Ave", "types": ["route"]}, {"long_name": "Rohnert Park", "short_name": "Rohnert Park", "types": ["locality", "political"]}, {"long_name": "Sonoma County", "short_name": "Sonoma County", "types": ["administrative_area_level_2", "political"]}, {"long_name": "California", "short_name": "CA", "types": ["administrative_area_level_1", "political"]}, {"long_name": "United States", "short_name": "US", "types": ["country", "political"]}, {"long_name": "94928", "short_name": "94928", "types": ["postal_code"]}], "formatted_address": "1801 E Cotati Ave, Rohnert Park, CA 94928, USA", "geometry": {"location": {"lat": 38.3409236, "lng": -122.6730656}, "location_type": "ROOFTOP", "viewport": {"northeast": {"lat": 38.3422725802915, "lng": -122.6717166197085}, "southwest": {"lat": 38.3395746197085, "lng": -122.6744145802915}}}, "place_id": "ChIJAzU_ZFVKhIARlPBzyM7jpBU", "types": ["establishment", "point_of_interest", "university"]}]}, "1342842691": {"AfN": "sons of the american revolution", "Location": [{"address_components": [{"long_name": "809", "short_name": "809", "types": ["street_number"]}, {"long_name": "West Main Street", "short_name": "W Main St", "types": ["route"]}, {"long_name": "Downtown", "short_name": "Downtown", "types": ["neighborhood", "political"]}, {"long_name": "Louisville", "short_name": "Louisville", "types": ["locality", "political"]}, {"long_name": "Jefferson County", "short_name": "Jefferson County", "types": ["administrative_area_level_2", "political"]}, {"long_name": "Kentucky", "short_name": "KY", "types": ["administrative_area_level_1", "political"]}, {"long_name": "United States", "short_name": "US", "types": ["country", "political"]}, {"long_name": "40202", "short_name": "40202", "types": ["postal_code"]}], "formatted_address": "809 W Main St, Louisville, KY 40202, USA", "geometry": {"location": {"lat": 38.2577121, "lng": -85.7634951}, "location_type": "ROOFTOP", "viewport": {"northeast": {"lat": 38.2590610802915, "lng": -85.76214611970849}, "southwest": {"lat": 38.2563631197085, "lng": -85.7648440802915}}}, "place_id": "ChIJHSEwHKFyaYgRvA-a_Zeb_uA", "types": ["establishment", "point_of_interest"]}]}, "3923682": {"AfN": "soochow university", "Location": [{"address_components": [{"long_name": "1", "short_name": "1", "types": ["street_number"]}, {"long_name": "Shizi Street", "short_name": "Shizi St", "types": ["route"]}, {"long_name": "Gusu Qu", "short_name": "Gusu Qu", "types": ["political", "sublocality", "sublocality_level_1"]}, {"long_name": "Suzhou Shi", "short_name": "Suzhou Shi", "types": ["locality", "political"]}, {"long_name": "Jiangsu Sheng", "short_name": "Jiangsu Sheng", "types": ["administrative_area_level_1", "political"]}, {"long_name": "China", "short_name": "CN", "types": ["country", "political"]}, {"long_name": "215006", "short_name": "215006", "types": ["postal_code"]}], "formatted_address": "1 Shizi St, Gusu Qu, Suzhou Shi, Jiangsu Sheng, China, 215006", "geometry": {"location": {"lat": 31.309489, "lng": 120.639551}, "location_type": "ROOFTOP", "viewport": {"northeast": {"lat": 31.3108379802915, "lng": 120.6408999802915}, "southwest": {"lat": 31.3081400197085, "lng": 120.6382020197085}}}, "place_id": "ChIJ3ZF--iCnszURcvPqMDd01VA", "types": ["establishment", "point_of_interest", "university"]}]}, "185940356": {"AfN": "soochow university", "Location": [{"address_components": [{"long_name": "1", "short_name": "1", "types": ["street_number"]}, {"long_name": "Shizi Street", "short_name": "Shizi St", "types": ["route"]}, {"long_name": "Gusu Qu", "short_name": "Gusu Qu", "types": ["political", "sublocality", "sublocality_level_1"]}, {"long_name": "Suzhou Shi", "short_name": "Suzhou Shi", "types": ["locality", "political"]}, {"long_name": "Jiangsu Sheng", "short_name": "Jiangsu Sheng", "types": ["administrative_area_level_1", "political"]}, {"long_name": "China", "short_name": "CN", "types": ["country", "political"]}, {"long_name": "215006", "short_name": "215006", "types": ["postal_code"]}], "formatted_address": "1 Shizi St, Gusu Qu, Suzhou Shi, Jiangsu Sheng, China, 215006", "geometry": {"location": {"lat": 31.309489, "lng": 120.639551}, "location_type": "ROOFTOP", "viewport": {"northeast": {"lat": 31.3108379802915, "lng": 120.6408999802915}, "southwest": {"lat": 31.3081400197085, "lng": 120.6382020197085}}}, "place_id": "ChIJ3ZF--iCnszURcvPqMDd01VA", "types": ["establishment", "point_of_interest", "university"]}]}, "31766871": {"AfN": "sookmyung women s university", "Location": [{"address_components": [{"long_name": "100", "short_name": "100", "types": ["political", "premise"]}, {"long_name": "Cheongpa-ro 47-gil", "short_name": "Cheongpa-ro 47-gil", "types": ["political", "sublocality", "sublocality_level_4"]}, {"long_name": "Cheongpa-dong", "short_name": "Cheongpa-dong", "types": ["political", "sublocality", "sublocality_level_2"]}, {"long_name": "Yongsan-gu", "short_name": "Yongsan-gu", "types": ["political", "sublocality", "sublocality_level_1"]}, {"long_name": "\uc11c\uc6b8\ud2b9\ubcc4\uc2dc", "short_name": "\uc11c\uc6b8\ud2b9\ubcc4\uc2dc", "types": ["administrative_area_level_1", "political"]}, {"long_name": "South Korea", "short_name": "KR", "types": ["country", "political"]}, {"long_name": "140-132", "short_name": "140-132", "types": ["postal_code"]}], "formatted_address": "100 Cheongpa-ro 47-gil, Cheongpa-dong, Yongsan-gu, \uc11c\uc6b8\ud2b9\ubcc4\uc2dc South Korea", "geometry": {"location": {"lat": 37.5463644, "lng": 126.9648311}, "location_type": "ROOFTOP", "viewport": {"northeast": {"lat": 37.5477133802915, "lng": 126.9661800802915}, "southwest": {"lat": 37.54501541970851, "lng": 126.9634821197085}}}, "place_id": "ChIJxwTLf3KifDURD3MkIxZO9rk", "types": ["establishment", "point_of_interest", "university"]}]}, "24541011": {"AfN": "soonchunhyang university", "Location": [{"address_components": [{"long_name": "Eupnae-ri", "short_name": "Eupnae-ri", "types": ["political", "sublocality", "sublocality_level_3"]}, {"long_name": "Sinchang-myeon", "short_name": "Sinchang-myeon", "types": ["political", "sublocality", "sublocality_level_2"]}, {"long_name": "Asan-si", "short_name": "Asan-si", "types": ["locality", "political"]}, {"long_name": "Chungcheongnam-do", "short_name": "Chungcheongnam-do", "types": ["administrative_area_level_1", "political"]}, {"long_name": "South Korea", "short_name": "KR", "types": ["country", "political"]}], "formatted_address": "South Korea, Chungcheongnam-do, Asan-si, Sinchang-myeon, Eupnae-ri, 646", "geometry": {"location": {"lat": 36.769687, "lng": 126.93169}, "location_type": "GEOMETRIC_CENTER", "viewport": {"northeast": {"lat": 36.7710359802915, "lng": 126.9330389802915}, "southwest": {"lat": 36.7683380197085, "lng": 126.9303410197085}}}, "place_id": "ChIJMWz2PBPnejURdeGfWnXunPw", "types": ["establishment", "point_of_interest", "university"]}]}, "141371507": {"AfN": "soongsil university", "Location": [{"address_components": [{"long_name": "369", "short_name": "369", "types": ["premise"]}, {"long_name": "Sang-doro", "short_name": "Sang-doro", "types": ["political", "sublocality", "sublocality_level_4"]}, {"long_name": "Sangdo-dong", "short_name": "Sangdo-dong", "types": ["political", "sublocality", "sublocality_level_2"]}, {"long_name": "Dongjak-gu", "short_name": "Dongjak-gu", "types": ["political", "sublocality", "sublocality_level_1"]}, {"long_name": "Seoul", "short_name": "Seoul", "types": ["administrative_area_level_1", "political"]}, {"long_name": "South Korea", "short_name": "KR", "types": ["country", "political"]}, {"long_name": "156-030", "short_name": "156-030", "types": ["postal_code"]}], "formatted_address": "369 Sang-doro, Sangdo-dong, Dongjak-gu, Seoul, South Korea", "geometry": {"location": {"lat": 37.496375, "lng": 126.956879}, "location_type": "ROOFTOP", "viewport": {"northeast": {"lat": 37.4977239802915, "lng": 126.9582279802915}, "southwest": {"lat": 37.4950260197085, "lng": 126.9555300197085}}}, "place_id": "ChIJzUGSjdahfDURxZ5P_MX-EdM", "types": ["establishment", "point_of_interest", "university"]}]}, "42999171": {"AfN": "sophia university", "Location": []}, "184646667": {"AfN": "sorbonne", "Location": [{"address_components": [{"long_name": "Sorbonne", "short_name": "Sorbonne", "types": ["route"]}, {"long_name": "Laguna Niguel", "short_name": "Laguna Niguel", "types": ["locality", "political"]}, {"long_name": "Orange County", "short_name": "Orange County", "types": ["administrative_area_level_2", "political"]}, {"long_name": "California", "short_name": "CA", "types": ["administrative_area_level_1", "political"]}, {"long_name": "United States", "short_name": "US", "types": ["country", "political"]}, {"long_name": "92677", "short_name": "92677", "types": ["postal_code"]}], "formatted_address": "Sorbonne, Laguna Niguel, CA 92677, USA", "geometry": {"bounds": {"northeast": {"lat": 33.5238762, "lng": -117.6956855}, "southwest": {"lat": 33.5218144, "lng": -117.6977276}}, "location": {"lat": 33.5231845, "lng": -117.6970288}, "location_type": "GEOMETRIC_CENTER", "viewport": {"northeast": {"lat": 33.5241942802915, "lng": -117.6953575697085}, "southwest": {"lat": 33.5214963197085, "lng": -117.6980555302915}}}, "place_id": "ChIJu4pe_Mnv3IARZANHAR8hYAo", "types": ["route"]}]}, "69416788": {"AfN": "south african institute for aquatic biodiversity", "Location": [{"address_components": [{"long_name": "Somerset Street", "short_name": "Somerset St", "types": ["route"]}, {"long_name": "Grahamstown", "short_name": "Grahamstown", "types": ["political", "sublocality", "sublocality_level_1"]}, {"long_name": "Grahamstown", "short_name": "Grahamstown", "types": ["locality", "political"]}, {"long_name": "Western District", "short_name": "Western District", "types": ["administrative_area_level_2", "political"]}, {"long_name": "Eastern Cape", "short_name": "EC", "types": ["administrative_area_level_1", "political"]}, {"long_name": "South Africa", "short_name": "ZA", "types": ["country", "political"]}, {"long_name": "6139", "short_name": "6139", "types": ["postal_code"]}], "formatted_address": "Somerset St, Grahamstown, 6139, South Africa", "geometry": {"location": {"lat": -33.310684, "lng": 26.5198588}, "location_type": "GEOMETRIC_CENTER", "viewport": {"northeast": {"lat": -33.30933501970851, "lng": 26.5212077802915}, "southwest": {"lat": -33.31203298029151, "lng": 26.51850981970849}}}, "place_id": "ChIJkaOcH9pdZB4R8I_VBwE6pfE", "types": ["establishment", "point_of_interest", "university"]}]}, "10947320": {"AfN": "south african medical research council", "Location": [{"address_components": [{"long_name": "1", "short_name": "1", "types": ["street_number"]}, {"long_name": "Chesterfield Road", "short_name": "Chesterfield Rd", "types": ["route"]}, {"long_name": "Willowton", "short_name": "Willowton", "types": ["political", "sublocality", "sublocality_level_1"]}, {"long_name": "Pietermaritzburg", "short_name": "PMB", "types": ["locality", "political"]}, {"long_name": "Indlovu DC", "short_name": "Indlovu DC", "types": ["administrative_area_level_2", "political"]}, {"long_name": "KwaZulu-Natal", "short_name": "KZN", "types": ["administrative_area_level_1", "political"]}, {"long_name": "South Africa", "short_name": "ZA", "types": ["country", "political"]}, {"long_name": "3201", "short_name": "3201", "types": ["postal_code"]}], "formatted_address": "1 Chesterfield Rd, Willowton, Pietermaritzburg, 3201, South Africa", "geometry": {"location": {"lat": -29.582679, "lng": 30.416194}, "location_type": "ROOFTOP", "viewport": {"northeast": {"lat": -29.5813300197085, "lng": 30.4175429802915}, "southwest": {"lat": -29.5840279802915, "lng": 30.4148450197085}}}, "place_id": "ChIJ6adlWwy89h4RFTAw2y82q4Q", "types": ["establishment", "point_of_interest"]}, {"address_components": [{"long_name": "9000", "short_name": "9000", "types": ["street_number"]}, {"long_name": "Center Drive", "short_name": "Center Dr", "types": ["route"]}, {"long_name": "Bethesda", "short_name": "Bethesda", "types": ["locality", "political"]}, {"long_name": "7", "short_name": "7", "types": ["administrative_area_level_3", "political"]}, {"long_name": "Montgomery County", "short_name": "Montgomery County", "types": ["administrative_area_level_2", "political"]}, {"long_name": "Maryland", "short_name": "MD", "types": ["administrative_area_level_1", "political"]}, {"long_name": "United States", "short_name": "US", "types": ["country", "political"]}, {"long_name": "20892", "short_name": "20892", "types": ["postal_code"]},