{"1304921434": {"AfN": "consumers union", "Location": [{"address_components": [{"long_name": "United States", "short_name": "US", "types": ["country", "political"]}], "formatted_address": "United States", "geometry": {"bounds": {"northeast": {"lat": 71.5388001, "lng": -66.885417}, "southwest": {"lat": 18.7763, "lng": 170.5957}}, "location": {"lat": 37.09024, "lng": -95.712891}, "location_type": "APPROXIMATE", "viewport": {"northeast": {"lat": 49.38, "lng": -66.94}, "southwest": {"lat": 25.82, "lng": -124.39}}}, "place_id": "ChIJCzYy5IS16lQRQrfeQ5K5Oxw", "types": ["country", "political"]}]}, "866251918": {"AfN": "continental motors inc", "Location": [{"address_components": [{"long_name": "8600", "short_name": "8600", "types": ["street_number"]}, {"long_name": "County Road 32", "short_name": "Co Rd 32", "types": ["route"]}, {"long_name": "Fairhope", "short_name": "Fairhope", "types": ["locality", "political"]}, {"long_name": "Baldwin County", "short_name": "Baldwin County", "types": ["administrative_area_level_2", "political"]}, {"long_name": "Alabama", "short_name": "AL", "types": ["administrative_area_level_1", "political"]}, {"long_name": "United States", "short_name": "US", "types": ["country", "political"]}, {"long_name": "36532", "short_name": "36532", "types": ["postal_code"]}, {"long_name": "5073", "short_name": "5073", "types": ["postal_code_suffix"]}], "formatted_address": "8600 Co Rd 32, Fairhope, AL 36532, USA", "geometry": {"location": {"lat": 30.4692566, "lng": -87.8779854}, "location_type": "ROOFTOP", "viewport": {"northeast": {"lat": 30.4706055802915, "lng": -87.8766364197085}, "southwest": {"lat": 30.4679076197085, "lng": -87.87933438029151}}}, "place_id": "ChIJp-itObY_mogRdeQZ83Bw2ks", "types": ["car_repair", "establishment", "point_of_interest"]}]}, "865432163": {"AfN": "control group", "Location": [{"address_components": [{"long_name": "203", "short_name": "203", "types": ["subpremise"]}, {"long_name": "2521", "short_name": "2521", "types": ["street_number"]}, {"long_name": "Technology Drive", "short_name": "Technology Dr", "types": ["route"]}, {"long_name": "Elgin", "short_name": "Elgin", "types": ["locality", "political"]}, {"long_name": "Dundee Township", "short_name": "Dundee Township", "types": ["administrative_area_level_3", "political"]}, {"long_name": "Kane County", "short_name": "Kane County", "types": ["administrative_area_level_2", "political"]}, {"long_name": "Illinois", "short_name": "IL", "types": ["administrative_area_level_1", "political"]}, {"long_name": "United States", "short_name": "US", "types": ["country", "political"]}, {"long_name": "60124", "short_name": "60124", "types": ["postal_code"]}], "formatted_address": "2521 Technology Dr #203, Elgin, IL 60124, USA", "geometry": {"location": {"lat": 42.0898287, "lng": -88.3392003}, "location_type": "ROOFTOP", "viewport": {"northeast": {"lat": 42.0911776802915, "lng": -88.33785131970849}, "southwest": {"lat": 42.0884797197085, "lng": -88.3405492802915}}}, "place_id": "ChIJa-nuvD4QD4gRz3eiDRIuYeA", "types": ["establishment", "point_of_interest"]}]}, "206204273": {"AfN": "converse college", "Location": [{"address_components": [{"long_name": "580", "short_name": "580", "types": ["street_number"]}, {"long_name": "East Main Street", "short_name": "E Main St", "types": ["route"]}, {"long_name": "Spartanburg", "short_name": "Spartanburg", "types": ["locality", "political"]}, {"long_name": "Spartanburg County", "short_name": "Spartanburg County", "types": ["administrative_area_level_2", "political"]}, {"long_name": "South Carolina", "short_name": "SC", "types": ["administrative_area_level_1", "political"]}, {"long_name": "United States", "short_name": "US", "types": ["country", "political"]}, {"long_name": "29302", "short_name": "29302", "types": ["postal_code"]}], "formatted_address": "580 E Main St, Spartanburg, SC 29302, USA", "geometry": {"location": {"lat": 34.954266, "lng": -81.91706599999999}, "location_type": "ROOFTOP", "viewport": {"northeast": {"lat": 34.9556149802915, "lng": -81.9157170197085}, "southwest": {"lat": 34.9529170197085, "lng": -81.9184149802915}}}, "place_id": "ChIJ5ZyFMIV1V4gR9kHnsnMjGtI", "types": ["establishment", "point_of_interest", "school", "university"]}]}, "8031829": {"AfN": "cooper union", "Location": [{"address_components": [{"long_name": "30", "short_name": "30", "types": ["street_number"]}, {"long_name": "Cooper Square", "short_name": "Cooper Sq", "types": ["route"]}, {"long_name": "Manhattan", "short_name": "Manhattan", "types": ["political", "sublocality", "sublocality_level_1"]}, {"long_name": "New York", "short_name": "New York", "types": ["locality", "political"]}, {"long_name": "New York County", "short_name": "New York County", "types": ["administrative_area_level_2", "political"]}, {"long_name": "New York", "short_name": "NY", "types": ["administrative_area_level_1", "political"]}, {"long_name": "United States", "short_name": "US", "types": ["country", "political"]}, {"long_name": "10003", "short_name": "10003", "types": ["postal_code"]}], "formatted_address": "30 Cooper Sq, New York, NY 10003, USA", "geometry": {"location": {"lat": 40.7280822, "lng": -73.99160859999999}, "location_type": "ROOFTOP", "viewport": {"northeast": {"lat": 40.7294311802915, "lng": -73.99025961970848}, "southwest": {"lat": 40.7267332197085, "lng": -73.99295758029149}}}, "place_id": "ChIJ3_Ehc5tZwokRRjbJ4YcwWxQ", "types": ["establishment", "point_of_interest", "school", "university"]}]}, "34226333": {"AfN": "cooperative institute for marine and atmospheric studies", "Location": [{"address_components": [{"long_name": "4600", "short_name": "4600", "types": ["street_number"]}, {"long_name": "Rickenbacker Causeway", "short_name": "Rickenbacker Causeway", "types": ["route"]}, {"long_name": "Key Biscayne", "short_name": "Key Biscayne", "types": ["locality", "political"]}, {"long_name": "Miami-Dade County", "short_name": "Miami-Dade County", "types": ["administrative_area_level_2", "political"]}, {"long_name": "Florida", "short_name": "FL", "types": ["administrative_area_level_1", "political"]}, {"long_name": "United States", "short_name": "US", "types": ["country", "political"]}, {"long_name": "33149", "short_name": "33149", "types": ["postal_code"]}, {"long_name": "1031", "short_name": "1031", "types": ["postal_code_suffix"]}], "formatted_address": "4600 Rickenbacker Causeway, Key Biscayne, FL 33149, USA", "geometry": {"location": {"lat": 25.7322012, "lng": -80.1637698}, "location_type": "ROOFTOP", "viewport": {"northeast": {"lat": 25.7335501802915, "lng": -80.1624208197085}, "southwest": {"lat": 25.7308522197085, "lng": -80.16511878029151}}}, "place_id": "ChIJ_Qdjxb-12YgR3L1R-dfJ1AQ", "types": ["establishment", "point_of_interest", "university"]}]}, "194601409": {"AfN": "cooperative institute for mesoscale meteorological studies", "Location": [{"address_components": [{"long_name": "660", "short_name": "660", "types": ["street_number"]}, {"long_name": "Parrington Oval", "short_name": "Parrington Oval", "types": ["route"]}, {"long_name": "Norman", "short_name": "Norman", "types": ["locality", "political"]}, {"long_name": "Cleveland County", "short_name": "Cleveland County", "types": ["administrative_area_level_2", "political"]}, {"long_name": "Oklahoma", "short_name": "OK", "types": ["administrative_area_level_1", "political"]}, {"long_name": "United States", "short_name": "US", "types": ["country", "political"]}, {"long_name": "73019", "short_name": "73019", "types": ["postal_code"]}], "formatted_address": "660 Parrington Oval, Norman, OK 73019, USA", "geometry": {"location": {"lat": 35.2058936, "lng": -97.4457137}, "location_type": "ROOFTOP", "viewport": {"northeast": {"lat": 35.2072425802915, "lng": -97.44436471970849}, "southwest": {"lat": 35.2045446197085, "lng": -97.44706268029151}}}, "place_id": "ChIJu1B_5itosocRVB4EKYPPvko", "types": ["establishment", "point_of_interest", "university"]}]}, "67155064": {"AfN": "cooperative institute for meteorological satellite studies", "Location": [{"address_components": [{"long_name": "1225", "short_name": "1225", "types": ["street_number"]}, {"long_name": "West Dayton Street", "short_name": "W Dayton St", "types": ["route"]}, {"long_name": "Madison", "short_name": "Madison", "types": ["locality", "political"]}, {"long_name": "Dane County", "short_name": "Dane County", "types": ["administrative_area_level_2", "political"]}, {"long_name": "Wisconsin", "short_name": "WI", "types": ["administrative_area_level_1", "political"]}, {"long_name": "United States", "short_name": "US", "types": ["country", "political"]}, {"long_name": "53706", "short_name": "53706", "types": ["postal_code"]}, {"long_name": "1612", "short_name": "1612", "types": ["postal_code_suffix"]}], "formatted_address": "1225 W Dayton St, Madison, WI 53706, USA", "geometry": {"location": {"lat": 43.0707346, "lng": -89.4069008}, "location_type": "ROOFTOP", "viewport": {"northeast": {"lat": 43.0720835802915, "lng": -89.40555181970849}, "southwest": {"lat": 43.0693856197085, "lng": -89.40824978029151}}}, "place_id": "ChIJa6LmTs-sB4gRTVFaaHfbUyg", "types": ["establishment", "point_of_interest"]}, {"address_components": [{"long_name": "Madison", "short_name": "Madison", "types": ["locality", "political"]}, {"long_name": "Dane County", "short_name": "Dane County", "types": ["administrative_area_level_2", "political"]}, {"long_name": "Wisconsin", "short_name": "WI", "types": ["administrative_area_level_1", "political"]}, {"long_name": "United States", "short_name": "US", "types": ["country", "political"]}, {"long_name": "53706", "short_name": "53706", "types": ["postal_code"]}], "formatted_address": "Madison, WI 53706, USA", "geometry": {"location": {"lat": 43.076592, "lng": -89.4124875}, "location_type": "GEOMETRIC_CENTER", "viewport": {"northeast": {"lat": 43.07794098029149, "lng": -89.41113851970849}, "southwest": {"lat": 43.07524301970849, "lng": -89.41383648029151}}}, "place_id": "ChIJHUh_CpWsB4gRZDpzkeBl4Mk", "types": ["establishment", "point_of_interest", "university"]}]}, "161675122": {"AfN": "cooperative institute for research in environmental sciences", "Location": [{"address_components": [{"long_name": "Boulder", "short_name": "Boulder", "types": ["locality", "political"]}, {"long_name": "Colorado", "short_name": "CO", "types": ["administrative_area_level_1", "political"]}, {"long_name": "United States", "short_name": "US", "types": ["country", "political"]}, {"long_name": "80309", "short_name": "80309", "types": ["postal_code"]}], "formatted_address": "216 UCB, University of Colorado Boulder campus, Boulder, CO 80309, United States", "geometry": {"location": {"lat": 40.007934, "lng": -105.271659}, "location_type": "GEOMETRIC_CENTER", "viewport": {"northeast": {"lat": 40.00928298029149, "lng": -105.2703100197085}, "southwest": {"lat": 40.0065850197085, "lng": -105.2730079802915}}}, "place_id": "ChIJFw-w5TPsa4cRkXAr4KljtA8", "types": ["establishment", "point_of_interest", "university"]}]}, "90873290": {"AfN": "cooperative institute for research in the atmosphere", "Location": [{"address_components": [{"long_name": "3785", "short_name": "3785", "types": ["street_number"]}, {"long_name": "Laporte Avenue", "short_name": "Laporte Ave", "types": ["route"]}, {"long_name": "Fort Collins", "short_name": "Fort Collins", "types": ["locality", "political"]}, {"long_name": "Larimer County", "short_name": "Larimer County", "types": ["administrative_area_level_2", "political"]}, {"long_name": "Colorado", "short_name": "CO", "types": ["administrative_area_level_1", "political"]}, {"long_name": "United States", "short_name": "US", "types": ["country", "political"]}, {"long_name": "80521", "short_name": "80521", "types": ["postal_code"]}], "formatted_address": "3785 Laporte Ave, Fort Collins, CO 80521, USA", "geometry": {"location": {"lat": 40.587338, "lng": -105.1471914}, "location_type": "ROOFTOP", "viewport": {"northeast": {"lat": 40.5886869802915, "lng": -105.1458424197085}, "southwest": {"lat": 40.5859890197085, "lng": -105.1485403802915}}}, "place_id": "ChIJrzvacOhJaYcRgwUXLeB3Z7c", "types": ["establishment", "point_of_interest", "university"]}]}, "1306932309": {"AfN": "cooperative research centre", "Location": [{"address_components": [{"long_name": "Boulder", "short_name": "Boulder", "types": ["locality", "political"]}, {"long_name": "Colorado", "short_name": "CO", "types": ["administrative_area_level_1", "political"]}, {"long_name": "United States", "short_name": "US", "types": ["country", "political"]}, {"long_name": "80309", "short_name": "80309", "types": ["postal_code"]}], "formatted_address": "216 UCB, University of Colorado Boulder campus, Boulder, CO 80309, United States", "geometry": {"location": {"lat": 40.007934, "lng": -105.271659}, "location_type": "GEOMETRIC_CENTER", "viewport": {"northeast": {"lat": 40.00928298029149, "lng": -105.2703100197085}, "southwest": {"lat": 40.0065850197085, "lng": -105.2730079802915}}}, "place_id": "ChIJFw-w5TPsa4cRkXAr4KljtA8", "types": ["establishment", "point_of_interest", "university"]}]}, "896072570": {"AfN": "coordenadoria de aperfeicoamento de pessoal de nivel superior", "Location": [{"address_components": [{"long_name": "Lote 06", "short_name": "Lote 06", "types": ["subpremise"]}, {"long_name": "Bloco L", "short_name": "Bloco L", "types": ["political", "sublocality", "sublocality_level_5"]}, {"long_name": "Quadra 2", "short_name": "Quadra 2", "types": ["political", "sublocality", "sublocality_level_3"]}, {"long_name": "Setor Banc\u00e1rio Norte (SBN)", "short_name": "Setor Banc\u00e1rio Norte (SBN)", "types": ["political", "sublocality", "sublocality_level_2"]}, {"long_name": "Asa Norte", "short_name": "Asa Norte", "types": ["political", "sublocality", "sublocality_level_1"]}, {"long_name": "Bras\u00edlia", "short_name": "Bras\u00edlia", "types": ["administrative_area_level_2", "political"]}, {"long_name": "Distrito Federal", "short_name": "DF", "types": ["administrative_area_level_1", "political"]}, {"long_name": "Brazil", "short_name": "BR", "types": ["country", "political"]}, {"long_name": "70040-020", "short_name": "70040-020", "types": ["postal_code"]}], "formatted_address": "Setor Banc\u00e1rio Norte (SBN) Quadra 2 Bloco L Lote 06 - Asa Norte, Bras\u00edlia - DF, 70040-020, Brazil", "geometry": {"location": {"lat": -15.7880387, "lng": -47.87820869999999}, "location_type": "ROOFTOP", "viewport": {"northeast": {"lat": -15.7866897197085, "lng": -47.8768597197085}, "southwest": {"lat": -15.7893876802915, "lng": -47.8795576802915}}}, "partial_match": true, "place_id": "ChIJ54V9RQM7WpMRtYtLmDh92hw", "types": ["establishment", "point_of_interest"]}]}, "908295793": {"AfN": "coordinadora mercantil s a", "Location": [{"address_components": [{"long_name": "# 2B", "short_name": "# 2B", "types": ["subpremise"]}, {"long_name": "7630", "short_name": "7630", "types": ["street_number"]}, {"long_name": "Northwest 25th Street", "short_name": "NW 25th St", "types": ["route"]}, {"long_name": "Miami", "short_name": "Miami", "types": ["locality", "political"]}, {"long_name": "Miami-Dade County", "short_name": "Miami-Dade County", "types": ["administrative_area_level_2", "political"]}, {"long_name": "Florida", "short_name": "FL", "types": ["administrative_area_level_1", "political"]}, {"long_name": "United States", "short_name": "US", "types": ["country", "political"]}, {"long_name": "33122", "short_name": "33122", "types": ["postal_code"]}], "formatted_address": "7630 NW 25th St # 2B, Miami, FL 33122, USA", "geometry": {"location": {"lat": 25.7934916, "lng": -80.3203363}, "location_type": "ROOFTOP", "viewport": {"northeast": {"lat": 25.7948405802915, "lng": -80.31898731970848}, "southwest": {"lat": 25.7921426197085, "lng": -80.32168528029149}}}, "place_id": "ChIJS3IVJy672YgRnKoaVwMxm6A", "types": ["establishment", "point_of_interest"]}]}, "180519160": {"AfN": "copenhagen business school", "Location": [{"address_components": [{"long_name": "3", "short_name": "3", "types": ["street_number"]}, {"long_name": "Solbjerg Plads", "short_name": "Solbjerg Pl.", "types": ["route"]}, {"long_name": "Frederiksberg", "short_name": "Frederiksberg", "types": ["locality", "political"]}, {"long_name": "Denmark", "short_name": "DK", "types": ["country", "political"]}, {"long_name": "2000", "short_name": "2000", "types": ["postal_code"]}], "formatted_address": "Solbjerg Pl. 3, 2000 Frederiksberg, Denmark", "geometry": {"location": {"lat": 55.681611, "lng": 12.529679}, "location_type": "ROOFTOP", "viewport": {"northeast": {"lat": 55.6829599802915, "lng": 12.5310279802915}, "southwest": {"lat": 55.6802620197085, "lng": 12.5283300197085}}}, "place_id": "ChIJX5GUWLlTUkYRjmZ58BoOS_Q", "types": ["establishment", "point_of_interest", "university"]}]}, "896533246": {"AfN": "cora", "Location": [{"address_components": [{"long_name": "277", "short_name": "277", "types": ["street_number"]}, {"long_name": "Wellington Street West", "short_name": "Wellington St W", "types": ["route"]}, {"long_name": "Old Toronto", "short_name": "Old Toronto", "types": ["political", "sublocality", "sublocality_level_1"]}, {"long_name": "Toronto", "short_name": "Toronto", "types": ["locality", "political"]}, {"long_name": "Toronto Division", "short_name": "Toronto Division", "types": ["administrative_area_level_2", "political"]}, {"long_name": "Ontario", "short_name": "ON", "types": ["administrative_area_level_1", "political"]}, {"long_name": "Canada", "short_name": "CA", "types": ["country", "political"]}, {"long_name": "M5V 3E4", "short_name": "M5V 3E4", "types": ["postal_code"]}], "formatted_address": "277 Wellington St W, Toronto, ON M5V 3E4, Canada", "geometry": {"location": {"lat": 43.644543, "lng": -79.391564}, "location_type": "ROOFTOP", "viewport": {"northeast": {"lat": 43.6458919802915, "lng": -79.39021501970849}, "southwest": {"lat": 43.6431940197085, "lng": -79.3929129802915}}}, "place_id": "ChIJ7U0WWNc0K4gRyFSZVDr2CGE", "types": ["establishment", "food", "point_of_interest", "restaurant"]}]}, "891977094": {"AfN": "cordis", "Location": [{"address_components": [{"long_name": "1820", "short_name": "1820", "types": ["street_number"]}, {"long_name": "McCarthy Boulevard", "short_name": "McCarthy Blvd", "types": ["route"]}, {"long_name": "Milpitas", "short_name": "Milpitas", "types": ["locality", "political"]}, {"long_name": "Santa Clara County", "short_name": "Santa Clara County", "types": ["administrative_area_level_2", "political"]}, {"long_name": "California", "short_name": "CA", "types": ["administrative_area_level_1", "political"]}, {"long_name": "United States", "short_name": "US", "types": ["country", "political"]}, {"long_name": "95035", "short_name": "95035", "types": ["postal_code"]}, {"long_name": "7425", "short_name": "7425", "types": ["postal_code_suffix"]}], "formatted_address": "1820 McCarthy Blvd, Milpitas, CA 95035, USA", "geometry": {"location": {"lat": 37.4005636, "lng": -121.9134523}, "location_type": "ROOFTOP", "viewport": {"northeast": {"lat": 37.4019125802915, "lng": -121.9121033197085}, "southwest": {"lat": 37.3992146197085, "lng": -121.9148012802915}}}, "place_id": "ChIJLSGtp2y-j4ARdEZZeIneCRE", "types": ["establishment", "point_of_interest"]}]}, "900968951": {"AfN": "cork college of commerce", "Location": [{"address_components": [{"long_name": "Morrisons Island", "short_name": "Morrisons Island", "types": ["route"]}, {"long_name": "Centre", "short_name": "Centre", "types": ["neighborhood", "political"]}, {"long_name": "Cork", "short_name": "Cork", "types": ["locality", "political"]}, {"long_name": "County Cork", "short_name": "County Cork", "types": ["administrative_area_level_1", "political"]}, {"long_name": "Ireland", "short_name": "IE", "types": ["country", "political"]}], "formatted_address": "Morrisons Island, Centre, Cork, Ireland", "geometry": {"location": {"lat": 51.89564319999999, "lng": -8.4694212}, "location_type": "GEOMETRIC_CENTER", "viewport": {"northeast": {"lat": 51.8969921802915, "lng": -8.468072219708496}, "southwest": {"lat": 51.8942942197085, "lng": -8.4707701802915}}}, "place_id": "ChIJ1Qj7lIKXREgRIFRTYhy7zr0", "types": ["establishment", "point_of_interest", "university"]}]}, "31982419": {"AfN": "cork institute of technology", "Location": [{"address_components": [{"long_name": "Bishopstown", "short_name": "Bishopstown", "types": ["political", "sublocality", "sublocality_level_1"]}, {"long_name": "Cork", "short_name": "Cork", "types": ["postal_town"]}, {"long_name": "Co. Cork", "short_name": "Co. Cork", "types": ["administrative_area_level_1", "political"]}, {"long_name": "Ireland", "short_name": "IE", "types": ["country", "political"]}, {"long_name": "T12 P928", "short_name": "T12 P928", "types": ["postal_code"]}], "formatted_address": "Rossa Avenue, Bishopstown, Cork, T12 P928, Ireland", "geometry": {"location": {"lat": 51.886048, "lng": -8.533569}, "location_type": "GEOMETRIC_CENTER", "viewport": {"northeast": {"lat": 51.88739698029149, "lng": -8.532220019708499}, "southwest": {"lat": 51.88469901970849, "lng": -8.534917980291503}}}, "place_id": "ChIJNTHdX96RREgR9tJ72pfnXsE", "types": ["establishment", "point_of_interest", "university"]}]}, "145220665": {"AfN": "cornell college", "Location": [{"address_components": [{"long_name": "600", "short_name": "600", "types": ["street_number"]}, {"long_name": "1st Street", "short_name": "1st St", "types": ["route"]}, {"long_name": "Mount Vernon", "short_name": "Mt Vernon", "types": ["locality", "political"]}, {"long_name": "Franklin", "short_name": "Franklin", "types": ["administrative_area_level_3", "political"]}, {"long_name": "Linn County", "short_name": "Linn County", "types": ["administrative_area_level_2", "political"]}, {"long_name": "Iowa", "short_name": "IA", "types": ["administrative_area_level_1", "political"]}, {"long_name": "United States", "short_name": "US", "types": ["country", "political"]}, {"long_name": "52314", "short_name": "52314", "types": ["postal_code"]}], "formatted_address": "600 1st St, Mt Vernon, IA 52314, USA", "geometry": {"location": {"lat": 41.92695459999999, "lng": -91.4253502}, "location_type": "ROOFTOP", "viewport": {"northeast": {"lat": 41.9283035802915, "lng": -91.42400121970849}, "southwest": {"lat": 41.9256056197085, "lng": -91.4266991802915}}}, "place_id": "ChIJE-M_H-qJ5IcRotgmk9dspuo", "types": ["establishment", "point_of_interest", "university"]}, {"address_components": [{"long_name": "Ithaca", "short_name": "Ithaca", "types": ["locality", "political"]}, {"long_name": "New York", "short_name": "NY", "types": ["administrative_area_level_1", "political"]}, {"long_name": "United States", "short_name": "US", "types": ["country", "political"]}, {"long_name": "14850", "short_name": "14850", "types": ["postal_code"]}], "formatted_address": "Martha Van Rensselaer Hall, #170, Ithaca, NY 14850, United States", "geometry": {"location": {"lat": 42.44969280000001, "lng": -76.47905}, "location_type": "GEOMETRIC_CENTER", "viewport": {"northeast": {"lat": 42.45104178029151, "lng": -76.47770101970849}, "southwest": {"lat": 42.44834381970851, "lng": -76.4803989802915}}}, "place_id": "ChIJndqRYRqC0IkRvSE1g2kRzaI", "types": ["establishment", "point_of_interest", "university"]}]}, "205783295": {"AfN": "cornell university", "Location": [{"address_components": [{"long_name": "Ithaca", "short_name": "Ithaca", "types": ["locality", "political"]}, {"long_name": "Tompkins County", "short_name": "Tompkins County", "types": ["administrative_area_level_2", "political"]}, {"long_name": "New York", "short_name": "NY", "types": ["administrative_area_level_1", "political"]}, {"long_name": "United States", "short_name": "US", "types": ["country", "political"]}, {"long_name": "14850", "short_name": "14850", "types": ["postal_code"]}], "formatted_address": "Ithaca, NY 14850, USA", "geometry": {"location": {"lat": 42.4534492, "lng": -76.4735027}, "location_type": "GEOMETRIC_CENTER", "viewport": {"northeast": {"lat": 42.4547981802915, "lng": -76.4721537197085}, "southwest": {"lat": 42.4521002197085, "lng": -76.47485168029151}}}, "place_id": "ChIJndqRYRqC0IkR9J8bgk3mDvU", "types": ["establishment", "point_of_interest", "university"]}]}, "202198295": {"AfN": "cornerstone research", "Location": [{"address_components": [{"long_name": "Chicago", "short_name": "Chicago", "types": ["locality", "political"]}, {"long_name": "Illinois", "short_name": "IL", "types": ["administrative_area_level_1", "political"]}, {"long_name": "United States", "short_name": "US", "types": ["country", "political"]}, {"long_name": "60602", "short_name": "60602", "types": ["postal_code"]}, {"long_name": "4558", "short_name": "4558", "types": ["postal_code_suffix"]}], "formatted_address": "181 West Madison Street, 43rd Floor, Chicago, IL 60602, United States", "geometry": {"location": {"lat": 41.881618, "lng": -87.633332}, "location_type": "GEOMETRIC_CENTER", "viewport": {"northeast": {"lat": 41.88296698029149, "lng": -87.6319830197085}, "southwest": {"lat": 41.88026901970849, "lng": -87.6346809802915}}}, "place_id": "ChIJ6cHvZbksDogRCAYYYUZYEoA", "types": ["establishment", "finance", "point_of_interest"]}]}, "1338503839": {"AfN": "corning inc", "Location": [{"address_components": [{"long_name": "14556", "short_name": "14556", "types": ["street_number"]}, {"long_name": "U.S. 601", "short_name": "US-601", "types": ["route"]}, {"long_name": "Midland", "short_name": "Midland", "types": ["locality", "political"]}, {"long_name": "10, Midland", "short_name": "10, Midland", "types": ["administrative_area_level_3", "political"]}, {"long_name": "Cabarrus County", "short_name": "Cabarrus County", "types": ["administrative_area_level_2", "political"]}, {"long_name": "North Carolina", "short_name": "NC", "types": ["administrative_area_level_1", "political"]}, {"long_name": "United States", "short_name": "US", "types": ["country", "political"]}, {"long_name": "28107", "short_name": "28107", "types": ["postal_code"]}, {"long_name": "9245", "short_name": "9245", "types": ["postal_code_suffix"]}], "formatted_address": "14556 US-601, Midland, NC 28107, USA", "geometry": {"location": {"lat": 35.2143839, "lng": -80.5224041}, "location_type": "ROOFTOP", "viewport": {"northeast": {"lat": 35.2157328802915, "lng": -80.52105511970849}, "southwest": {"lat": 35.2130349197085, "lng": -80.52375308029151}}}, "place_id": "ChIJUV346OoVVIgRY8g8oSio4oM", "types": ["establishment", "point_of_interest"]}]}, "163245316": {"AfN": "corvinus university of budapest", "Location": [{"address_components": [{"long_name": "8.", "short_name": "8.", "types": ["street_number"]}, {"long_name": "F\u0151v\u00e1m t\u00e9r", "short_name": "F\u0151v\u00e1m t\u00e9r", "types": ["route"]}, {"long_name": "IX. ker\u00fclet", "short_name": "IX. ker\u00fclet", "types": ["political", "sublocality", "sublocality_level_1"]}, {"long_name": "Budapest", "short_name": "Budapest", "types": ["locality", "political"]}, {"long_name": "Hungary", "short_name": "HU", "types": ["country", "political"]}, {"long_name": "1093", "short_name": "1093", "types": ["postal_code"]}], "formatted_address": "Budapest, F\u0151v\u00e1m t\u00e9r 8., 1093 Hungary", "geometry": {"location": {"lat": 47.486135, "lng": 19.057964}, "location_type": "ROOFTOP", "viewport": {"northeast": {"lat": 47.48748398029151, "lng": 19.0593129802915}, "southwest": {"lat": 47.48478601970851, "lng": 19.0566150197085}}}, "place_id": "ChIJab6IJFDcQUcRKYFD-1fnt8U", "types": ["establishment", "point_of_interest", "university"]}]}, "85659835": {"AfN": "cosmetic ingredient review", "Location": [{"address_components": [{"long_name": "# 412", "short_name": "# 412", "types": ["subpremise"]}, {"long_name": "1101", "short_name": "1101", "types": ["street_number"]}, {"long_name": "17th Street Northwest", "short_name": "17th St NW", "types": ["route"]}, {"long_name": "Downtown", "short_name": "Downtown", "types": ["neighborhood", "political"]}, {"long_name": "Washington", "short_name": "Washington", "types": ["locality", "political"]}, {"long_name": "District of Columbia", "short_name": "DC", "types": ["administrative_area_level_1", "political"]}, {"long_name": "United States", "short_name": "US", "types": ["country", "political"]}, {"long_name": "20036", "short_name": "20036", "types": ["postal_code"]}, {"long_name": "4720", "short_name": "4720", "types": ["postal_code_suffix"]}], "formatted_address": "1101 17th St NW # 412, Washington, DC 20036, USA", "geometry": {"location": {"lat": 38.9040782, "lng": -77.0379947}, "location_type": "ROOFTOP", "viewport": {"northeast": {"lat": 38.9054271802915, "lng": -77.03664571970849}, "southwest": {"lat": 38.9027292197085, "lng": -77.0393436802915}}}, "place_id": "ChIJtZtGJ7-3t4kRIDnbO6SioU8", "types": ["establishment", "point_of_interest", "store"]}]}, "145372079": {"AfN": "costa rica institute of technology", "Location": [{"address_components": [{"long_name": "Cartago", "short_name": "Cartago", "types": ["locality", "political"]}, {"long_name": "Provincia de Cartago", "short_name": "Provincia de Cartago", "types": ["administrative_area_level_1", "political"]}, {"long_name": "Costa Rica", "short_name": "CR", "types": ["country", "political"]}, {"long_name": "30101", "short_name": "30101", "types": ["postal_code"]}], "formatted_address": "Calle 15, Avenida 14., 1 km Sur de la Bas\u00edlica de los \u00c1ngeles., Provincia de Cartago, Cartago, 30101, Costa Rica", "geometry": {"location": {"lat": 9.857247, "lng": -83.912313}, "location_type": "GEOMETRIC_CENTER", "viewport": {"northeast": {"lat": 9.8585959802915, "lng": -83.91096401970849}, "southwest": {"lat": 9.855898019708496, "lng": -83.9136619802915}}}, "place_id": "ChIJO9dAlvLfoI8Rf5SoXbgZHsE", "types": ["establishment", "point_of_interest", "university"]}]}, "203291541": {"AfN": "cotton incorporated", "Location": [{"address_components": [{"long_name": "488", "short_name": "488", "types": ["street_number"]}, {"long_name": "Madison Avenue", "short_name": "Madison Ave", "types": ["route"]}, {"long_name": "Manhattan", "short_name": "Manhattan", "types": ["political", "sublocality", "sublocality_level_1"]}, {"long_name": "New York", "short_name": "New York", "types": ["locality", "political"]}, {"long_name": "New York County", "short_name": "New York County", "types": ["administrative_area_level_2", "political"]}, {"long_name": "New York", "short_name": "NY", "types": ["administrative_area_level_1", "political"]}, {"long_name": "United States", "short_name": "US", "types": ["country", "political"]}, {"long_name": "10022", "short_name": "10022", "types": ["postal_code"]}], "formatted_address": "488 Madison Ave, New York, NY 10022, USA", "geometry": {"location": {"lat": 40.7588779, "lng": -73.9753812}, "location_type": "ROOFTOP", "viewport": {"northeast": {"lat": 40.7602268802915, "lng": -73.9740322197085}, "southwest": {"lat": 40.75752891970851, "lng": -73.97673018029151}}}, "place_id": "ChIJfWPAd_xYwokRvVT6XXV2jqI", "types": ["establishment", "point_of_interest"]}]}, "21360634": {"AfN": "council for scientific and industrial research", "Location": [{"address_components": [{"long_name": "New Delhi", "short_name": "New Delhi", "types": ["locality", "political"]}, {"long_name": "Delhi", "short_name": "DL", "types": ["administrative_area_level_1", "political"]}, {"long_name": "India", "short_name": "IN", "types": ["country", "political"]}, {"long_name": "110001", "short_name": "110001", "types": ["postal_code"]}], "formatted_address": "Anusandhan Bhawan, 2 Rafi Marg, New Delhi, Delhi 110001, India", "geometry": {"location": {"lat": 28.618146, "lng": 77.211917}, "location_type": "GEOMETRIC_CENTER", "viewport": {"northeast": {"lat": 28.61949498029151, "lng": 77.21326598029151}, "southwest": {"lat": 28.6167970197085, "lng": 77.2105680197085}}}, "place_id": "ChIJI020CLTiDDkR4l5hUtq8pyE", "types": ["establishment", "point_of_interest"]}]}, "1340750265": {"AfN": "council of independent colleges", "Location": [{"address_components": [{"long_name": "# 320", "short_name": "# 320", "types": ["subpremise"]}, {"long_name": "1", "short_name": "1", "types": ["street_number"]}, {"long_name": "Dupont Circle Northwest", "short_name": "Dupont Cir NW", "types": ["route"]}, {"long_name": "Downtown", "short_name": "Downtown", "types": ["neighborhood", "political"]}, {"long_name": "Washington", "short_name": "Washington", "types": ["locality", "political"]}, {"long_name": "District of Columbia", "short_name": "DC", "types": ["administrative_area_level_1", "political"]}, {"long_name": "United States", "short_name": "US", "types": ["country", "political"]}, {"long_name": "20036", "short_name": "20036", "types": ["postal_code"]}, {"long_name": "1142", "short_name": "1142", "types": ["postal_code_suffix"]}], "formatted_address": "1 Dupont Cir NW # 320, Washington, DC 20036, USA", "geometry": {"location": {"lat": 38.909113, "lng": -77.04442999999999}, "location_type": "ROOFTOP", "viewport": {"northeast": {"lat": 38.9104619802915, "lng": -77.04308101970848}, "southwest": {"lat": 38.9077640197085, "lng": -77.0457789802915}}}, "place_id": "ChIJ88R62se3t4kRwsSrrvBvQZs", "types": ["establishment", "point_of_interest"]}]}, "66760702": {"AfN": "council of scientific and industrial research", "Location": [{"address_components": [{"long_name": "New Delhi", "short_name": "New Delhi", "types": ["locality", "political"]}, {"long_name": "Delhi", "short_name": "DL", "types": ["administrative_area_level_1", "political"]}, {"long_name": "India", "short_name": "IN", "types": ["country", "political"]}, {"long_name": "110001", "short_name": "110001", "types": ["postal_code"]}], "formatted_address": "Anusandhan Bhawan, 2 Rafi Marg, New Delhi, Delhi 110001, India", "geometry": {"location": {"lat": 28.618146, "lng": 77.211917}, "location_type": "GEOMETRIC_CENTER", "viewport": {"northeast": {"lat": 28.61949498029151, "lng": 77.21326598029151}, "southwest": {"lat": 28.6167970197085, "lng": 77.2105680197085}}}, "place_id": "ChIJI020CLTiDDkR4l5hUtq8pyE", "types": ["establishment", "point_of_interest"]}]}, "1343312335": {"AfN": "council of state governments", "Location": [{"address_components": [{"long_name": "1776", "short_name": "1776", "types": ["street_number"]}, {"long_name": "Avenue of the States", "short_name": "Avenue of the States", "types": ["route"]}, {"long_name": "Lexington", "short_name": "Lexington", "types": ["locality", "political"]}, {"long_name": "Fayette County", "short_name": "Fayette County", "types": ["administrative_area_level_2", "political"]}, {"long_name": "Kentucky", "short_name": "KY", "types": ["administrative_area_level_1", "political"]}, {"long_name": "United States", "short_name": "US", "types": ["country", "political"]}, {"long_name": "40511", "short_name": "40511", "types": ["postal_code"]}], "formatted_address": "1776 Avenue of the States, Lexington, KY 40511, USA", "geometry": {"location": {"lat": 38.1361889, "lng": -84.506086}, "location_type": "ROOFTOP", "viewport": {"northeast": {"lat": 38.1375378802915, "lng": -84.50473701970849}, "southwest": {"lat": 38.1348399197085, "lng": -84.50743498029149}}}, "place_id": "ChIJBQ8VcdtGQogRsgu3mbSZwE8", "types": ["establishment", "point_of_interest"]}]}, "1299736976": {"AfN": "council on education for public health", "Location": []}, "1302033884": {"AfN": "council on foreign relations", "Location": [{"address_components": [{"long_name": "# 100", "short_name": "# 100", "types": ["subpremise"]}, {"long_name": "1777", "short_name": "1777", "types": ["street_number"]}, {"long_name": "F Street Northwest", "short_name": "F St NW", "types": ["route"]}, {"long_name": "Connecticut Ave/ K Street", "short_name": "Connecticut Ave/ K Street", "types": ["neighborhood", "political"]}, {"long_name": "Washington", "short_name": "Washington", "types": ["locality", "political"]}, {"long_name": "District of Columbia", "short_name": "DC", "types": ["administrative_area_level_1", "political"]}, {"long_name": "United States", "short_name": "US", "types": ["country", "political"]}, {"long_name": "20006", "short_name": "20006", "types": ["postal_code"]}, {"long_name": "5212", "short_name": "5212", "types": ["postal_code_suffix"]}], "formatted_address": "1777 F St NW # 100, Washington, DC 20006, USA", "geometry": {"location": {"lat": 38.897563, "lng": -77.041276}, "location_type": "ROOFTOP", "viewport": {"northeast": {"lat": 38.8989119802915, "lng": -77.0399270197085}, "southwest": {"lat": 38.8962140197085, "lng": -77.0426249802915}}}, "place_id": "ChIJAwqbO7u3t4kRiDhEljRInlo", "types": ["establishment", "point_of_interest"]}]}, "36672615": {"AfN": "courant institute of mathematical sciences", "Location": [{"address_components": [{"long_name": "801", "short_name": "801", "types": ["subpremise"]}, {"long_name": "251", "short_name": "251", "types": ["street_number"]}, {"long_name": "Mercer Street", "short_name": "Mercer St", "types": ["route"]}, {"long_name": "Manhattan", "short_name": "Manhattan", "types": ["political", "sublocality", "sublocality_level_1"]}, {"long_name": "New York", "short_name": "New York", "types": ["locality", "political"]}, {"long_name": "New York County", "short_name": "New York County", "types": ["administrative_area_level_2", "political"]}, {"long_name": "New York", "short_name": "NY", "types": ["administrative_area_level_1", "political"]}, {"long_name": "United States", "short_name": "US", "types": ["country", "political"]}, {"long_name": "10012", "short_name": "10012", "types": ["postal_code"]}], "formatted_address": "251 Mercer St #801, New York, NY 10012, USA", "geometry": {"location": {"lat": 40.7286679, "lng": -73.9956593}, "location_type": "ROOFTOP", "viewport": {"northeast": {"lat": 40.7300168802915, "lng": -73.9943103197085}, "southwest": {"lat": 40.7273189197085, "lng": -73.99700828029151}}}, "place_id": "ChIJOQ8GbZBZwokR7XMOCVaCVtM", "types": ["establishment", "point_of_interest"]}]}, "107603542": {"AfN": "courtauld institute of art", "Location": [{"address_components": [{"long_name": "Strand", "short_name": "Strand", "types": ["route"]}, {"long_name": "London", "short_name": "London", "types": ["postal_town"]}, {"long_name": "Greater London", "short_name": "Greater London", "types": ["administrative_area_level_2", "political"]}, {"long_name": "England", "short_name": "England", "types": ["administrative_area_level_1", "political"]}, {"long_name": "United Kingdom", "short_name": "GB", "types": ["country", "political"]}, {"long_name": "WC2R 0RN", "short_name": "WC2R 0RN", "types": ["postal_code"]}], "formatted_address": "Strand, London WC2R 0RN, UK", "geometry": {"location": {"lat": 51.511607, "lng": -0.1173949}, "location_type": "GEOMETRIC_CENTER", "viewport": {"northeast": {"lat": 51.5129559802915, "lng": -0.116045919708498}, "southwest": {"lat": 51.5102580197085, "lng": -0.118743880291502}}}, "place_id": "ChIJvZhvcMoEdkgRB5qnzGs_VNw", "types": ["art_gallery", "establishment", "point_of_interest", "university"]}]}, "128243007": {"AfN": "covenant college", "Location": [{"address_components": [{"long_name": "14049", "short_name": "14049", "types": ["street_number"]}, {"long_name": "Scenic Highway", "short_name": "Scenic Hwy", "types": ["route"]}, {"long_name": "Lookout Mountain", "short_name": "Lookout Mountain", "types": ["locality", "political"]}, {"long_name": "Dade County", "short_name": "Dade County", "types": ["administrative_area_level_2", "political"]}, {"long_name": "Georgia", "short_name": "GA", "types": ["administrative_area_level_1", "political"]}, {"long_name": "United States", "short_name": "US", "types": ["country", "political"]}, {"long_name": "30750", "short_name": "30750", "types": ["postal_code"]}], "formatted_address": "14049 Scenic Hwy, Lookout Mountain, GA 30750, USA", "geometry": {"location": {"lat": 34.9646194, "lng": -85.3751114}, "location_type": "ROOFTOP", "viewport": {"northeast": {"lat": 34.9659683802915, "lng": -85.37376241970848}, "southwest": {"lat": 34.9632704197085, "lng": -85.3764603802915}}}, "place_id": "ChIJNQJNP0dbYIgRogbS3c-aL9s", "types": ["establishment", "point_of_interest", "university"]}]}, "186771145": {"AfN": "covenant university", "Location": [{"address_components": [{"long_name": "10", "short_name": "10", "types": ["street_number"]}, {"long_name": "Idiroko Road", "short_name": "Idiroko Rd", "types": ["route"]}, {"long_name": "Ota", "short_name": "Ota", "types": ["locality", "political"]}, {"long_name": "Ado Odo/Ota", "short_name": "Ado Odo/Ota", "types": ["administrative_area_level_2", "political"]}, {"long_name": "Ogun State", "short_name": "OG", "types": ["administrative_area_level_1", "political"]}, {"long_name": "Nigeria", "short_name": "NG", "types": ["country", "political"]}], "formatted_address": "10 Idiroko Rd, Ota, Nigeria", "geometry": {"location": {"lat": 6.6718232, "lng": 3.1581253}, "location_type": "ROOFTOP", "viewport": {"northeast": {"lat": 6.673172180291502, "lng": 3.159474280291502}, "southwest": {"lat": 6.670474219708497, "lng": 3.156776319708499}}}, "place_id": "ChIJXT95K8yeOxARkIUeL8MSxu0", "types": ["establishment", "point_of_interest", "university"]}]}, "878227088": {"AfN": "coventry health care", "Location": [{"address_components": [{"long_name": "5125", "short_name": "5125", "types": ["street_number"]}, {"long_name": "East 99th Street", "short_name": "E 99th St", "types": ["route"]}, {"long_name": "Tulsa", "short_name": "Tulsa", "types": ["locality", "political"]}, {"long_name": "Tulsa County", "short_name": "Tulsa County", "types": ["administrative_area_level_2", "political"]}, {"long_name": "Oklahoma", "short_name": "OK", "types": ["administrative_area_level_1", "political"]}, {"long_name": "United States", "short_name": "US", "types": ["country", "political"]}, {"long_name": "74137", "short_name": "74137", "types": ["postal_code"]}, {"long_name": "5406", "short_name": "5406", "types": ["postal_code_suffix"]}], "formatted_address": "5125 E 99th St, Tulsa, OK 74137, USA", "geometry": {"location": {"lat": 36.0181349, "lng": -95.9212974}, "location_type": "ROOFTOP", "viewport": {"northeast": {"lat": 36.0194838802915, "lng": -95.9199484197085}, "southwest": {"lat": 36.0167859197085, "lng": -95.92264638029151}}}, "place_id": "ChIJyTbT6pKRtocRhywJaqDVFeg", "types": ["establishment", "health", "insurance_agency", "point_of_interest"]}]}, "73417466": {"AfN": "coventry university", "Location": [{"address_components": [{"long_name": "Priory Street", "short_name": "Priory St", "types": ["route"]}, {"long_name": "Coventry", "short_name": "Coventry", "types": ["postal_town"]}, {"long_name": "West Midlands", "short_name": "West Midlands", "types": ["administrative_area_level_2", "political"]}, {"long_name": "England", "short_name": "England", "types": ["administrative_area_level_1", "political"]}, {"long_name": "United Kingdom", "short_name": "GB", "types": ["country", "political"]}, {"long_name": "CV1 5FB", "short_name": "CV1 5FB", "types": ["postal_code"]}], "formatted_address": "Priory St, Coventry CV1 5FB, UK", "geometry": {"location": {"lat": 52.4071747, "lng": -1.5037461}, "location_type": "GEOMETRIC_CENTER", "viewport": {"northeast": {"lat": 52.40852368029149, "lng": -1.502397119708498}, "southwest": {"lat": 52.4058257197085, "lng": -1.505095080291502}}}, "place_id": "ChIJnbX_XrdLd0gRCCeVHpffyi4", "types": ["establishment", "point_of_interest", "university"]}, {"address_components": [{"long_name": "Coventry", "short_name": "Coventry", "types": ["postal_town"]}, {"long_name": "United Kingdom", "short_name": "GB", "types": ["country", "political"]}, {"long_name": "CV1 5DL", "short_name": "CV1 5DL", "types": ["postal_code"]}], "formatted_address": "Armstrong Siddeley Building, Gosford Street, Coventry CV1 5DL, United Kingdom", "geometry": {"location": {"lat": 52.407583, "lng": -1.501042}, "location_type": "GEOMETRIC_CENTER", "viewport": {"northeast": {"lat": 52.40893198029149, "lng": -1.499693019708498}, "southwest": {"lat": 52.40623401970849, "lng": -1.502390980291502}}}, "place_id": "ChIJi5S2ZrhLd0gRZFyuD18OwqM", "types": ["establishment", "point_of_interest", "university"]}]}, "142094635": {"AfN": "cowles foundation", "Location": [{"address_components": [{"long_name": "1915", "short_name": "1915", "types": ["street_number"]}, {"long_name": "Grand Avenue", "short_name": "Grand Ave", "types": ["route"]}, {"long_name": "Des Moines", "short_name": "Des Moines", "types": ["locality", "political"]}, {"long_name": "Des Moines", "short_name": "Des Moines", "types": ["administrative_area_level_3", "political"]}, {"long_name": "Polk County", "short_name": "Polk County", "types": ["administrative_area_level_2", "political"]}, {"long_name": "Iowa", "short_name": "IA", "types": ["administrative_area_level_1", "political"]}, {"long_name": "United States", "short_name": "US", "types": ["country", "political"]}, {"long_name": "50309", "short_name": "50309", "types": ["postal_code"]}, {"long_name": "3311", "short_name": "3311", "types": ["postal_code_suffix"]}], "formatted_address": "1915 Grand Ave, Des Moines, IA 50309, USA", "geometry": {"location": {"lat": 41.584868, "lng": -93.643146}, "location_type": "ROOFTOP", "viewport": {"northeast": {"lat": 41.5862169802915, "lng": -93.64179701970849}, "southwest": {"lat": 41.5835190197085, "lng": -93.6444949802915}}}, "place_id": "ChIJ-wfCHSCZ7ocRtlcY-3pHwk8", "types": ["establishment", "point_of_interest"]}]}, "133444429": {"AfN": "cpc corporation", "Location": [{"address_components": [{"long_name": "15", "short_name": "15", "types": ["street_number"]}, {"long_name": "Commerce Circle", "short_name": "Commerce Cir", "types": ["route"]}, {"long_name": "Durham", "short_name": "Durham", "types": ["locality", "political"]}, {"long_name": "Durham", "short_name": "Durham", "types": ["administrative_area_level_3", "political"]}, {"long_name": "Middlesex County", "short_name": "Middlesex County", "types": ["administrative_area_level_2", "political"]}, {"long_name": "Connecticut", "short_name": "CT", "types": ["administrative_area_level_1", "political"]}, {"long_name": "United States", "short_name": "US", "types": ["country", "political"]}, {"long_name": "06422", "short_name": "06422", "types": ["postal_code"]}, {"long_name": "1002", "short_name": "1002", "types": ["postal_code_suffix"]}], "formatted_address": "15 Commerce Cir, Durham, CT 06422, USA", "geometry": {"location": {"lat": 41.4812474, "lng": -72.7229318}, "location_type": "ROOFTOP", "viewport": {"northeast": {"lat": 41.4825963802915, "lng": -72.7215828197085}, "southwest": {"lat": 41.4798984197085, "lng": -72.72428078029151}}}, "place_id": "ChIJdZZ7p0XL54kRmQKuINKFXWs", "types": ["establishment", "point_of_interest"]}]}, "82284825": {"AfN": "cranfield university", "Location": [{"address_components": [{"long_name": "College Road", "short_name": "College Rd", "types": ["route"]}, {"long_name": "Bedford", "short_name": "Bedford", "types": ["postal_town"]}, {"long_name": "Central Bedfordshire", "short_name": "Central Bedfordshire", "types": ["administrative_area_level_2", "political"]}, {"long_name": "England", "short_name": "England", "types": ["administrative_area_level_1", "political"]}, {"long_name": "United Kingdom", "short_name": "GB", "types": ["country", "political"]}, {"long_name": "MK43 0AL", "short_name": "MK43 0AL", "types": ["postal_code"]}], "formatted_address": "College Rd, Bedford MK43 0AL, UK", "geometry": {"location": {"lat": 52.074041, "lng": -0.6282032}, "location_type": "GEOMETRIC_CENTER", "viewport": {"northeast": {"lat": 52.0753899802915, "lng": -0.626854219708498}, "southwest": {"lat": 52.07269201970851, "lng": -0.6295521802915021}}}, "place_id": "ChIJ6_rISE2sd0gRl86SveYDyUQ", "types": ["establishment", "point_of_interest", "university"]}]}, "155867693": {"AfN": "cray", "Location": [{"address_components": [{"long_name": "200", "short_name": "200", "types": ["subpremise"]}, {"long_name": "6011", "short_name": "6011", "types": ["street_number"]}, {"long_name": "West Courtyard Drive", "short_name": "W Courtyard Dr", "types": ["route"]}, {"long_name": "Hidden Valley", "short_name": "Hidden Valley", "types": ["neighborhood", "political"]}, {"long_name": "Austin", "short_name": "Austin", "types": ["locality", "political"]}, {"long_name": "Travis County", "short_name": "Travis County", "types": ["administrative_area_level_2", "political"]}, {"long_name": "Texas", "short_name": "TX", "types": ["administrative_area_level_1", "political"]}, {"long_name": "United States", "short_name": "US", "types": ["country", "political"]}, {"long_name": "78730", "short_name": "78730", "types": ["postal_code"]}], "formatted_address": "6011 W Courtyard Dr #200, Austin, TX 78730, USA", "geometry": {"location": {"lat": 30.3549761, "lng": -97.7988228}, "location_type": "ROOFTOP", "viewport": {"northeast": {"lat": 30.3563250802915, "lng": -97.79747381970849}, "southwest": {"lat": 30.3536271197085, "lng": -97.80017178029149}}}, "place_id": "ChIJ71CI18Q0W4YR5LW-TwbM5oI", "types": ["establishment", "point_of_interest"]}]}, "30982906": {"AfN": "cree inc", "Location": [{"address_components": [{"long_name": "4600", "short_name": "4600", "types": ["street_number"]}, {"long_name": "Silicon Drive", "short_name": "Silicon Dr", "types": ["route"]}, {"long_name": "Durham", "short_name": "Durham", "types": ["locality", "political"]}, {"long_name": "Triangle", "short_name": "Triangle", "types": ["administrative_area_level_3", "political"]}, {"long_name": "Durham County", "short_name": "Durham County", "types": ["administrative_area_level_2", "political"]}, {"long_name": "North Carolina", "short_name": "NC", "types": ["administrative_area_level_1", "political"]}, {"long_name": "United States", "short_name": "US", "types": ["country", "political"]}, {"long_name": "27703", "short_name": "27703", "types": ["postal_code"]}], "formatted_address": "4600 Silicon Dr, Durham, NC 27703, USA", "geometry": {"location": {"lat": 35.89947799999999, "lng": -78.842384}, "location_type": "ROOFTOP", "viewport": {"northeast": {"lat": 35.9008269802915, "lng": -78.84103501970849}, "southwest": {"lat": 35.8981290197085, "lng": -78.84373298029149}}}, "place_id": "ChIJWbesK-LvrIkRIbBAUgdcRQw", "types": ["establishment", "point_of_interest"]}]}, "114493937": {"AfN": "creighton university", "Location": [{"address_components": [{"long_name": "2500", "short_name": "2500", "types": ["street_number"]}, {"long_name": "California Plaza", "short_name": "California Plaza", "types": ["route"]}, {"long_name": "Downtown", "short_name": "Downtown", "types": ["neighborhood", "political"]}, {"long_name": "Omaha", "short_name": "Omaha", "types": ["locality", "political"]}, {"long_name": "Douglas County", "short_name": "Douglas County", "types": ["administrative_area_level_2", "political"]}, {"long_name": "Nebraska", "short_name": "NE", "types": ["administrative_area_level_1", "political"]}, {"long_name": "United States", "short_name": "US", "types": ["country", "political"]}, {"long_name": "68178", "short_name": "68178", "types": ["postal_code"]}], "formatted_address": "2500 California Plaza, Omaha, NE 68178, USA", "geometry": {"location": {"lat": 41.2653105, "lng": -95.94719189999999}, "location_type": "ROOFTOP", "viewport": {"northeast": {"lat": 41.26665948029149, "lng": -95.94584291970848}, "southwest": {"lat": 41.2639615197085, "lng": -95.9485408802915}}}, "place_id": "ChIJw11JC0mOk4cRbKw5uaYQAjM", "types": ["establishment", "health", "point_of_interest", "school", "university"]}]}, "13730794": {"AfN": "creole petroleum corporation", "Location": []}, "51993856": {"AfN": "cri", "Location": [{"address_components": [{"long_name": "Coffeyville", "short_name": "Coffeyville", "types": ["locality", "political"]}, {"long_name": "Montgomery County", "short_name": "Montgomery County", "types": ["administrative_area_level_2", "political"]}, {"long_name": "Kansas", "short_name": "KS", "types": ["administrative_area_level_1", "political"]}, {"long_name": "United States", "short_name": "US", "types": ["country", "political"]}, {"long_name": "67337", "short_name": "67337", "types": ["postal_code"]}], "formatted_address": "Coffeyville, KS 67337, USA", "geometry": {"location": {"lat": 37.0373005, "lng": -95.6163665}, "location_type": "GEOMETRIC_CENTER", "viewport": {"northeast": {"lat": 37.0386494802915, "lng": -95.6150175197085}, "southwest": {"lat": 37.0359515197085, "lng": -95.61771548029151}}}, "place_id": "ChIJhemlZ1iEt4cRTuv1MTylyt8", "types": ["establishment", "home_goods_store", "plumber", "point_of_interest", "store"]}]}, "1301669915": {"AfN": "croatian academy of sciences and arts", "Location": [{"address_components": [{"long_name": "11", "short_name": "11", "types": ["street_number"]}, {"long_name": "Trg Nikole \u0160ubi\u0107a Zrinskog", "short_name": "Trg Nikole \u0160ubi\u0107a Zrinskog", "types": ["route"]}, {"long_name": "Zagreb", "short_name": "Zagreb", "types": ["locality", "political"]}, {"long_name": "Croatia", "short_name": "HR", "types": ["country", "political"]}, {"long_name": "10000", "short_name": "10000", "types": ["postal_code"]}], "formatted_address": "Trg Nikole \u0160ubi\u0107a Zrinskog 11, 10000, Zagreb, Croatia", "geometry": {"location": {"lat": 45.8091164, "lng": 15.978559}, "location_type": "ROOFTOP", "viewport": {"northeast": {"lat": 45.8104653802915, "lng": 15.9799079802915}, "southwest": {"lat": 45.8077674197085, "lng": 15.9772100197085}}}, "place_id": "ChIJm30_M_nWZUcRg63dbYYCo78", "types": ["establishment", "point_of_interest"]}]}, "860964359": {"AfN": "croda international", "Location": [{"address_components": [{"long_name": "# A", "short_name": "# A", "types": ["subpremise"]}, {"long_name": "300", "short_name": "300", "types": ["street_number"]}, {"long_name": "Columbus Circle", "short_name": "Columbus Cir", "types": ["route"]}, {"long_name": "Edison", "short_name": "Edison", "types": ["locality", "political"]}, {"long_name": "Middlesex County", "short_name": "Middlesex County", "types": ["administrative_area_level_2", "political"]}, {"long_name": "New Jersey", "short_name": "NJ", "types": ["administrative_area_level_1", "political"]}, {"long_name": "United States", "short_name": "US", "types": ["country", "political"]}, {"long_name": "08837", "short_name": "08837", "types": ["postal_code"]}, {"long_name": "3907", "short_name": "3907", "types": ["postal_code_suffix"]}], "formatted_address": "300 Columbus Cir # A, Edison, NJ 08837, USA", "geometry": {"location": {"lat": 40.5063723, "lng": -74.3394749}, "location_type": "ROOFTOP", "viewport": {"northeast": {"lat": 40.5077212802915, "lng": -74.33812591970849}, "southwest": {"lat": 40.5050233197085, "lng": -74.3408238802915}}}, "place_id": "ChIJkzf0tbjJw4kR2FIPfwVaeGk", "types": ["establishment", "point_of_interest"]}]}, "168824072": {"AfN": "crops research institute", "Location": [{"address_components": [{"long_name": "11566", "short_name": "11566", "types": ["street_number"]}, {"long_name": "Northwest 107th Court", "short_name": "NW 107th Ct", "types": ["route"]}, {"long_name": "Granger", "short_name": "Granger", "types": ["locality", "political"]}, {"long_name": "Jefferson", "short_name": "Jefferson", "types": ["administrative_area_level_3", "political"]}, {"long_name": "Polk County", "short_name": "Polk County", "types": ["administrative_area_level_2", "political"]}, {"long_name": "Iowa", "short_name": "IA", "types": ["administrative_area_level_1", "political"]}, {"long_name": "United States", "short_name": "US", "types": ["country", "political"]}, {"long_name": "50109", "short_name": "50109", "types": ["postal_code"]}, {"long_name": "9701", "short_name": "9701", "types": ["postal_code_suffix"]}], "formatted_address": "11566 NW 107th Ct, Granger, IA 50109, USA", "geometry": {"location": {"lat": 41.77171999999999, "lng": -93.766717}, "location_type": "ROOFTOP", "viewport": {"northeast": {"lat": 41.7730689802915, "lng": -93.7653680197085}, "southwest": {"lat": 41.7703710197085, "lng": -93.76806598029151}}}, "place_id": "ChIJvV7IUIwp7IcRzWCIxRcSjL0", "types": ["establishment", "point_of_interest"]}]}, "1307383912": {"AfN": "cross cancer institute", "Location": [{"address_components": [{"long_name": "11560", "short_name": "11560", "types": ["street_number"]}, {"long_name": "University Avenue", "short_name": "University Ave", "types": ["route"]}, {"long_name": "South Central Edmonton", "short_name": "South Central Edmonton", "types": ["neighborhood", "political"]}, {"long_name": "Edmonton", "short_name": "Edmonton", "types": ["locality", "political"]}, {"long_name": "Division No. 11", "short_name": "Division No. 11", "types": ["administrative_area_level_2", "political"]}, {"long_name": "Alberta", "short_name": "AB", "types": ["administrative_area_level_1", "political"]}, {"long_name": "Canada", "short_name": "CA", "types": ["country", "political"]}, {"long_name": "T6G 1Z2", "short_name": "T6G 1Z2", "types": ["postal_code"]}], "formatted_address": "11560 University Ave, Edmonton, AB T6G 1Z2, Canada", "geometry": {"location": {"lat": 53.5182625, "lng": -113.5310786}, "location_type": "ROOFTOP", "viewport": {"northeast": {"lat": 53.51961148029149, "lng": -113.5297296197085}, "southwest": {"lat": 53.5169135197085, "lng": -113.5324275802915}}}, "place_id": "ChIJXyDXZfEhoFMRH0xqFh7YMzY", "types": ["establishment", "health", "point_of_interest"]}]}, "174574984": {"AfN": "crozer keystone health system", "Location": [{"address_components": [{"long_name": "100", "short_name": "100", "types": ["street_number"]}, {"long_name": "West Sproul Road", "short_name": "W Sproul Rd", "types": ["route"]}, {"long_name": "Springfield", "short_name": "Springfield", "types": ["locality", "political"]}, {"long_name": "Springfield Township", "short_name": "Springfield Township", "types": ["administrative_area_level_3", "political"]}, {"long_name": "Delaware County", "short_name": "Delaware County", "types": ["administrative_area_level_2", "political"]}, {"long_name": "Pennsylvania", "short_name": "PA", "types": ["administrative_area_level_1", "political"]}, {"long_name": "United States", "short_name": "US", "types": ["country", "political"]}, {"long_name": "19064", "short_name": "19064", "types": ["postal_code"]}, {"long_name": "2033", "short_name": "2033", "types": ["postal_code_suffix"]}], "formatted_address": "100 W Sproul Rd, Springfield, PA 19064, USA", "geometry": {"location": {"lat": 39.9213679, "lng": -75.35054339999999}, "location_type": "ROOFTOP", "viewport": {"northeast": {"lat": 39.9227168802915, "lng": -75.3491944197085}, "southwest": {"lat": 39.9200189197085, "lng": -75.3518923802915}}}, "place_id": "ChIJp3I5yN3pxokRUBWhxcHnYjI", "types": ["establishment", "point_of_interest"]}]}, "101413204": {"AfN": "crucell", "Location": [{"address_components": [{"long_name": "Crucell", "short_name": "Crucell", "types": ["route"]}, {"long_name": "La Habana", "short_name": "La Habana", "types": ["locality", "political"]}, {"long_name": "San Miguel del Padr\u00f3n", "short_name": "San Miguel del Padr\u00f3n", "types": ["administrative_area_level_2", "political"]}, {"long_name": "La Habana", "short_name": "La Habana", "types": ["administrative_area_level_1", "political"]}, {"long_name": "Cuba", "short_name": "CU", "types": ["country", "political"]}], "formatted_address": "Crucell, La Habana, Cuba", "geometry": {"bounds": {"northeast": {"lat": 23.0803411, "lng": -82.3158893}, "southwest": {"lat": 23.0780367, "lng": -82.3174507}}, "location": {"lat": 23.0791581, "lng": -82.3165989}, "location_type": "GEOMETRIC_CENTER", "viewport": {"northeast": {"lat": 23.0805378802915, "lng": -82.31532101970849}, "southwest": {"lat": 23.0778399197085, "lng": -82.3180189802915}}}, "place_id": "ChIJz94o9ex7zYgRMzWZ0ys47iE", "types": ["route"]}]}, "82957580": {"AfN": "csc it center for science", "Location": [{"address_components": [{"long_name": "Fulton", "short_name": "Fulton", "types": ["locality", "political"]}, {"long_name": "West Fulton Township", "short_name": "West Fulton Township", "types": ["administrative_area_level_3", "political"]}, {"long_name": "Callaway County", "short_name": "Callaway County", "types": ["administrative_area_level_2", "political"]}, {"long_name": "Missouri", "short_name": "MO", "types": ["administrative_area_level_1", "political"]}, {"long_name": "United States", "short_name": "US", "types": ["country", "political"]}, {"long_name": "65251", "short_name": "65251", "types": ["postal_code"]}], "formatted_address": "Fulton, MO 65251, USA", "geometry": {"location": {"lat": 38.8494245, "lng": -91.9566006}, "location_type": "GEOMETRIC_CENTER", "viewport": {"northeast": {"lat": 38.85077348029149, "lng": -91.9552516197085}, "southwest": {"lat": 38.84807551970849, "lng": -91.95794958029151}}}, "place_id": "ChIJ82XGTVKO3IcRyCHs2_XEeIA", "types": ["establishment", "point_of_interest", "school"]}]}, "1281210470": {"AfN": "csiro marine and atmospheric research", "Location": []}, "62612085": {"AfN": "csl behring", "Location": [{"address_components": [{"long_name": "1201", "short_name": "1201", "types": ["street_number"]}, {"long_name": "North Kinzie Avenue", "short_name": "N Kinzie Ave", "types": ["route"]}, {"long_name": "Bradley", "short_name": "Bradley", "types": ["locality", "political"]}, {"long_name": "Bourbonnais Township", "short_name": "Bourbonnais Township", "types": ["administrative_area_level_3", "political"]}, {"long_name": "Kankakee County", "short_name": "Kankakee County", "types": ["administrative_area_level_2", "political"]}, {"long_name": "Illinois", "short_name": "IL", "types": ["administrative_area_level_1", "political"]}, {"long_name": "United States", "short_name": "US", "types": ["country", "political"]}, {"long_name": "60915", "short_name": "60915", "types": ["postal_code"]}, {"long_name": "1298", "short_name": "1298", "types": ["postal_code_suffix"]}], "formatted_address": "1201 N Kinzie Ave, Bradley, IL 60915, USA", "geometry": {"location": {"lat": 41.1594784, "lng": -87.8528584}, "location_type": "ROOFTOP", "viewport": {"northeast": {"lat": 41.16082738029149, "lng": -87.85150941970849}, "southwest": {"lat": 41.1581294197085, "lng": -87.85420738029151}}}, "place_id": "ChIJjZj9G17nDYgRo6wmE97SY-8", "types": ["establishment", "health", "point_of_interest"]}]}, "111268130": {"AfN": "csl limited", "Location": [{"address_components": [{"long_name": "6683", "short_name": "6683", "types": ["street_number"]}, {"long_name": "Ellis Road", "short_name": "Ellis Rd", "types": ["route"]}, {"long_name": "Cambridge", "short_name": "Cambridge", "types": ["locality", "political"]}, {"long_name": "Puslinch", "short_name": "Puslinch", "types": ["administrative_area_level_3", "political"]}, {"long_name": "Wellington County", "short_name": "Wellington County", "types": ["administrative_area_level_2", "political"]}, {"long_name": "Ontario", "short_name": "ON", "types": ["administrative_area_level_1", "political"]}, {"long_name": "Canada", "short_name": "CA", "types": ["country", "political"]}, {"long_name": "N3C 2V4", "short_name": "N3C 2V4", "types": ["postal_code"]}], "formatted_address": "6683 Ellis Rd, Cambridge, ON N3C 2V4, Canada", "geometry": {"location": {"lat": 43.436014, "lng": -80.2503385}, "location_type": "ROOFTOP", "viewport": {"northeast": {"lat": 43.4373629802915, "lng": -80.24898951970849}, "southwest": {"lat": 43.4346650197085, "lng": -80.25168748029151}}}, "place_id": "ChIJWfi_kmuGK4gRNHBW5dxVxKY", "types": ["establishment", "general_contractor", "point_of_interest"]}]}, "894041738": {"AfN": "ctb mcgraw hill", "Location": [{"address_components": [{"long_name": "6901", "short_name": "6901", "types": ["street_number"]}, {"long_name": "Michigan Road", "short_name": "Michigan Rd", "types": ["route"]}, {"long_name": "Indianapolis", "short_name": "Indianapolis", "types": ["locality", "political"]}, {"long_name": "Pike Township", "short_name": "Pike Township", "types": ["administrative_area_level_3", "political"]}, {"long_name": "Marion County", "short_name": "Marion County", "types": ["administrative_area_level_2", "political"]}, {"long_name": "Indiana", "short_name": "IN", "types": ["administrative_area_level_1", "political"]}, {"long_name": "United States", "short_name": "US", "types": ["country", "political"]}, {"long_name": "46268", "short_name": "46268", "types": ["postal_code"]}, {"long_name": "2740", "short_name": "2740", "types": ["postal_code_suffix"]}], "formatted_address": "6901 Michigan Rd, Indianapolis, IN 46268, USA", "geometry": {"location": {"lat": 39.881276, "lng": -86.207038}, "location_type": "ROOFTOP", "viewport": {"northeast": {"lat": 39.8826249802915, "lng": -86.20568901970849}, "southwest": {"lat": 39.8799270197085, "lng": -86.20838698029151}}}, "place_id": "ChIJs0RrtvlUa4gRXCsTLFbSaqI", "types": ["establishment", "point_of_interest"]}]}, "97187500": {"AfN": "cubist pharmaceuticals", "Location": [{"address_components": [{"long_name": "1050", "short_name": "1050", "types": ["street_number"]}, {"long_name": "K Street Northwest", "short_name": "K St NW", "types": ["route"]}, {"long_name": "Downtown", "short_name": "Downtown", "types": ["neighborhood", "political"]}, {"long_name": "Washington", "short_name": "Washington", "types": ["locality", "political"]}, {"long_name": "District of Columbia", "short_name": "DC", "types": ["administrative_area_level_1", "political"]}, {"long_name": "United States", "short_name": "US", "types": ["country", "political"]}, {"long_name": "20001", "short_name": "20001", "types": ["postal_code"]}, {"long_name": "4417", "short_name": "4417", "types": ["postal_code_suffix"]}], "formatted_address": "1050 K St NW, Washington, DC 20001, USA", "geometry": {"location": {"lat": 38.9021289, "lng": -77.0267476}, "location_type": "ROOFTOP", "viewport": {"northeast": {"lat": 38.9034778802915, "lng": -77.02539861970848}, "southwest": {"lat": 38.9007799197085, "lng": -77.0280965802915}}}, "place_id": "ChIJu8ZRg5O3t4kR7lpIWSx8wJw", "types": ["establishment", "health", "point_of_interest"]}]}, "55931168": {"AfN": "cukurova university", "Location": [{"address_components": [{"long_name": "\u00c7ukurova \u00dcniversitesi Rekt\u00f6rl\u00fc\u011f\u00fc", "short_name": "\u00c7ukurova \u00dcniversitesi Rekt\u00f6rl\u00fc\u011f\u00fc", "types": ["route"]}, {"long_name": "Balcal\u0131 Mahallesi", "short_name": "Balcal\u0131 Mahallesi", "types": ["administrative_area_level_4", "political"]}, {"long_name": "Sar\u0131\u00e7am", "short_name": "Sar\u0131\u00e7am", "types": ["administrative_area_level_2", "political"]}, {"long_name": "Adana", "short_name": "Adana", "types": ["administrative_area_level_1", "political"]}, {"long_name": "Turkey", "short_name": "TR", "types": ["country", "political"]}, {"long_name": "01330", "short_name": "01330", "types": ["postal_code"]}], "formatted_address": "Balcal\u0131 Mahallesi, \u00c7ukurova \u00dcniversitesi Rekt\u00f6rl\u00fc\u011f\u00fc, 01330 Sar\u0131\u00e7am/Adana, Turkey", "geometry": {"location": {"lat": 37.059684, "lng": 35.355414}, "location_type": "GEOMETRIC_CENTER", "viewport": {"northeast": {"lat": 37.06103298029149, "lng": 35.3567629802915}, "southwest": {"lat": 37.05833501970849, "lng": 35.3540650197085}}}, "place_id": "ChIJ036YlNWNKBURRDEKUUM07lY", "types": ["establishment", "point_of_interest", "university"]}]}, "50112456": {"AfN": "cumberland university", "Location": [{"address_components": [{"long_name": "1", "short_name": "1", "types": ["street_number"]}, {"long_name": "Cumberland Drive", "short_name": "Cumberland Dr", "types": ["route"]}, {"long_name": "Lebanon", "short_name": "Lebanon", "types": ["locality", "political"]}, {"long_name": "Wilson County", "short_name": "Wilson County", "types": ["administrative_area_level_2", "political"]}, {"long_name": "Tennessee", "short_name": "TN", "types": ["administrative_area_level_1", "political"]}, {"long_name": "United States", "short_name": "US", "types": ["country", "political"]}, {"long_name": "37087", "short_name": "37087", "types": ["postal_code"]}], "formatted_address": "1 Cumberland Dr, Lebanon, TN 37087, USA", "geometry": {"location": {"lat": 36.2042605, "lng": -86.2994004}, "location_type": "ROOFTOP", "viewport": {"northeast": {"lat": 36.20560948029149, "lng": -86.2980514197085}, "southwest": {"lat": 36.20291151970849, "lng": -86.3007493802915}}}, "place_id": "ChIJJTBBTH4fZIgRpUZ9XFSflGg", "types": ["establishment", "point_of_interest", "university"]}]}, "12700597": {"AfN": "cumhuriyet university", "Location": [{"address_components": [{"long_name": "Sivas", "short_name": "Sivas", "types": ["administrative_area_level_1", "political"]}, {"long_name": "\u0130maret K\u00f6y\u00fc", "short_name": "\u0130maret K\u00f6y\u00fc", "types": ["administrative_area_level_3", "political"]}, {"long_name": "Sivas Merkez", "short_name": "Sivas Merkez", "types": ["administrative_area_level_2", "political"]}, {"long_name": "Turkey", "short_name": "TR", "types": ["country", "political"]}, {"long_name": "58000", "short_name": "58000", "types": ["postal_code"]}], "formatted_address": "58000 \u0130maret K\u00f6y\u00fc/Sivas Merkez/Sivas, Turkey", "geometry": {"location": {"lat": 39.7086847, "lng": 37.0202941}, "location_type": "GEOMETRIC_CENTER", "viewport": {"northeast": {"lat": 39.7100336802915, "lng": 37.0216430802915}, "southwest": {"lat": 39.7073357197085, "lng": 37.0189451197085}}}, "place_id": "ChIJvXOj9npTeUARfJVSmxBrPp4", "types": ["establishment", "point_of_interest"]}, {"address_components": [{"long_name": "\u0130maret K\u00f6y\u00fc", "short_name": "\u0130maret K\u00f6y\u00fc", "types": ["administrative_area_level_3", "political"]}, {"long_name": "Sivas Merkez", "short_name": "Sivas Merkez", "types": ["administrative_area_level_2", "political"]}, {"long_name": "Sivas", "short_name": "Sivas", "types": ["administrative_area_level_1", "political"]}, {"long_name": "Turkey", "short_name": "TR", "types": ["country", "political"]}, {"long_name": "58070", "short_name": "58070", "types": ["postal_code"]}], "formatted_address": "58070 \u0130maret K\u00f6y\u00fc/Sivas Merkez/Sivas, Turkey", "geometry": {"location": {"lat": 39.6995472, "lng": 37.0206655}, "location_type": "GEOMETRIC_CENTER", "viewport": {"northeast": {"lat": 39.70089618029149, "lng": 37.0220144802915}, "southwest": {"lat": 39.69819821970849, "lng": 37.0193165197085}}}, "place_id": "ChIJQZkp2nNTeUARELUJEmLkUJc", "types": ["establishment", "gym", "health", "point_of_interest"]}]}, "80043": {"AfN": "curie institute", "Location": [{"address_components": [{"long_name": "9", "short_name": "9", "types": ["street_number"]}, {"long_name": "Brice Street", "short_name": "Brice St", "types": ["route"]}, {"long_name": "Amsterdam", "short_name": "Amsterdam", "types": ["locality", "political"]}, {"long_name": "Montgomery County", "short_name": "Montgomery County", "types": ["administrative_area_level_2", "political"]}, {"long_name": "New York", "short_name": "NY", "types": ["administrative_area_level_1", "political"]}, {"long_name": "United States", "short_name": "US", "types": ["country", "political"]}, {"long_name": "12010", "short_name": "12010", "types": ["postal_code"]}, {"long_name": "5101", "short_name": "5101", "types": ["postal_code_suffix"]}], "formatted_address": "9 Brice St, Amsterdam, NY 12010, USA", "geometry": {"location": {"lat": 42.9393198, "lng": -74.16620220000001}, "location_type": "ROOFTOP", "viewport": {"northeast": {"lat": 42.9406687802915, "lng": -74.16485321970852}, "southwest": {"lat": 42.9379708197085, "lng": -74.16755118029153}}}, "place_id": "ChIJV7nHXAhh3okRP4UXr-b0BT0", "types": ["establishment", "point_of_interest", "school"]}, {"address_components": [{"long_name": "3526-3598", "short_name": "3526-3598", "types": ["street_number"]}, {"long_name": "Hickory Street", "short_name": "Hickory St", "types": ["route"]}, {"long_name": "The Gate", "short_name": "The Gate", "types": ["neighborhood", "political"]}, {"long_name": "St. Louis", "short_name": "St. Louis", "types": ["locality", "political"]}, {"long_name": "Missouri", "short_name": "MO", "types": ["administrative_area_level_1", "political"]}, {"long_name": "United States", "short_name": "US", "types": ["country", "political"]}, {"long_name": "63104", "short_name": "63104", "types": ["postal_code"]}], "formatted_address": "3526-3598 Hickory St, St. Louis, MO 63104, USA", "geometry": {"location": {"lat": 38.6240822, "lng": -90.23526230000002}, "location_type": "ROOFTOP", "viewport": {"northeast": {"lat": 38.6254311802915, "lng": -90.23391331970852}, "southwest": {"lat": 38.6227332197085, "lng": -90.23661128029153}}}, "place_id": "ChIJ15kz9JC02IcRmA8qNC4kjDA", "types": ["establishment", "point_of_interest"]}]}, "47939930": {"AfN": "curry college", "Location": [{"address_components": [{"long_name": "1071", "short_name": "1071", "types": ["street_number"]}, {"long_name": "Blue Hill Avenue", "short_name": "Blue Hill Avenue", "types": ["route"]}, {"long_name": "Milton", "short_name": "Milton", "types": ["locality", "political"]}, {"long_name": "Norfolk County", "short_name": "Norfolk County", "types": ["administrative_area_level_2", "political"]}, {"long_name": "Massachusetts", "short_name": "MA", "types": ["administrative_area_level_1", "political"]}, {"long_name": "United States", "short_name": "US", "types": ["country", "political"]}, {"long_name": "02186", "short_name": "02186", "types": ["postal_code"]}], "formatted_address": "1071 Blue Hill Avenue, Milton, MA 02186, USA", "geometry": {"location": {"lat": 42.2406763, "lng": -71.11481119999999}, "location_type": "ROOFTOP", "viewport": {"northeast": {"lat": 42.24202528029151, "lng": -71.11346221970848}, "southwest": {"lat": 42.23932731970851, "lng": -71.1161601802915}}}, "place_id": "ChIJ1TQzQmx-44kRTupMEZ7kgU4", "types": ["establishment", "point_of_interest", "university"]}]}, "31661442": {"AfN": "curry school of education", "Location": [{"address_components": [{"long_name": "405", "short_name": "405", "types": ["street_number"]}, {"long_name": "Emmet Street South", "short_name": "Emmet St S", "types": ["route"]}, {"long_name": "Charlottesville", "short_name": "Charlottesville", "types": ["locality", "political"]}, {"long_name": "Jack Jouett", "short_name": "Jack Jouett", "types": ["administrative_area_level_3", "political"]}, {"long_name": "Albemarle County", "short_name": "Albemarle County", "types": ["administrative_area_level_2", "political"]}, {"long_name": "Virginia", "short_name": "VA", "types": ["administrative_area_level_1", "political"]}, {"long_name": "United States", "short_name": "US", "types": ["country", "political"]}, {"long_name": "22903", "short_name": "22903", "types": ["postal_code"]}], "formatted_address": "405 Emmet St S, Charlottesville, VA 22903, USA", "geometry": {"location": {"lat": 38.03467699999999, "lng": -78.50912}, "location_type": "ROOFTOP", "viewport": {"northeast": {"lat": 38.0360259802915, "lng": -78.50777101970849}, "southwest": {"lat": 38.0333280197085, "lng": -78.5104689802915}}}, "place_id": "ChIJSWeYXkWGs4kRhIAnhdQaAe0", "types": ["establishment", "point_of_interest", "university"]}]}, "205640436": {"AfN": "curtin university", "Location": [{"address_components": [{"long_name": "Kent St", "short_name": "Kent St", "types": ["route"]}, {"long_name": "Bentley", "short_name": "Bentley", "types": ["locality", "political"]}, {"long_name": "Western Australia", "short_name": "WA", "types": ["administrative_area_level_1", "political"]}, {"long_name": "Australia", "short_name": "AU", "types": ["country", "political"]}, {"long_name": "6102", "short_name": "6102", "types": ["postal_code"]}], "formatted_address": "Kent St, Bentley WA 6102, Australia", "geometry": {"location": {"lat": -32.0061951, "lng": 115.8944182}, "location_type": "GEOMETRIC_CENTER", "viewport": {"northeast": {"lat": -32.0048461197085, "lng": 115.8957671802915}, "southwest": {"lat": -32.0075440802915, "lng": 115.8930692197085}}}, "place_id": "ChIJ85qGhWu8MioRTkQUAIelI4Y", "types": ["establishment", "point_of_interest", "university"]}]}, "893051600": {"AfN": "cvc capital partners", "Location": [{"address_components": [{"long_name": "43", "short_name": "43", "types": ["subpremise"]}, {"long_name": "712", "short_name": "712", "types": ["street_number"]}, {"long_name": "5th Avenue", "short_name": "5th Ave", "types": ["route"]}, {"long_name": "Manhattan", "short_name": "Manhattan", "types": ["political", "sublocality", "sublocality_level_1"]}, {"long_name": "New York", "short_name": "New York", "types": ["locality", "political"]}, {"long_name": "New York County", "short_name": "New York County", "types": ["administrative_area_level_2", "political"]}, {"long_name": "New York", "short_name": "NY", "types": ["administrative_area_level_1", "political"]}, {"long_name": "United States", "short_name": "US", "types": ["country", "political"]}, {"long_name": "10019", "short_name": "10019", "types": ["postal_code"]}, {"long_name": "4108", "short_name": "4108", "types": ["postal_code_suffix"]}], "formatted_address": "712 5th Ave #43, New York, NY 10019, USA", "geometry": {"location": {"lat": 40.7622826, "lng": -73.9750368}, "location_type": "ROOFTOP", "viewport": {"northeast": {"lat": 40.7636315802915, "lng": -73.9736878197085}, "southwest": {"lat": 40.7609336197085, "lng": -73.97638578029151}}}, "place_id": "ChIJyQqSXPpYwokRL3dsrnldlI8", "types": ["establishment", "finance", "point_of_interest"]}]}, "137629816": {"AfN": "cvs health", "Location": [{"address_components": [{"long_name": "3711", "short_name": "3711", "types": ["street_number"]}, {"long_name": "S E Frank Phillips Blvd", "short_name": "S E Frank Phillips Blvd", "types": ["route"]}, {"long_name": "Bartlesville", "short_name": "Bartlesville", "types": ["locality", "political"]}, {"long_name": "Washington County", "short_name": "Washington County", "types": ["administrative_area_level_2", "political"]}, {"long_name": "Oklahoma", "short_name": "OK", "types": ["administrative_area_level_1", "political"]}, {"long_name": "United States", "short_name": "US", "types": ["country", "political"]}, {"long_name": "74006", "short_name": "74006", "types": ["postal_code"]}], "formatted_address": "3711 S E Frank Phillips Blvd, Bartlesville, OK 74006, USA", "geometry": {"location": {"lat": 36.7501185, "lng": -95.9366474}, "location_type": "ROOFTOP", "viewport": {"northeast": {"lat": 36.7514674802915, "lng": -95.9352984197085}, "southwest": {"lat": 36.7487695197085, "lng": -95.93799638029151}}}, "place_id": "ChIJgeFt100St4cRWj6w3Q964GY", "types": ["convenience_store", "establishment", "food", "health", "point_of_interest", "store"]}]}, "1306891753": {"AfN": "cybercast news service", "Location": []}, "858589528": {"AfN": "cymer inc", "Location": [{"address_components": [{"long_name": "17075", "short_name": "17075", "types": ["street_number"]}, {"long_name": "Thornmint Court", "short_name": "Thornmint Ct", "types": ["route"]}, {"long_name": "4S Ranch", "short_name": "4S Ranch", "types": ["neighborhood", "political"]}, {"long_name": "San Diego", "short_name": "San Diego", "types": ["locality", "political"]}, {"long_name": "San Diego County", "short_name": "San Diego County", "types": ["administrative_area_level_2", "political"]}, {"long_name": "California", "short_name": "CA", "types": ["administrative_area_level_1", "political"]}, {"long_name": "United States", "short_name": "US", "types": ["country", "political"]}, {"long_name": "92127", "short_name": "92127", "types": ["postal_code"]}, {"long_name": "2413", "short_name": "2413", "types": ["postal_code_suffix"]}], "formatted_address": "17075 Thornmint Ct, San Diego, CA 92127, USA", "geometry": {"location": {"lat": 33.018042, "lng": -117.0986735}, "location_type": "ROOFTOP", "viewport": {"northeast": {"lat": 33.0193909802915, "lng": -117.0973245197085}, "southwest": {"lat": 33.0166930197085, "lng": -117.1000224802915}}}, "place_id": "ChIJKy7GIiH324ARrN_4RHsOjo8", "types": ["establishment", "point_of_interest"]}, {"address_components": [{"long_name": "# 140", "short_name": "# 140", "types": ["subpremise"]}, {"long_name": "3000", "short_name": "3000", "types": ["street_number"]}, {"long_name": "Northwest Stucki Place", "short_name": "NW Stucki Pl", "types": ["route"]}, {"long_name": "Hillsboro", "short_name": "Hillsboro", "types": ["locality", "political"]}, {"long_name": "Oregon", "short_name": "OR", "types": ["administrative_area_level_1", "political"]}, {"long_name": "United States", "short_name": "US", "types": ["country", "political"]}, {"long_name": "97124", "short_name": "97124", "types": ["postal_code"]}], "formatted_address": "7533, 3000 NW Stucki Pl # 140, Hillsboro, OR 97124, United States", "geometry": {"location": {"lat": 45.5413523, "lng": -122.8723046}, "location_type": "ROOFTOP", "viewport": {"northeast": {"lat": 45.5427012802915, "lng": -122.8709556197085}, "southwest": {"lat": 45.5400033197085, "lng": -122.8736535802915}}}, "place_id": "ChIJcZiICl0PlVQR8Cz-ousbtRo", "types": ["establishment", "point_of_interest"]}]}, "46714299": {"AfN": "cypress college", "Location": [{"address_components": [{"long_name": "9200", "short_name": "9200", "types": ["street_number"]}, {"long_name": "Valley View Street", "short_name": "Valley View St", "types": ["route"]}, {"long_name": "Cypress", "short_name": "Cypress", "types": ["locality", "political"]}, {"long_name": "Orange County", "short_name": "Orange County", "types": ["administrative_area_level_2", "political"]}, {"long_name": "California", "short_name": "CA", "types": ["administrative_area_level_1", "political"]}, {"long_name": "United States", "short_name": "US", "types": ["country", "political"]}, {"long_name": "90630", "short_name": "90630", "types": ["postal_code"]}], "formatted_address": "9200 Valley View St, Cypress, CA 90630, USA", "geometry": {"location": {"lat": 33.82797559999999, "lng": -118.025093}, "location_type": "ROOFTOP", "viewport": {"northeast": {"lat": 33.8293245802915, "lng": -118.0237440197085}, "southwest": {"lat": 33.8266266197085, "lng": -118.0264419802915}}}, "place_id": "ChIJfbdEaK4u3YARUFkDOQ_CFp0", "types": ["establishment", "point_of_interest", "university"]}]}, "45746246": {"AfN": "cyprus college", "Location": [{"address_components": [{"long_name": "Limassol", "short_name": "Limassol", "types": ["locality", "political"]}, {"long_name": "Limassol", "short_name": "Limassol", "types": ["administrative_area_level_1", "political"]}, {"long_name": "Cyprus", "short_name": "CY", "types": ["country", "political"]}], "formatted_address": "Limassol, Cyprus", "geometry": {"location": {"lat": 34.6791708, "lng": 33.0253004}, "location_type": "GEOMETRIC_CENTER", "viewport": {"northeast": {"lat": 34.6805197802915, "lng": 33.0266493802915}, "southwest": {"lat": 34.67782181970851, "lng": 33.0239514197085}}}, "place_id": "ChIJ1yNpAK0z5xQR_6GKqR3Maho", "types": ["establishment", "point_of_interest", "university"]}]}, "95746587": {"AfN": "cytel", "Location": [{"address_components": [{"long_name": "675", "short_name": "675", "types": ["street_number"]}, {"long_name": "Massachusetts Avenue", "short_name": "Massachusetts Ave", "types": ["route"]}, {"long_name": "Mid-Cambridge", "short_name": "Mid-Cambridge", "types": ["neighborhood", "political"]}, {"long_name": "Cambridge", "short_name": "Cambridge", "types": ["locality", "political"]}, {"long_name": "Middlesex County", "short_name": "Middlesex County", "types": ["administrative_area_level_2", "political"]}, {"long_name": "Massachusetts", "short_name": "MA", "types": ["administrative_area_level_1", "political"]}, {"long_name": "United States", "short_name": "US", "types": ["country", "political"]}, {"long_name": "02139", "short_name": "02139", "types": ["postal_code"]}, {"long_name": "3349", "short_name": "3349", "types": ["postal_code_suffix"]}], "formatted_address": "675 Massachusetts Ave, Cambridge, MA 02139, USA", "geometry": {"location": {"lat": 42.3658822, "lng": -71.10400969999999}, "location_type": "ROOFTOP", "viewport": {"northeast": {"lat": 42.3672311802915, "lng": -71.10266071970848}, "southwest": {"lat": 42.36453321970851, "lng": -71.10535868029149}}}, "place_id": "ChIJfXD4ZlF344kRhU45xbRCfn4", "types": ["establishment", "point_of_interest"]}, {"address_components": [{"long_name": "113", "short_name": "113", "types": ["subpremise"]}, {"long_name": "955", "short_name": "955", "types": ["street_number"]}, {"long_name": "Chesterbrook Boulevard", "short_name": "Chesterbrook Blvd", "types": ["route"]}, {"long_name": "Chesterbrook", "short_name": "Chesterbrook", "types": ["locality", "political"]}, {"long_name": "Tredyffrin Township", "short_name": "Tredyffrin Township", "types": ["administrative_area_level_3", "political"]}, {"long_name": "Chester County", "short_name": "Chester County", "types": ["administrative_area_level_2", "political"]}, {"long_name": "Pennsylvania", "short_name": "PA", "types": ["administrative_area_level_1", "political"]}, {"long_name": "United States", "short_name": "US", "types": ["country", "political"]}, {"long_name": "19087", "short_name": "19087", "types": ["postal_code"]}, {"long_name": "5626", "short_name": "5626", "types": ["postal_code_suffix"]}], "formatted_address": "955 Chesterbrook Blvd #113, Chesterbrook, PA 19087, USA", "geometry": {"location": {"lat": 40.0669079, "lng": -75.4631847}, "location_type": "ROOFTOP", "viewport": {"northeast": {"lat": 40.06825688029149, "lng": -75.4618357197085}, "southwest": {"lat": 40.0655589197085, "lng": -75.46453368029151}}}, "place_id": "ChIJVYeMtROTxokRGuRUhPJ5H3U", "types": ["establishment", "point_of_interest"]}]}, "185127551": {"AfN": "czech hydrometeorological institute", "Location": [{"address_components": [{"long_name": "17", "short_name": "17", "types": ["street_number"]}, {"long_name": "2050", "short_name": "2050", "types": ["premise"]}, {"long_name": "Na \u0160abatce", "short_name": "Na \u0160abatce", "types": ["route"]}, {"long_name": "Praha 12", "short_name": "Praha 12", "types": ["political", "sublocality", "sublocality_level_1"]}, {"long_name": "Hlavn\u00ed m\u011bsto Praha", "short_name": "Hlavn\u00ed m\u011bsto Praha", "types": ["administrative_area_level_2", "political"]}, {"long_name": "Hlavn\u00ed m\u011bsto Praha", "short_name": "Hlavn\u00ed m\u011bsto Praha", "types": ["administrative_area_level_1", "political"]}, {"long_name": "Czechia", "short_name": "CZ", "types": ["country", "political"]}, {"long_name": "143 00", "short_name": "143 00", "types": ["postal_code"]}], "formatted_address": "Na \u0160abatce 2050/17, 143 00 Praha 12, Czechia", "geometry": {"location": {"lat": 49.9884155, "lng": 14.4070414}, "location_type": "ROOFTOP", "viewport": {"northeast": {"lat": 49.98976448029149, "lng": 14.4083903802915}, "southwest": {"lat": 49.9870665197085, "lng": 14.4056924197085}}}, "place_id": "ChIJ0SvPWdWWC0cRxqpvZwnMdxI", "types": ["establishment", "point_of_interest"]}]}, "878975991": {"AfN": "czech radio", "Location": []}, "44504214": {"AfN": "czech technical university in prague", "Location": [{"address_components": [{"long_name": "1903/4", "short_name": "1903/4", "types": ["street_number"]}, {"long_name": "Zikova", "short_name": "Zikova", "types": ["route"]}, {"long_name": "Praha 6", "short_name": "Praha 6", "types": ["political", "sublocality", "sublocality_level_1"]}, {"long_name": "Hlavn\u00ed m\u011bsto Praha", "short_name": "Hlavn\u00ed m\u011bsto Praha", "types": ["administrative_area_level_2", "political"]}, {"long_name": "Hlavn\u00ed m\u011bsto Praha", "short_name": "Hlavn\u00ed m\u011bsto Praha", "types": ["administrative_area_level_1", "political"]}, {"long_name": "Czechia", "short_name": "CZ", "types": ["country", "political"]}, {"long_name": "166 36", "short_name": "166 36", "types": ["postal_code"]}], "formatted_address": "Zikova 1903/4, 166 36 Praha 6, Czechia", "geometry": {"location": {"lat": 50.1030364, "lng": 14.3912841}, "location_type": "ROOFTOP", "viewport": {"northeast": {"lat": 50.1043853802915, "lng": 14.3926330802915}, "southwest": {"lat": 50.1016874197085, "lng": 14.3899351197085}}}, "place_id": "ChIJfdcOwDuVC0cRauSpkQC7C8k", "types": ["establishment", "point_of_interest", "university"]}]}, "205984670": {"AfN": "czech university of life sciences prague", "Location": [{"address_components": [{"long_name": "129", "short_name": "129", "types": ["street_number"]}, {"long_name": "961", "short_name": "961", "types": ["premise"]}, {"long_name": "Kam\u00fdck\u00e1", "short_name": "Kam\u00fdck\u00e1", "types": ["route"]}, {"long_name": "Praha-Suchdol", "short_name": "Praha-Suchdol", "types": ["political", "sublocality", "sublocality_level_1"]}, {"long_name": "Hlavn\u00ed m\u011bsto Praha", "short_name": "Hlavn\u00ed m\u011bsto Praha", "types": ["administrative_area_level_2", "political"]}, {"long_name": "Hlavn\u00ed m\u011bsto Praha", "short_name": "Hlavn\u00ed m\u011bsto Praha", "types": ["administrative_area_level_1", "political"]}, {"long_name": "Czechia", "short_name": "CZ", "types": ["country", "political"]}, {"long_name": "165 00", "short_name": "165 00", "types": ["postal_code"]}], "formatted_address": "Kam\u00fdck\u00e1 961/129, 165 00 Praha-Suchdol, Czechia", "geometry": {"location": {"lat": 50.130001, "lng": 14.373443}, "location_type": "ROOFTOP", "viewport": {"northeast": {"lat": 50.1313499802915, "lng": 14.3747919802915}, "southwest": {"lat": 50.1286520197085, "lng": 14.3720940197085}}}, "place_id": "ChIJ-5cg0KXqC0cRvLSP-8_Xm_I", "types": ["establishment", "point_of_interest", "university"]}]}, "169238054": {"AfN": "czechoslovak academy of sciences", "Location": [{"address_components": [{"long_name": "3", "short_name": "3", "types": ["street_number"]}, {"long_name": "N\u00e1rodn\u00ed", "short_name": "N\u00e1rodn\u00ed", "types": ["route"]}, {"long_name": "Star\u00e9 M\u011bsto", "short_name": "Star\u00e9 M\u011bsto", "types": ["neighborhood", "political"]}, {"long_name": "Hlavn\u00ed m\u011bsto Praha", "short_name": "Hlavn\u00ed m\u011bsto Praha", "types": ["administrative_area_level_2", "political"]}, {"long_name": "Hlavn\u00ed m\u011bsto Praha", "short_name": "Hlavn\u00ed m\u011bsto Praha", "types": ["administrative_area_level_1", "political"]}, {"long_name": "Czechia", "short_name": "CZ", "types": ["country", "political"]}, {"long_name": "117 20", "short_name": "117 20", "types": ["postal_code"]}], "formatted_address": "N\u00e1rodn\u00ed 3, 117 20 Praha 1-Star\u00e9 M\u011bsto, Czechia", "geometry": {"location": {"lat": 50.0816138, "lng": 14.4142}, "location_type": "ROOFTOP", "viewport": {"northeast": {"lat": 50.0829627802915, "lng": 14.4155489802915}, "southwest": {"lat": 50.0802648197085, "lng": 14.4128510197085}}}, "partial_match": true, "place_id": "ChIJVbDHIfCUC0cRxBa6hcu0jg8", "types": ["establishment", "point_of_interest"]}]}, "193352282": {"AfN": "daegu gyeongbuk institute of science and technology", "Location": [{"address_components": [{"long_name": "South Korea", "short_name": "KR", "types": ["country", "political"]}], "formatted_address": "South Korea, \ub300\uad6c\uad11\uc5ed\uc2dc \ub2ec\uc131\uad70 \ud604\ud48d\uba74 \uc0c1\ub9ac 50-1", "geometry": {"location": {"lat": 35.705286, "lng": 128.457102}, "location_type": "GEOMETRIC_CENTER", "viewport": {"northeast": {"lat": 35.7066349802915, "lng": 128.4584509802915}, "southwest": {"lat": 35.7039370197085, "lng": 128.4557530197085}}}, "place_id": "ChIJt2_U_W9YbzURGn5NCLNRFIk", "types": ["establishment", "point_of_interest", "university"]}, {"address_components": [{"long_name": "South Korea", "short_name": "KR", "types": ["country", "political"]}, {"long_name": "Yuga-myeon", "short_name": "Yuga-myeon", "types": ["political", "sublocality", "sublocality_level_2"]}, {"long_name": "Daegu", "short_name": "Daegu", "types": ["administrative_area_level_1", "political"]}, {"long_name": "711-880", "short_name": "711-880", "types": ["postal_code"]}], "formatted_address": "Yuga-myeon, Daegu, South Korea", "geometry": {"location": {"lat": 35.704205, "lng": 128.458595}, "location_type": "GEOMETRIC_CENTER", "viewport": {"northeast": {"lat": 35.7055539802915, "lng": 128.4599439802915}, "southwest": {"lat": 35.70285601970851, "lng": 128.4572460197085}}}, "place_id": "ChIJ0zKJV3FYbzURtoUsUqyIyCc", "types": ["bus_station", "establishment", "point_of_interest", "transit_station"]}]}, "9323808": {"AfN": "daegu university", "Location": [{"address_components": [{"long_name": "201", "short_name": "201", "types": ["premise"]}, {"long_name": "Daegudae-ro", "short_name": "Daegudae-ro", "types": ["political", "sublocality", "sublocality_level_4"]}, {"long_name": "Jillyang-eup", "short_name": "Jillyang-eup", "types": ["political", "sublocality", "sublocality_level_2"]}, {"long_name": "Gyeongsan", "short_name": "Gyeongsan", "types": ["locality", "political"]}, {"long_name": "Gyeongsangbuk-do", "short_name": "Gyeongsangbuk-do", "types": ["administrative_area_level_1", "political"]}, {"long_name": "South Korea", "short_name": "KR", "types": ["country", "political"]}, {"long_name": "712-830", "short_name": "712-830", "types": ["postal_code"]}], "formatted_address": "201 Daegudae-ro, Jillyang-eup, Gyeongsan, Gyeongsangbuk-do, South Korea", "geometry": {"location": {"lat": 35.9032203, "lng": 128.8512652}, "location_type": "ROOFTOP", "viewport": {"northeast": {"lat": 35.9045692802915, "lng": 128.8526141802915}, "southwest": {"lat": 35.9018713197085, "lng": 128.8499162197085}}}, "place_id": "ChIJBzDGzaVtZjURQyP5soQoUSI", "types": ["establishment", "point_of_interest", "university"]}]}, "119522612": {"AfN": "daejeon university", "Location": [{"address_components": [{"long_name": "62", "short_name": "62", "types": ["premise"]}, {"long_name": "Daehak-ro", "short_name": "Daehak-ro", "types": ["political", "sublocality", "sublocality_level_4"]}, {"long_name": "Yongun-dong", "short_name": "Yongun-dong", "types": ["political", "sublocality", "sublocality_level_2"]}, {"long_name": "Dong-gu", "short_name": "Dong-gu", "types": ["political", "sublocality", "sublocality_level_1"]}, {"long_name": "Daejeon", "short_name": "Daejeon", "types": ["administrative_area_level_1", "political"]}, {"long_name": "South Korea", "short_name": "KR", "types": ["country", "political"]}, {"long_name": "300-120", "short_name": "300-120", "types": ["postal_code"]}], "formatted_address": "62 Daehak-ro, Yongun-dong, Dong-gu, Daejeon, South Korea", "geometry": {"location": {"lat": 36.3351561, "lng": 127.4607359}, "location_type": "ROOFTOP", "viewport": {"northeast": {"lat": 36.3365050802915, "lng": 127.4620848802915}, "southwest": {"lat": 36.3338071197085, "lng": 127.4593869197085}}}, "place_id": "ChIJqQ1rSIRIZTURMEg5TiCwbIc", "types": ["establishment", "point_of_interest", "university"]}]}, "930934608": {"AfN": "daelim industrial", "Location": [{"address_components": [{"long_name": "1", "short_name": "1", "types": ["street_number"]}, {"long_name": "Goldhill Plaza", "short_name": "Goldhill Plaza", "types": ["route"]}, {"long_name": "Novena", "short_name": "Novena", "types": ["neighborhood", "political"]}, {"long_name": "Singapore", "short_name": "Singapore", "types": ["locality", "political"]}, {"long_name": "Singapore", "short_name": "SG", "types": ["country", "political"]}, {"long_name": "308900", "short_name": "308900", "types": ["postal_code"]}], "formatted_address": "1 Goldhill Plaza, Singapore 308900", "geometry": {"location": {"lat": 1.318222, "lng": 103.842817}, "location_type": "ROOFTOP", "viewport": {"northeast": {"lat": 1.319570980291502, "lng": 103.8441659802915}, "southwest": {"lat": 1.316873019708498, "lng": 103.8414680197085}}}, "partial_match": true, "place_id": "ChIJ1ROqx-cZ2jER8f-an8ZOPCY", "types": ["establishment", "general_contractor", "point_of_interest"]}]}, "137296409": {"AfN": "daemen college", "Location": [{"address_components": [{"long_name": "4380", "short_name": "4380", "types": ["street_number"]}, {"long_name": "Main Street", "short_name": "Main St", "types": ["route"]}, {"long_name": "Amherst", "short_name": "Amherst", "types": ["locality", "political"]}, {"long_name": "Amherst", "short_name": "Amherst", "types": ["administrative_area_level_3", "political"]}, {"long_name": "Erie County", "short_name": "Erie County", "types": ["administrative_area_level_2", "political"]}, {"long_name": "New York", "short_name": "NY", "types": ["administrative_area_level_1", "political"]}, {"long_name": "United States", "short_name": "US", "types": ["country", "political"]}, {"long_name": "14226", "short_name": "14226", "types": ["postal_code"]}], "formatted_address": "4380 Main St, Amherst, NY 14226, USA", "geometry": {"location": {"lat": 42.9648902, "lng": -78.78843839999999}, "location_type": "ROOFTOP", "viewport": {"northeast": {"lat": 42.9662391802915, "lng": -78.7870894197085}, "southwest": {"lat": 42.9635412197085, "lng": -78.7897873802915}}}, "place_id": "ChIJlwUxxANz04kRRR5H-_PUpWc", "types": ["establishment", "point_of_interest", "university"]}]}, "74455405": {"AfN": "dahan institute of technology", "Location": [{"address_components": [{"long_name": "1", "short_name": "1", "types": ["street_number"]}, {"long_name": "\u5927\u6f22\u6751\u6a39\u4eba\u8857", "short_name": "\u5927\u6f22\u6751\u6a39\u4eba\u8857", "types": ["route"]}, {"long_name": "Xincheng Township", "short_name": "Xincheng Township", "types": ["administrative_area_level_3", "political"]}, {"long_name": "Hualien County", "short_name": "Hualien County", "types": ["administrative_area_level_2", "political"]}, {"long_name": "Taiwan", "short_name": "TW", "types": ["country", "political"]}, {"long_name": "971", "short_name": "971", "types": ["postal_code"]}], "formatted_address": "971, Taiwan, Hualien County, Xincheng Township, \u5927\u6f22\u6751\u6a39\u4eba\u88571\u865f", "geometry": {"location": {"lat": 24.0392796, "lng": 121.6052322}, "location_type": "ROOFTOP", "viewport": {"northeast": {"lat": 24.0406285802915, "lng": 121.6065811802915}, "southwest": {"lat": 24.0379306197085, "lng": 121.6038832197085}}}, "place_id": "ChIJU5o5IxOeaDQRjvc0QgZmwHk", "types": ["establishment", "point_of_interest", "school"]}]}, "126913320": {"AfN": "dai nippon printing", "Location": [{"address_components": [{"long_name": "4524", "short_name": "4524", "types": ["street_number"]}, {"long_name": "Enterprise Drive Northwest", "short_name": "Enterprise Dr NW", "types": ["route"]}, {"long_name": "Concord", "short_name": "Concord", "types": ["locality", "political"]}, {"long_name": "2, Poplar Tent", "short_name": "2, Poplar Tent", "types": ["administrative_area_level_3", "political"]}, {"long_name": "Cabarrus County", "short_name": "Cabarrus County", "types": ["administrative_area_level_2", "political"]}, {"long_name": "North Carolina", "short_name": "NC", "types": ["administrative_area_level_1", "political"]}, {"long_name": "United States", "short_name": "US", "types": ["country", "political"]}, {"long_name": "28027", "short_name": "28027", "types": ["postal_code"]}, {"long_name": "6437", "short_name": "6437", "types": ["postal_code_suffix"]}], "formatted_address": "4524 Enterprise Dr NW, Concord, NC 28027, USA", "geometry": {"location": {"lat": 35.4228941, "lng": -80.6598108}, "location_type": "ROOFTOP", "viewport": {"northeast": {"lat": 35.4242430802915, "lng": -80.65846181970849}, "southwest": {"lat": 35.4215451197085, "lng": -80.66115978029151}}}, "place_id": "ChIJxzEjdgoFVIgRQSGKAEor4ok", "types": ["establishment", "point_of_interest"]}]}, "179904914": {"AfN": "daiichi sankyo", "Location": [{"address_components": [{"long_name": "2400", "short_name": "2400", "types": ["street_number"]}, {"long_name": "Baglyos Circle", "short_name": "Baglyos Cir", "types": ["route"]}, {"long_name": "Bethlehem", "short_name": "Bethlehem", "types": ["locality", "political"]}, {"long_name": "Bethlehem Township", "short_name": "Bethlehem Township", "types": ["administrative_area_level_3", "political"]}, {"long_name": "Northampton County", "short_name": "Northampton County", "types": ["administrative_area_level_2", "political"]}, {"long_name": "Pennsylvania", "short_name": "PA", "types": ["administrative_area_level_1", "political"]}, {"long_name": "United States", "short_name": "US", "types": ["country", "political"]},