{"1289790988": {"AfN": "national audubon society", "Location": [{"address_components": [{"long_name": "7th fl", "short_name": "7th fl", "types": ["subpremise"]}, {"long_name": "225", "short_name": "225", "types": ["street_number"]}, {"long_name": "Varick Street", "short_name": "Varick St", "types": ["route"]}, {"long_name": "Manhattan", "short_name": "Manhattan", "types": ["political", "sublocality", "sublocality_level_1"]}, {"long_name": "New York", "short_name": "New York", "types": ["locality", "political"]}, {"long_name": "New York County", "short_name": "New York County", "types": ["administrative_area_level_2", "political"]}, {"long_name": "New York", "short_name": "NY", "types": ["administrative_area_level_1", "political"]}, {"long_name": "United States", "short_name": "US", "types": ["country", "political"]}, {"long_name": "10014", "short_name": "10014", "types": ["postal_code"]}], "formatted_address": "225 Varick St 7th fl, New York, NY 10014, USA", "geometry": {"location": {"lat": 40.7291112, "lng": -74.00582039999999}, "location_type": "ROOFTOP", "viewport": {"northeast": {"lat": 40.73046018029149, "lng": -74.00447141970848}, "southwest": {"lat": 40.7277622197085, "lng": -74.0071693802915}}}, "place_id": "ChIJ--f-o5JZwokRYrKyQ4rOE9A", "types": ["establishment", "point_of_interest"]}]}, "8961855": {"AfN": "national autonomous university of mexico", "Location": [{"address_components": [{"long_name": "3000", "short_name": "3000", "types": ["street_number"]}, {"long_name": "Av Universidad", "short_name": "Av Universidad", "types": ["route"]}, {"long_name": "Cd. Universitaria", "short_name": "Cd. Universitaria", "types": ["neighborhood", "political"]}, {"long_name": "Coyoac\u00e1n", "short_name": "Coyoac\u00e1n", "types": ["political", "sublocality", "sublocality_level_1"]}, {"long_name": "Ciudad de M\u00e9xico", "short_name": "M\u00e9xico D.F.", "types": ["locality", "political"]}, {"long_name": "Ciudad de M\u00e9xico", "short_name": "CDMX", "types": ["administrative_area_level_1", "political"]}, {"long_name": "Mexico", "short_name": "MX", "types": ["country", "political"]}, {"long_name": "04510", "short_name": "04510", "types": ["postal_code"]}], "formatted_address": "Av Universidad 3000, Cd. Universitaria, Coyoac\u00e1n, 04510 Ciudad de M\u00e9xico, CDMX, Mexico", "geometry": {"location": {"lat": 19.3228313, "lng": -99.18657739999999}, "location_type": "ROOFTOP", "viewport": {"northeast": {"lat": 19.3241802802915, "lng": -99.1852284197085}, "southwest": {"lat": 19.3214823197085, "lng": -99.1879263802915}}}, "place_id": "ChIJrQvKHwcAzoURF2dST1v6iZk", "types": ["establishment", "point_of_interest", "university"]}, {"address_components": [{"long_name": "INFONAVIT Centro", "short_name": "INFONAVIT Centro", "types": ["neighborhood", "political"]}, {"long_name": "Cuautitl\u00e1n Izcalli", "short_name": "Cuautitl\u00e1n Izcalli", "types": ["locality", "political"]}, {"long_name": "Estado de M\u00e9xico", "short_name": "M\u00e9x.", "types": ["administrative_area_level_1", "political"]}, {"long_name": "Mexico", "short_name": "MX", "types": ["country", "political"]}, {"long_name": "54700", "short_name": "54700", "types": ["postal_code"]}], "formatted_address": "Torre Izcalli K5, INFONAVIT Centro, 54700 Cuautitl\u00e1n Izcalli, M\u00e9x., Mexico", "geometry": {"location": {"lat": 19.6364428, "lng": -99.20775359999999}, "location_type": "GEOMETRIC_CENTER", "viewport": {"northeast": {"lat": 19.6377917802915, "lng": -99.2064046197085}, "southwest": {"lat": 19.63509381970849, "lng": -99.2091025802915}}}, "place_id": "ChIJdwTlOBQe0oURZiZKls-DGDU", "types": ["establishment", "point_of_interest", "university"]}, {"address_components": [{"long_name": "University City", "short_name": "CU UNAM", "types": ["political", "sublocality", "sublocality_level_1"]}, {"long_name": "Mexico City", "short_name": "M\u00e9xico D.F.", "types": ["locality", "political"]}, {"long_name": "Mexico City", "short_name": "CDMX", "types": ["administrative_area_level_1", "political"]}, {"long_name": "Mexico", "short_name": "MX", "types": ["country", "political"]}], "formatted_address": "University City, Mexico City, CDMX, Mexico", "geometry": {"bounds": {"northeast": {"lat": 19.336989, "lng": -99.16908760000001}, "southwest": {"lat": 19.3063059, "lng": -99.20122920000001}}, "location": {"lat": 19.3188895, "lng": -99.1843676}, "location_type": "APPROXIMATE", "viewport": {"northeast": {"lat": 19.336989, "lng": -99.16908760000001}, "southwest": {"lat": 19.3063059, "lng": -99.20122920000001}}}, "place_id": "ChIJG5qXIAkAzoURTYC6BwI8n3w", "types": ["political", "sublocality", "sublocality_level_1"]}]}, "90281761": {"AfN": "national aviation university", "Location": [{"address_components": [{"long_name": "1", "short_name": "1", "types": ["street_number"]}, {"long_name": "Kosmonavta Komarova Avenue", "short_name": "Kosmonavta Komarova Ave", "types": ["route"]}, {"long_name": "Solom'yans'kyi district", "short_name": "Solom'yans'kyi district", "types": ["political", "sublocality", "sublocality_level_1"]}, {"long_name": "Kyiv", "short_name": "Kyiv", "types": ["locality", "political"]}, {"long_name": "Kyiv City", "short_name": "Kyiv City", "types": ["administrative_area_level_2", "political"]}, {"long_name": "Ukraine", "short_name": "UA", "types": ["country", "political"]}, {"long_name": "02000", "short_name": "02000", "types": ["postal_code"]}], "formatted_address": "Kosmonavta Komarova Ave, 1, Kyiv, Ukraine, 02000", "geometry": {"location": {"lat": 50.4385163, "lng": 30.4282989}, "location_type": "ROOFTOP", "viewport": {"northeast": {"lat": 50.43986528029149, "lng": 30.42964788029149}, "southwest": {"lat": 50.43716731970849, "lng": 30.4269499197085}}}, "place_id": "ChIJXXhH9RnM1EARZNk5AiSI5ec", "types": ["establishment", "point_of_interest", "university"]}]}, "147367211": {"AfN": "national blood service", "Location": [{"address_components": [{"long_name": "300", "short_name": "300", "types": ["street_number"]}, {"long_name": "Elm Street", "short_name": "Elm St", "types": ["route"]}, {"long_name": "Sudbury", "short_name": "Sudbury", "types": ["political", "sublocality", "sublocality_level_1"]}, {"long_name": "Sudbury", "short_name": "Sudbury", "types": ["locality", "political"]}, {"long_name": "Greater Sudbury Division", "short_name": "Greater Sudbury Division", "types": ["administrative_area_level_2", "political"]}, {"long_name": "Ontario", "short_name": "ON", "types": ["administrative_area_level_1", "political"]}, {"long_name": "Canada", "short_name": "CA", "types": ["country", "political"]}, {"long_name": "P3C 1V4", "short_name": "P3C 1V4", "types": ["postal_code"]}], "formatted_address": "300 Elm St, Sudbury, ON P3C 1V4, Canada", "geometry": {"location": {"lat": 46.4935482, "lng": -81.0062703}, "location_type": "ROOFTOP", "viewport": {"northeast": {"lat": 46.4948971802915, "lng": -81.0049213197085}, "southwest": {"lat": 46.4921992197085, "lng": -81.00761928029151}}}, "place_id": "ChIJyaQUKx6rL00Rk-tbFkMrzSo", "types": ["establishment", "health", "point_of_interest"]}]}, "1296697866": {"AfN": "national board of health and welfare", "Location": [{"address_components": [{"long_name": "United States", "short_name": "US", "types": ["country", "political"]}], "formatted_address": "United States", "geometry": {"bounds": {"northeast": {"lat": 71.5388001, "lng": -66.885417}, "southwest": {"lat": 18.7763, "lng": 170.5957}}, "location": {"lat": 37.09024, "lng": -95.712891}, "location_type": "APPROXIMATE", "viewport": {"northeast": {"lat": 49.38, "lng": -66.94}, "southwest": {"lat": 25.82, "lng": -124.39}}}, "place_id": "ChIJCzYy5IS16lQRQrfeQ5K5Oxw", "types": ["country", "political"]}]}, "1293309919": {"AfN": "national board of medical examiners", "Location": [{"address_components": [{"long_name": "3750", "short_name": "3750", "types": ["street_number"]}, {"long_name": "Market Street", "short_name": "Market St", "types": ["route"]}, {"long_name": "University City", "short_name": "University City", "types": ["neighborhood", "political"]}, {"long_name": "Philadelphia", "short_name": "Philadelphia", "types": ["locality", "political"]}, {"long_name": "Philadelphia County", "short_name": "Philadelphia County", "types": ["administrative_area_level_2", "political"]}, {"long_name": "Pennsylvania", "short_name": "PA", "types": ["administrative_area_level_1", "political"]}, {"long_name": "United States", "short_name": "US", "types": ["country", "political"]}, {"long_name": "19104", "short_name": "19104", "types": ["postal_code"]}, {"long_name": "3190", "short_name": "3190", "types": ["postal_code_suffix"]}], "formatted_address": "3750 Market St, Philadelphia, PA 19104, USA", "geometry": {"location": {"lat": 39.95635, "lng": -75.197829}, "location_type": "ROOFTOP", "viewport": {"northeast": {"lat": 39.9576989802915, "lng": -75.19648001970849}, "southwest": {"lat": 39.9550010197085, "lng": -75.1991779802915}}}, "place_id": "ChIJ50ZM-1bGxokRRGLn4FNXe-8", "types": ["establishment", "point_of_interest"]}]}, "85332549": {"AfN": "national brain research centre", "Location": [{"address_components": [{"long_name": "Gurugram", "short_name": "Gurugram", "types": ["locality", "political"]}, {"long_name": "Haryana", "short_name": "HR", "types": ["administrative_area_level_1", "political"]}, {"long_name": "India", "short_name": "IN", "types": ["country", "political"]}, {"long_name": "122051", "short_name": "122051", "types": ["postal_code"]}], "formatted_address": "NH-8, Manesar, Gurugram, Haryana 122051, India", "geometry": {"location": {"lat": 28.3323564, "lng": 76.9385996}, "location_type": "GEOMETRIC_CENTER", "viewport": {"northeast": {"lat": 28.3337053802915, "lng": 76.93994858029151}, "southwest": {"lat": 28.3310074197085, "lng": 76.9372506197085}}}, "place_id": "ChIJY-sveg08DTkR_P2Xky1aXPE", "types": ["establishment", "point_of_interest"]}]}, "1321305853": {"AfN": "national bureau of economic research", "Location": [{"address_components": [{"long_name": "1050", "short_name": "1050", "types": ["street_number"]}, {"long_name": "Massachusetts Avenue", "short_name": "Massachusetts Ave", "types": ["route"]}, {"long_name": "Riverside", "short_name": "Riverside", "types": ["neighborhood", "political"]}, {"long_name": "Cambridge", "short_name": "Cambridge", "types": ["locality", "political"]}, {"long_name": "Middlesex County", "short_name": "Middlesex County", "types": ["administrative_area_level_2", "political"]}, {"long_name": "Massachusetts", "short_name": "MA", "types": ["administrative_area_level_1", "political"]}, {"long_name": "United States", "short_name": "US", "types": ["country", "political"]}, {"long_name": "02138", "short_name": "02138", "types": ["postal_code"]}], "formatted_address": "1050 Massachusetts Ave, Cambridge, MA 02138, USA", "geometry": {"location": {"lat": 42.3697938, "lng": -71.11299439999999}, "location_type": "ROOFTOP", "viewport": {"northeast": {"lat": 42.37114278029149, "lng": -71.11164541970848}, "southwest": {"lat": 42.36844481970849, "lng": -71.1143433802915}}}, "place_id": "ChIJn4zHF1t344kRm2sd539VBlk", "types": ["establishment", "point_of_interest"]}, {"address_components": [{"long_name": "365", "short_name": "365", "types": ["street_number"]}, {"long_name": "5th Avenue", "short_name": "5th Ave", "types": ["route"]}, {"long_name": "Manhattan", "short_name": "Manhattan", "types": ["political", "sublocality", "sublocality_level_1"]}, {"long_name": "New York", "short_name": "New York", "types": ["locality", "political"]}, {"long_name": "New York County", "short_name": "New York County", "types": ["administrative_area_level_2", "political"]}, {"long_name": "New York", "short_name": "NY", "types": ["administrative_area_level_1", "political"]}, {"long_name": "United States", "short_name": "US", "types": ["country", "political"]}, {"long_name": "10016", "short_name": "10016", "types": ["postal_code"]}, {"long_name": "4309", "short_name": "4309", "types": ["postal_code_suffix"]}], "formatted_address": "365 5th Ave, New York, NY 10016, USA", "geometry": {"location": {"lat": 40.7486485, "lng": -73.98400699999999}, "location_type": "ROOFTOP", "viewport": {"northeast": {"lat": 40.7499974802915, "lng": -73.9826580197085}, "southwest": {"lat": 40.74729951970851, "lng": -73.9853559802915}}}, "place_id": "ChIJ8xE8walZwokRkyIRlrbyc3k", "types": ["establishment", "point_of_interest"]}]}, "54696188": {"AfN": "national cancer research institute", "Location": [{"address_components": [{"long_name": "1730", "short_name": "1730", "types": ["street_number"]}, {"long_name": "K Street Northwest", "short_name": "K St NW", "types": ["route"]}, {"long_name": "Downtown", "short_name": "Downtown", "types": ["neighborhood", "political"]}, {"long_name": "Washington", "short_name": "Washington", "types": ["locality", "political"]}, {"long_name": "District of Columbia", "short_name": "DC", "types": ["administrative_area_level_1", "political"]}, {"long_name": "United States", "short_name": "US", "types": ["country", "political"]}, {"long_name": "20006", "short_name": "20006", "types": ["postal_code"]}], "formatted_address": "1730 K St NW, Washington, DC 20006, USA", "geometry": {"location": {"lat": 38.9023919, "lng": -77.04018409999999}, "location_type": "ROOFTOP", "viewport": {"northeast": {"lat": 38.9037408802915, "lng": -77.03883511970848}, "southwest": {"lat": 38.9010429197085, "lng": -77.0415330802915}}}, "place_id": "ChIJN6QlW7m3t4kRv5q8DTEWWCo", "types": ["establishment", "point_of_interest"]}]}, "872071967": {"AfN": "national capital area council", "Location": [{"address_components": [{"long_name": "9190", "short_name": "9190", "types": ["street_number"]}, {"long_name": "Rockville Pike", "short_name": "Rockville Pike", "types": ["route"]}, {"long_name": "Bethesda", "short_name": "Bethesda", "types": ["locality", "political"]}, {"long_name": "7", "short_name": "7", "types": ["administrative_area_level_3", "political"]}, {"long_name": "Montgomery County", "short_name": "Montgomery County", "types": ["administrative_area_level_2", "political"]}, {"long_name": "Maryland", "short_name": "MD", "types": ["administrative_area_level_1", "political"]}, {"long_name": "United States", "short_name": "US", "types": ["country", "political"]}, {"long_name": "20814", "short_name": "20814", "types": ["postal_code"]}], "formatted_address": "9190 Rockville Pike, Bethesda, MD 20814, USA", "geometry": {"location": {"lat": 39.0069659, "lng": -77.09799280000001}, "location_type": "ROOFTOP", "viewport": {"northeast": {"lat": 39.0083148802915, "lng": -77.09664381970852}, "southwest": {"lat": 39.0056169197085, "lng": -77.09934178029152}}}, "place_id": "ChIJ2RPbOlfJt4kR0YL_MV1eUeg", "types": ["establishment", "point_of_interest"]}]}, "192507692": {"AfN": "national center for agricultural utilization research", "Location": [{"address_components": [{"long_name": "1815", "short_name": "1815", "types": ["street_number"]}, {"long_name": "North University Street", "short_name": "N University St", "types": ["route"]}, {"long_name": "Peoria", "short_name": "Peoria", "types": ["locality", "political"]}, {"long_name": "Peoria City Township", "short_name": "Peoria City Township", "types": ["administrative_area_level_3", "political"]}, {"long_name": "Peoria County", "short_name": "Peoria County", "types": ["administrative_area_level_2", "political"]}, {"long_name": "Illinois", "short_name": "IL", "types": ["administrative_area_level_1", "political"]}, {"long_name": "United States", "short_name": "US", "types": ["country", "political"]}, {"long_name": "61604", "short_name": "61604", "types": ["postal_code"]}, {"long_name": "3902", "short_name": "3902", "types": ["postal_code_suffix"]}], "formatted_address": "1815 N University St, Peoria, IL 61604, USA", "geometry": {"location": {"lat": 40.7097557, "lng": -89.6145301}, "location_type": "ROOFTOP", "viewport": {"northeast": {"lat": 40.71110468029149, "lng": -89.61318111970849}, "southwest": {"lat": 40.7084067197085, "lng": -89.6158790802915}}}, "place_id": "ChIJmaI4EVpZCogR6PlXH_a3QfE", "types": ["establishment", "point_of_interest"]}]}, "107766831": {"AfN": "national center for atmospheric research", "Location": [{"address_components": [{"long_name": "NCAR Mesa Laboratory", "short_name": "NCAR Mesa Laboratory", "types": ["art_gallery", "establishment", "park", "point_of_interest", "travel_agency"]}, {"long_name": "1850", "short_name": "1850", "types": ["street_number"]}, {"long_name": "Table Mesa Drive", "short_name": "Table Mesa Dr", "types": ["route"]}, {"long_name": "Boulder", "short_name": "Boulder", "types": ["locality", "political"]}, {"long_name": "Boulder County", "short_name": "Boulder County", "types": ["administrative_area_level_2", "political"]}, {"long_name": "Colorado", "short_name": "CO", "types": ["administrative_area_level_1", "political"]}, {"long_name": "United States", "short_name": "US", "types": ["country", "political"]}, {"long_name": "80305", "short_name": "80305", "types": ["postal_code"]}], "formatted_address": "NCAR Mesa Laboratory, 1850 Table Mesa Dr, Boulder, CO 80305, USA", "geometry": {"location": {"lat": 39.9783179, "lng": -105.2750307}, "location_type": "ROOFTOP", "viewport": {"northeast": {"lat": 39.9796668802915, "lng": -105.2736817197085}, "southwest": {"lat": 39.9769689197085, "lng": -105.2763796802915}}}, "place_id": "ChIJcZxNHFXsa4cR2oo880PDcGE", "types": ["art_gallery", "establishment", "park", "point_of_interest", "travel_agency"]}]}, "173482105": {"AfN": "national center for computational sciences", "Location": [{"address_components": [{"long_name": "701", "short_name": "701", "types": ["street_number"]}, {"long_name": "East Martin Luther King Boulevard", "short_name": "E M L King Blvd", "types": ["route"]}, {"long_name": "Martin Luther King", "short_name": "Martin Luther King", "types": ["neighborhood", "political"]}, {"long_name": "Chattanooga", "short_name": "Chattanooga", "types": ["locality", "political"]}, {"long_name": "Hamilton County", "short_name": "Hamilton County", "types": ["administrative_area_level_2", "political"]}, {"long_name": "Tennessee", "short_name": "TN", "types": ["administrative_area_level_1", "political"]}, {"long_name": "United States", "short_name": "US", "types": ["country", "political"]}, {"long_name": "37403", "short_name": "37403", "types": ["postal_code"]}, {"long_name": "2902", "short_name": "2902", "types": ["postal_code_suffix"]}], "formatted_address": "701 E M L King Blvd, Chattanooga, TN 37403, USA", "geometry": {"location": {"lat": 35.0427078, "lng": -85.29922479999999}, "location_type": "ROOFTOP", "viewport": {"northeast": {"lat": 35.04405678029149, "lng": -85.2978758197085}, "southwest": {"lat": 35.0413588197085, "lng": -85.3005737802915}}}, "place_id": "ChIJA_ZAbXFeYIgRAfu3erXHAlo", "types": ["establishment", "point_of_interest"]}]}, "82186333": {"AfN": "national center for electron microscopy", "Location": [{"address_components": [{"long_name": "Berkeley Law", "short_name": "Berkeley Law", "types": ["establishment", "point_of_interest"]}, {"long_name": "Naval Architects Bldg", "short_name": "Naval Architects Bldg", "types": ["route"]}, {"long_name": "Berkeley", "short_name": "Berkeley", "types": ["locality", "political"]}, {"long_name": "Alameda County", "short_name": "Alameda County", "types": ["administrative_area_level_2", "political"]}, {"long_name": "California", "short_name": "CA", "types": ["administrative_area_level_1", "political"]}, {"long_name": "United States", "short_name": "US", "types": ["country", "political"]}, {"long_name": "94720", "short_name": "94720", "types": ["postal_code"]}, {"long_name": "0001", "short_name": "0001", "types": ["postal_code_suffix"]}], "formatted_address": "Berkeley Law, Naval Architects Bldg, Berkeley, CA 94720, USA", "geometry": {"location": {"lat": 37.8755073, "lng": -122.2424563}, "location_type": "GEOMETRIC_CENTER", "viewport": {"northeast": {"lat": 37.8768562802915, "lng": -122.2411073197085}, "southwest": {"lat": 37.8741583197085, "lng": -122.2438052802915}}}, "place_id": "ChIJO-diiUd8hYARUo5ayaXKyZY", "types": ["establishment", "point_of_interest", "university"]}]}, "1310183320": {"AfN": "national center for genome resources", "Location": [{"address_components": [{"long_name": "2935", "short_name": "2935", "types": ["street_number"]}, {"long_name": "Rodeo Park Drive East", "short_name": "Rodeo Park Dr E", "types": ["route"]}, {"long_name": "Santa Fe", "short_name": "Santa Fe", "types": ["locality", "political"]}, {"long_name": "Santa Fe County", "short_name": "Santa Fe County", "types": ["administrative_area_level_2", "political"]}, {"long_name": "New Mexico", "short_name": "NM", "types": ["administrative_area_level_1", "political"]}, {"long_name": "United States", "short_name": "US", "types": ["country", "political"]}, {"long_name": "87505", "short_name": "87505", "types": ["postal_code"]}], "formatted_address": "2935 Rodeo Park Dr E, Santa Fe, NM 87505, USA", "geometry": {"location": {"lat": 35.6366, "lng": -105.959222}, "location_type": "ROOFTOP", "viewport": {"northeast": {"lat": 35.6379489802915, "lng": -105.9578730197085}, "southwest": {"lat": 35.6352510197085, "lng": -105.9605709802915}}}, "place_id": "ChIJzVTv2KRQGIcREQECFP9CgDw", "types": ["establishment", "point_of_interest"]}]}, "135849542": {"AfN": "national center for geographic information and analysis", "Location": [{"address_components": [{"long_name": "301", "short_name": "301", "types": ["subpremise"]}, {"long_name": "Wilkeson Quad", "short_name": "Wilkeson Quad", "types": ["premise"]}, {"long_name": "301", "short_name": "301", "types": ["street_number"]}, {"long_name": "Wilkeson Quad", "short_name": "Wilkeson Quad", "types": ["route"]}, {"long_name": "Buffalo", "short_name": "Buffalo", "types": ["locality", "political"]}, {"long_name": "Amherst", "short_name": "Amherst", "types": ["administrative_area_level_3", "political"]}, {"long_name": "Erie County", "short_name": "Erie County", "types": ["administrative_area_level_2", "political"]}, {"long_name": "New York", "short_name": "NY", "types": ["administrative_area_level_1", "political"]}, {"long_name": "United States", "short_name": "US", "types": ["country", "political"]}, {"long_name": "14261", "short_name": "14261", "types": ["postal_code"]}, {"long_name": "0055", "short_name": "0055", "types": ["postal_code_suffix"]}], "formatted_address": "Wilkeson Quad, 301 Wilkeson Quad #301, Buffalo, NY 14261, USA", "geometry": {"location": {"lat": 43.0090611, "lng": -78.7836588}, "location_type": "ROOFTOP", "viewport": {"northeast": {"lat": 43.01041008029149, "lng": -78.7823098197085}, "southwest": {"lat": 43.0077121197085, "lng": -78.78500778029151}}}, "place_id": "ChIJj2wrt2V004kRYqiaSg9XjXc", "types": ["establishment", "point_of_interest"]}]}, "1330589705": {"AfN": "national center for health statistics", "Location": [{"address_components": [{"long_name": "3311", "short_name": "3311", "types": ["street_number"]}, {"long_name": "Toledo Road", "short_name": "Toledo Rd", "types": ["route"]}, {"long_name": "Hyattsville", "short_name": "Hyattsville", "types": ["locality", "political"]}, {"long_name": "17, Chillum", "short_name": "17, Chillum", "types": ["administrative_area_level_3", "political"]}, {"long_name": "Prince George's County", "short_name": "Prince George's County", "types": ["administrative_area_level_2", "political"]}, {"long_name": "Maryland", "short_name": "MD", "types": ["administrative_area_level_1", "political"]}, {"long_name": "United States", "short_name": "US", "types": ["country", "political"]}, {"long_name": "20782", "short_name": "20782", "types": ["postal_code"]}, {"long_name": "2064", "short_name": "2064", "types": ["postal_code_suffix"]}], "formatted_address": "3311 Toledo Rd, Hyattsville, MD 20782, USA", "geometry": {"location": {"lat": 38.969439, "lng": -76.95173299999999}, "location_type": "ROOFTOP", "viewport": {"northeast": {"lat": 38.9707879802915, "lng": -76.95038401970848}, "southwest": {"lat": 38.96809001970851, "lng": -76.9530819802915}}}, "place_id": "ChIJ6yt8G_DGt4kR9YEIsoFuFzU", "types": ["establishment", "point_of_interest"]}]}, "19085752": {"AfN": "national center for immunization and respiratory diseases", "Location": [{"address_components": [{"long_name": "1600", "short_name": "1600", "types": ["street_number"]}, {"long_name": "Clifton Road", "short_name": "Clifton Rd", "types": ["route"]}, {"long_name": "Atlanta", "short_name": "Atlanta", "types": ["locality", "political"]}, {"long_name": "DeKalb County", "short_name": "Dekalb County", "types": ["administrative_area_level_2", "political"]}, {"long_name": "Georgia", "short_name": "GA", "types": ["administrative_area_level_1", "political"]}, {"long_name": "United States", "short_name": "US", "types": ["country", "political"]}, {"long_name": "30333", "short_name": "30333", "types": ["postal_code"]}], "formatted_address": "1600 Clifton Rd, Atlanta, GA 30333, USA", "geometry": {"location": {"lat": 33.7993178, "lng": -84.328008}, "location_type": "ROOFTOP", "viewport": {"northeast": {"lat": 33.80066678029149, "lng": -84.32665901970849}, "southwest": {"lat": 33.79796881970849, "lng": -84.32935698029151}}}, "place_id": "ChIJsx8GO3oE9YgRsjXGwtsQMBI", "types": ["establishment", "health", "local_government_office", "point_of_interest"]}]}, "1308686765": {"AfN": "national center for science education", "Location": [{"address_components": [{"long_name": "Suite 600", "short_name": "Suite 600", "types": ["subpremise"]}, {"long_name": "1904", "short_name": "1904", "types": ["street_number"]}, {"long_name": "Franklin Street", "short_name": "Franklin St", "types": ["route"]}, {"long_name": "Downtown", "short_name": "Downtown", "types": ["neighborhood", "political"]}, {"long_name": "Oakland", "short_name": "Oakland", "types": ["locality", "political"]}, {"long_name": "Alameda County", "short_name": "Alameda County", "types": ["administrative_area_level_2", "political"]}, {"long_name": "California", "short_name": "CA", "types": ["administrative_area_level_1", "political"]}, {"long_name": "United States", "short_name": "US", "types": ["country", "political"]}, {"long_name": "94612", "short_name": "94612", "types": ["postal_code"]}], "formatted_address": "1904 Franklin St Suite 600, Oakland, CA 94612, USA", "geometry": {"location": {"lat": 37.8073568, "lng": -122.2674248}, "location_type": "ROOFTOP", "viewport": {"northeast": {"lat": 37.8087057802915, "lng": -122.2660758197085}, "southwest": {"lat": 37.8060078197085, "lng": -122.2687737802915}}}, "place_id": "ChIJWcB7kPx9hYARm4Onl3NzwDc", "types": ["establishment", "point_of_interest"]}]}, "1300733628": {"AfN": "national center for simulation", "Location": [{"address_components": [{"long_name": "Orlando", "short_name": "Orlando", "types": ["locality", "political"]}, {"long_name": "Florida", "short_name": "FL", "types": ["administrative_area_level_1", "political"]}, {"long_name": "United States", "short_name": "US", "types": ["country", "political"]}, {"long_name": "32826", "short_name": "32826", "types": ["postal_code"]}, {"long_name": "3229", "short_name": "3229", "types": ["postal_code_suffix"]}], "formatted_address": "3039 Technology Parkway, Partnership III - #215, Orlando, FL 32826, United States", "geometry": {"location": {"lat": 28.584974, "lng": -81.19943599999999}, "location_type": "GEOMETRIC_CENTER", "viewport": {"northeast": {"lat": 28.5863229802915, "lng": -81.1980870197085}, "southwest": {"lat": 28.5836250197085, "lng": -81.2007849802915}}}, "place_id": "ChIJ-b6qNWRo54gRw7pRqjvt-0E", "types": ["establishment", "point_of_interest"]}]}, "19908199": {"AfN": "national center for supercomputing applications", "Location": [{"address_components": [{"long_name": "1205", "short_name": "1205", "types": ["street_number"]}, {"long_name": "West Clark Street", "short_name": "W Clark St", "types": ["route"]}, {"long_name": "Urbana", "short_name": "Urbana", "types": ["locality", "political"]}, {"long_name": "Cunningham Township", "short_name": "Cunningham Township", "types": ["administrative_area_level_3", "political"]}, {"long_name": "Champaign County", "short_name": "Champaign County", "types": ["administrative_area_level_2", "political"]}, {"long_name": "Illinois", "short_name": "IL", "types": ["administrative_area_level_1", "political"]}, {"long_name": "United States", "short_name": "US", "types": ["country", "political"]}, {"long_name": "61801", "short_name": "61801", "types": ["postal_code"]}, {"long_name": "2311", "short_name": "2311", "types": ["postal_code_suffix"]}], "formatted_address": "1205 W Clark St, Urbana, IL 61801, USA", "geometry": {"location": {"lat": 40.11491609999999, "lng": -88.2248642}, "location_type": "ROOFTOP", "viewport": {"northeast": {"lat": 40.11626508029149, "lng": -88.22351521970849}, "southwest": {"lat": 40.1135671197085, "lng": -88.22621318029151}}}, "place_id": "ChIJYSZrRmrXDIgRughaLYTqJpE", "types": ["establishment", "point_of_interest", "university"]}]}, "1304557061": {"AfN": "national center for toxicological research", "Location": [{"address_components": [{"long_name": "Pine Bluff Arsenal", "short_name": "Pine Bluff Arsenal", "types": ["route"]}, {"long_name": "Redfield", "short_name": "Redfield", "types": ["locality", "political"]}, {"long_name": "Jefferson Township", "short_name": "Jefferson Township", "types": ["administrative_area_level_3", "political"]}, {"long_name": "Jefferson County", "short_name": "Jefferson County", "types": ["administrative_area_level_2", "political"]}, {"long_name": "Arkansas", "short_name": "AR", "types": ["administrative_area_level_1", "political"]}, {"long_name": "United States", "short_name": "US", "types": ["country", "political"]}, {"long_name": "72132", "short_name": "72132", "types": ["postal_code"]}], "formatted_address": "Pine Bluff Arsenal, Redfield, AR 72132, USA", "geometry": {"location": {"lat": 34.3661992, "lng": -92.1125936}, "location_type": "GEOMETRIC_CENTER", "viewport": {"northeast": {"lat": 34.36754818029149, "lng": -92.11124461970849}, "southwest": {"lat": 34.3648502197085, "lng": -92.11394258029149}}}, "place_id": "ChIJB13E6FA2LYYRBhw-WtWz-Sg", "types": ["establishment", "point_of_interest"]}, {"address_components": [{"long_name": "3900", "short_name": "3900", "types": ["street_number"]}, {"long_name": "NCTR Road", "short_name": "NCTR Rd", "types": ["route"]}, {"long_name": "Jefferson", "short_name": "Jefferson", "types": ["locality", "political"]}, {"long_name": "Jefferson Township", "short_name": "Jefferson Township", "types": ["administrative_area_level_3", "political"]}, {"long_name": "Jefferson County", "short_name": "Jefferson County", "types": ["administrative_area_level_2", "political"]}, {"long_name": "Arkansas", "short_name": "AR", "types": ["administrative_area_level_1", "political"]}, {"long_name": "United States", "short_name": "US", "types": ["country", "political"]}, {"long_name": "72079", "short_name": "72079", "types": ["postal_code"]}], "formatted_address": "3900 NCTR Rd, Jefferson, AR 72079, USA", "geometry": {"location": {"lat": 34.3831127, "lng": -92.1055126}, "location_type": "ROOFTOP", "viewport": {"northeast": {"lat": 34.3844616802915, "lng": -92.10416361970849}, "southwest": {"lat": 34.3817637197085, "lng": -92.10686158029151}}}, "place_id": "ChIJmTpDd4o2LYYRn9FRDSaotIY", "types": ["establishment", "library", "point_of_interest"]}]}, "15922215": {"AfN": "national center for university entrance examinations", "Location": [{"address_components": [{"long_name": "Meguro", "short_name": "Meguro", "types": ["locality", "political"]}, {"long_name": "Tokyo", "short_name": "Tokyo", "types": ["administrative_area_level_1", "political"]}, {"long_name": "Japan", "short_name": "JP", "types": ["country", "political"]}, {"long_name": "153-0041", "short_name": "153-0041", "types": ["postal_code"]}], "formatted_address": "Japan, \u3012153-0041 Tokyo, Meguro, \u99d2\u5834\uff12\u4e01\u76ee\uff11\uff19\u2212\uff12\uff13", "geometry": {"location": {"lat": 35.657369, "lng": 139.6801412}, "location_type": "GEOMETRIC_CENTER", "viewport": {"northeast": {"lat": 35.65871798029151, "lng": 139.6814901802915}, "southwest": {"lat": 35.65602001970851, "lng": 139.6787922197085}}}, "place_id": "ChIJtWOqbVrzGGARIMqbS1IzLf4", "types": ["establishment", "point_of_interest"]}]}, "22265921": {"AfN": "national central university", "Location": [{"address_components": [{"long_name": "300", "short_name": "300", "types": ["street_number"]}, {"long_name": "Zhongda Road", "short_name": "Zhongda Road", "types": ["route"]}, {"long_name": "Zhongli District", "short_name": "Zhongli District", "types": ["administrative_area_level_3", "political"]}, {"long_name": "Taoyuan City", "short_name": "Taoyuan City", "types": ["administrative_area_level_1", "political"]}, {"long_name": "Taiwan", "short_name": "TW", "types": ["country", "political"]}, {"long_name": "320", "short_name": "320", "types": ["postal_code"]}], "formatted_address": "No. 300, Zhongda Road, Zhongli District, Taoyuan City, Taiwan 320", "geometry": {"location": {"lat": 24.9694808, "lng": 121.1925163}, "location_type": "ROOFTOP", "viewport": {"northeast": {"lat": 24.9708297802915, "lng": 121.1938652802915}, "southwest": {"lat": 24.9681318197085, "lng": 121.1911673197085}}}, "place_id": "ChIJy02Q7MEjaDQRVuRcRdQpwc0", "types": ["establishment", "point_of_interest", "university"]}]}, "106814784": {"AfN": "national centre for antarctic and ocean research", "Location": [{"address_components": [{"long_name": "Headland Sada", "short_name": "Headland Sada", "types": ["political", "sublocality", "sublocality_level_1"]}, {"long_name": "Vasco da Gama", "short_name": "Vasco da Gama", "types": ["locality", "political"]}, {"long_name": "South Goa", "short_name": "South Goa", "types": ["administrative_area_level_2", "political"]}, {"long_name": "Goa", "short_name": "GA", "types": ["administrative_area_level_1", "political"]}, {"long_name": "India", "short_name": "IN", "types": ["country", "political"]}, {"long_name": "403804", "short_name": "403804", "types": ["postal_code"]}], "formatted_address": "Headland Sada, Vasco da Gama, Goa 403804, India", "geometry": {"location": {"lat": 15.3966942, "lng": 73.7932367}, "location_type": "GEOMETRIC_CENTER", "viewport": {"northeast": {"lat": 15.3980431802915, "lng": 73.7945856802915}, "southwest": {"lat": 15.3953452197085, "lng": 73.7918877197085}}}, "place_id": "ChIJL2qD50zGvzsROyUIvfGVhyc", "types": ["establishment", "point_of_interest"]}]}, "194223965": {"AfN": "national centre for biological sciences", "Location": [{"address_components": [{"long_name": "Bengaluru", "short_name": "Bengaluru", "types": ["locality", "political"]}, {"long_name": "Karnataka", "short_name": "KA", "types": ["administrative_area_level_1", "political"]}, {"long_name": "India", "short_name": "IN", "types": ["country", "political"]}, {"long_name": "560065", "short_name": "560065", "types": ["postal_code"]}], "formatted_address": "Bellary Road, GKVK Campus, Canara Bank Layout, Rajiv Gandhi Nagar, Kodigehalli, Bengaluru, Karnataka 560065, India", "geometry": {"location": {"lat": 13.0715975, "lng": 77.5793609}, "location_type": "GEOMETRIC_CENTER", "viewport": {"northeast": {"lat": 13.0729464802915, "lng": 77.58070988029151}, "southwest": {"lat": 13.0702485197085, "lng": 77.5780119197085}}}, "place_id": "ChIJhyZO0hYYrjsRrQYOlqaKE2Y", "types": ["establishment", "point_of_interest"]}]}, "1329084839": {"AfN": "national centre for medium range weather forecasting", "Location": []}, "147602599": {"AfN": "national centre for radio astrophysics", "Location": [{"address_components": [{"long_name": "Pune", "short_name": "Pune", "types": ["locality", "political"]}, {"long_name": "Maharashtra", "short_name": "MH", "types": ["administrative_area_level_1", "political"]}, {"long_name": "India", "short_name": "IN", "types": ["country", "political"]}, {"long_name": "411007", "short_name": "411007", "types": ["postal_code"]}], "formatted_address": "Pune University Campus, Spicer College Road, Opp. Botanical Garden, Ganeshkhind, Pune, Maharashtra 411007, India", "geometry": {"location": {"lat": 18.5626025, "lng": 73.8283538}, "location_type": "GEOMETRIC_CENTER", "viewport": {"northeast": {"lat": 18.5639514802915, "lng": 73.8297027802915}, "southwest": {"lat": 18.5612535197085, "lng": 73.82700481970849}}}, "place_id": "ChIJg_3vjU-_wjsRb6f4h3HKjac", "types": ["establishment", "point_of_interest"]}]}, "70522481": {"AfN": "national changhua university of education", "Location": [{"address_components": [{"long_name": "1", "short_name": "1", "types": ["street_number"]}, {"long_name": "Jinde Road", "short_name": "Jinde Road", "types": ["route"]}, {"long_name": "Changhua City", "short_name": "Changhua City", "types": ["administrative_area_level_3", "political"]}, {"long_name": "Changhua County", "short_name": "Changhua County", "types": ["administrative_area_level_2", "political"]}, {"long_name": "Taiwan", "short_name": "TW", "types": ["country", "political"]}, {"long_name": "500", "short_name": "500", "types": ["postal_code"]}], "formatted_address": "No. 1, Jinde Road, Changhua City, Changhua County, Taiwan 500", "geometry": {"location": {"lat": 24.082772, "lng": 120.5586279}, "location_type": "ROOFTOP", "viewport": {"northeast": {"lat": 24.08412098029151, "lng": 120.5599768802915}, "southwest": {"lat": 24.0814230197085, "lng": 120.5572789197085}}}, "place_id": "ChIJ3aUyw-k4aTQRzKDmptuN0H8", "types": ["establishment", "point_of_interest", "school", "university"]}, {"address_components": [{"long_name": "2\u865f", "short_name": "2\u865f", "types": ["street_number"]}, {"long_name": "Shida Road", "short_name": "Shida Road", "types": ["route"]}, {"long_name": "Changhua City", "short_name": "Changhua City", "types": ["administrative_area_level_3", "political"]}, {"long_name": "Changhua County", "short_name": "Changhua County", "types": ["administrative_area_level_2", "political"]}, {"long_name": "Taiwan", "short_name": "TW", "types": ["country", "political"]}, {"long_name": "500", "short_name": "500", "types": ["postal_code"]}], "formatted_address": "No. 2\u865f, Shida Road, Changhua City, Changhua County, Taiwan 500", "geometry": {"location": {"lat": 24.0650155, "lng": 120.5583356}, "location_type": "ROOFTOP", "viewport": {"northeast": {"lat": 24.0663644802915, "lng": 120.5596845802915}, "southwest": {"lat": 24.0636665197085, "lng": 120.5569866197085}}}, "place_id": "ChIJOQVw4vY4aTQR7EH8jFcQZNk", "types": ["establishment", "point_of_interest", "school", "university"]}]}, "91807558": {"AfN": "national cheng kung university", "Location": [{"address_components": [{"long_name": "1", "short_name": "1", "types": ["street_number"]}, {"long_name": "Daxue Road", "short_name": "Daxue Road", "types": ["route"]}, {"long_name": "East District", "short_name": "East District", "types": ["administrative_area_level_3", "political"]}, {"long_name": "Tainan City", "short_name": "Tainan City", "types": ["administrative_area_level_1", "political"]}, {"long_name": "Taiwan", "short_name": "TW", "types": ["country", "political"]}, {"long_name": "701", "short_name": "701", "types": ["postal_code"]}], "formatted_address": "No. 1, Daxue Road, East District, Tainan City, Taiwan 701", "geometry": {"location": {"lat": 22.9988084, "lng": 120.217172}, "location_type": "ROOFTOP", "viewport": {"northeast": {"lat": 23.0001573802915, "lng": 120.2185209802915}, "southwest": {"lat": 22.9974594197085, "lng": 120.2158230197085}}}, "place_id": "ChIJ0yAIKe12bjQRnqEH4osC7uA", "types": ["establishment", "point_of_interest", "university"]}]}, "87354575": {"AfN": "national chengchi university", "Location": [{"address_components": [{"long_name": "64", "short_name": "64", "types": ["street_number"]}, {"long_name": "Section 2, Zhinan Road", "short_name": "Section 2, Zhinan Road", "types": ["route"]}, {"long_name": "Wenshan District", "short_name": "Wenshan District", "types": ["administrative_area_level_3", "political"]}, {"long_name": "Taipei City", "short_name": "Taipei City", "types": ["administrative_area_level_1", "political"]}, {"long_name": "Taiwan", "short_name": "TW", "types": ["country", "political"]}, {"long_name": "116", "short_name": "116", "types": ["postal_code"]}], "formatted_address": "No. 64, Section 2, Zhinan Road, Wenshan District, Taipei City, Taiwan 116", "geometry": {"location": {"lat": 24.9864564, "lng": 121.5756198}, "location_type": "ROOFTOP", "viewport": {"northeast": {"lat": 24.9878053802915, "lng": 121.5769687802915}, "southwest": {"lat": 24.9851074197085, "lng": 121.5742708197085}}}, "place_id": "ChIJSS8sRXmqQjQRB_U7jlAHjZ4", "types": ["establishment", "point_of_interest", "university"]}]}, "193365169": {"AfN": "national chi nan university", "Location": [{"address_components": [{"long_name": "1", "short_name": "1", "types": ["street_number"]}, {"long_name": "Daxue Road", "short_name": "Daxue Road", "types": ["route"]}, {"long_name": "Puli Township", "short_name": "Puli Township", "types": ["administrative_area_level_3", "political"]}, {"long_name": "Nantou County", "short_name": "Nantou County", "types": ["administrative_area_level_2", "political"]}, {"long_name": "Taiwan", "short_name": "TW", "types": ["country", "political"]}, {"long_name": "545", "short_name": "545", "types": ["postal_code"]}], "formatted_address": "No. 1, Daxue Road, Puli Township, Nantou County, Taiwan 545", "geometry": {"location": {"lat": 23.9510746, "lng": 120.9312595}, "location_type": "ROOFTOP", "viewport": {"northeast": {"lat": 23.9524235802915, "lng": 120.9326084802915}, "southwest": {"lat": 23.9497256197085, "lng": 120.9299105197085}}}, "place_id": "ChIJc667hiPYaDQRrr1Wr2xLEPg", "types": ["establishment", "point_of_interest", "university"]}]}, "148366613": {"AfN": "national chiao tung university", "Location": [{"address_components": [{"long_name": "1001\u865f", "short_name": "1001\u865f", "types": ["street_number"]}, {"long_name": "Daxue Road", "short_name": "Daxue Road", "types": ["route"]}, {"long_name": "East District", "short_name": "East District", "types": ["administrative_area_level_3", "political"]}, {"long_name": "Hsinchu City", "short_name": "Hsinchu City", "types": ["administrative_area_level_2", "political"]}, {"long_name": "Taiwan", "short_name": "TW", "types": ["country", "political"]}, {"long_name": "30010", "short_name": "30010", "types": ["postal_code"]}], "formatted_address": "No. 1001\u865f, Daxue Road, East District, Hsinchu City, Taiwan 30010", "geometry": {"location": {"lat": 24.789067, "lng": 120.999263}, "location_type": "ROOFTOP", "viewport": {"northeast": {"lat": 24.7904159802915, "lng": 121.0006119802915}, "southwest": {"lat": 24.7877180197085, "lng": 120.9979140197085}}}, "place_id": "ChIJMV8k71c2aDQRmj5yOn_aKTk", "types": ["establishment", "point_of_interest", "university"]}, {"address_components": [{"long_name": "1001", "short_name": "1001", "types": ["street_number"]}, {"long_name": "Daxue Road", "short_name": "Daxue Road", "types": ["route"]}, {"long_name": "East District", "short_name": "East District", "types": ["administrative_area_level_3", "political"]}, {"long_name": "Hsinchu City", "short_name": "Hsinchu City", "types": ["administrative_area_level_2", "political"]}, {"long_name": "Taiwan", "short_name": "TW", "types": ["country", "political"]}, {"long_name": "300", "short_name": "300", "types": ["postal_code"]}], "formatted_address": "No. 1001, Daxue Road, East District, Hsinchu City, Taiwan 300", "geometry": {"location": {"lat": 24.7866225, "lng": 120.9982607}, "location_type": "ROOFTOP", "viewport": {"northeast": {"lat": 24.7879714802915, "lng": 120.9996096802915}, "southwest": {"lat": 24.7852735197085, "lng": 120.9969117197085}}}, "place_id": "ChIJixrR5xE2aDQRNJvQphMnjZ0", "types": ["establishment", "library", "point_of_interest"]}]}, "183570559": {"AfN": "national chiayi university", "Location": [{"address_components": [{"long_name": "300", "short_name": "300", "types": ["street_number"]}, {"long_name": "Xuefu Road", "short_name": "Xuefu Road", "types": ["route"]}, {"long_name": "East District", "short_name": "East District", "types": ["administrative_area_level_3", "political"]}, {"long_name": "Chiayi City", "short_name": "Chiayi City", "types": ["administrative_area_level_2", "political"]}, {"long_name": "Taiwan", "short_name": "TW", "types": ["country", "political"]}, {"long_name": "600", "short_name": "600", "types": ["postal_code"]}], "formatted_address": "No. 300, Xuefu Road, East District, Chiayi City, Taiwan 600", "geometry": {"location": {"lat": 23.4687991, "lng": 120.4851352}, "location_type": "ROOFTOP", "viewport": {"northeast": {"lat": 23.4701480802915, "lng": 120.4864841802915}, "southwest": {"lat": 23.4674501197085, "lng": 120.4837862197085}}}, "place_id": "ChIJqWePmViUbjQReE2e45PXiIs", "types": ["establishment", "point_of_interest", "school", "university"]}]}, "148099254": {"AfN": "national chung cheng university", "Location": [{"address_components": [{"long_name": "168", "short_name": "168", "types": ["street_number"]}, {"long_name": "Section 1, Daxue Road", "short_name": "Section 1, Daxue Road", "types": ["route"]}, {"long_name": "Minxiong Township", "short_name": "Minxiong Township", "types": ["administrative_area_level_3", "political"]}, {"long_name": "Chiayi County", "short_name": "Chiayi County", "types": ["administrative_area_level_2", "political"]}, {"long_name": "Taiwan", "short_name": "TW", "types": ["country", "political"]}, {"long_name": "62102", "short_name": "62102", "types": ["postal_code"]}], "formatted_address": "No. 168, Section 1, Daxue Road, Minxiong Township, Chiayi County, Taiwan 62102", "geometry": {"location": {"lat": 23.5633761, "lng": 120.4728831}, "location_type": "ROOFTOP", "viewport": {"northeast": {"lat": 23.5647250802915, "lng": 120.4742320802915}, "southwest": {"lat": 23.5620271197085, "lng": 120.4715341197085}}}, "place_id": "ChIJR3gH11a-bjQRpBDRPsB8qR4", "types": ["establishment", "point_of_interest", "school", "university"]}]}, "162838928": {"AfN": "national chung hsing university", "Location": [{"address_components": [{"long_name": "145", "short_name": "145", "types": ["street_number"]}, {"long_name": "Xingda Road", "short_name": "Xingda Road", "types": ["route"]}, {"long_name": "South District", "short_name": "South District", "types": ["administrative_area_level_3", "political"]}, {"long_name": "Taichung City", "short_name": "Taichung City", "types": ["administrative_area_level_1", "political"]}, {"long_name": "Taiwan", "short_name": "TW", "types": ["country", "political"]}, {"long_name": "402", "short_name": "402", "types": ["postal_code"]}], "formatted_address": "No. 145, Xingda Road, South District, Taichung City, Taiwan 402", "geometry": {"location": {"lat": 24.123552, "lng": 120.675326}, "location_type": "ROOFTOP", "viewport": {"northeast": {"lat": 24.1249009802915, "lng": 120.6766749802915}, "southwest": {"lat": 24.1222030197085, "lng": 120.6739770197085}}}, "place_id": "ChIJ2en_7Pw8aTQROiCtDdz6iuI", "types": ["establishment", "point_of_interest", "university"]}]}, "104546213": {"AfN": "national college of ireland", "Location": [{"address_components": [{"long_name": "IFSC", "short_name": "IFSC", "types": ["premise"]}, {"long_name": "Mayor Street", "short_name": "Mayor Street", "types": ["route"]}, {"long_name": "North Dock", "short_name": "North Dock", "types": ["neighborhood", "political"]}, {"long_name": "Dublin 1", "short_name": "Dublin 1", "types": ["postal_town"]}, {"long_name": "County Dublin", "short_name": "County Dublin", "types": ["administrative_area_level_1", "political"]}, {"long_name": "Ireland", "short_name": "IE", "types": ["country", "political"]}, {"long_name": "D01 Y300", "short_name": "D01 Y300", "types": ["postal_code"]}], "formatted_address": "IFSC, Mayor Street, North Dock, Dublin 1, D01 Y300, Ireland", "geometry": {"location": {"lat": 53.34881739999999, "lng": -6.2431793}, "location_type": "ROOFTOP", "viewport": {"northeast": {"lat": 53.3501663802915, "lng": -6.241830319708499}, "southwest": {"lat": 53.3474684197085, "lng": -6.244528280291503}}}, "place_id": "ChIJ55du2IwOZ0gRNal_7nS3UW0", "types": ["establishment", "point_of_interest", "university"]}]}, "158060073": {"AfN": "national college of natural medicine", "Location": [{"address_components": [{"long_name": "49", "short_name": "49", "types": ["street_number"]}, {"long_name": "Southwest Porter Street", "short_name": "SW Porter St", "types": ["route"]}, {"long_name": "Corbett - Terwilliger - Lair Hill", "short_name": "Corbett - Terwilliger - Lair Hill", "types": ["neighborhood", "political"]}, {"long_name": "Portland", "short_name": "Portland", "types": ["locality", "political"]}, {"long_name": "Multnomah County", "short_name": "Multnomah County", "types": ["administrative_area_level_2", "political"]}, {"long_name": "Oregon", "short_name": "OR", "types": ["administrative_area_level_1", "political"]}, {"long_name": "United States", "short_name": "US", "types": ["country", "political"]}, {"long_name": "97201", "short_name": "97201", "types": ["postal_code"]}], "formatted_address": "49 SW Porter St, Portland, OR 97201, USA", "geometry": {"location": {"lat": 45.501676, "lng": -122.676561}, "location_type": "ROOFTOP", "viewport": {"northeast": {"lat": 45.5030249802915, "lng": -122.6752120197085}, "southwest": {"lat": 45.5003270197085, "lng": -122.6779099802915}}}, "place_id": "ChIJ97tGHmoKlVQRM6Cwd-ALRf4", "types": ["establishment", "health", "point_of_interest", "university"]}]}, "1315336074": {"AfN": "national collegiate scouting association athletic recruiting", "Location": [{"address_components": [{"long_name": "1333", "short_name": "1333", "types": ["street_number"]}, {"long_name": "North Kingsbury Street", "short_name": "N Kingsbury St", "types": ["route"]}, {"long_name": "Goose Island", "short_name": "Goose Island", "types": ["neighborhood", "political"]}, {"long_name": "Chicago", "short_name": "Chicago", "types": ["locality", "political"]}, {"long_name": "Cook County", "short_name": "Cook County", "types": ["administrative_area_level_2", "political"]}, {"long_name": "Illinois", "short_name": "IL", "types": ["administrative_area_level_1", "political"]}, {"long_name": "United States", "short_name": "US", "types": ["country", "political"]}, {"long_name": "60642", "short_name": "60642", "types": ["postal_code"]}], "formatted_address": "1333 N Kingsbury St, Chicago, IL 60642, USA", "geometry": {"location": {"lat": 41.90599599999999, "lng": -87.649474}, "location_type": "ROOFTOP", "viewport": {"northeast": {"lat": 41.9073449802915, "lng": -87.64812501970849}, "southwest": {"lat": 41.9046470197085, "lng": -87.65082298029151}}}, "place_id": "ChIJwRV1RyXTD4gR0zK5PUxcqcM", "types": ["establishment", "point_of_interest"]}, {"address_components": [{"long_name": "101", "short_name": "101", "types": ["street_number"]}, {"long_name": "Convention Center Drive", "short_name": "Convention Center Dr", "types": ["route"]}, {"long_name": "Las Vegas", "short_name": "Las Vegas", "types": ["locality", "political"]}, {"long_name": "Clark County", "short_name": "Clark County", "types": ["administrative_area_level_2", "political"]}, {"long_name": "Nevada", "short_name": "NV", "types": ["administrative_area_level_1", "political"]}, {"long_name": "United States", "short_name": "US", "types": ["country", "political"]}, {"long_name": "89109", "short_name": "89109", "types": ["postal_code"]}], "formatted_address": "101 Convention Center Dr, Las Vegas, NV 89109, USA", "geometry": {"location": {"lat": 36.1318813, "lng": -115.1610651}, "location_type": "ROOFTOP", "viewport": {"northeast": {"lat": 36.1332302802915, "lng": -115.1597161197085}, "southwest": {"lat": 36.1305323197085, "lng": -115.1624140802915}}}, "place_id": "ChIJzaPFa2zEyIARwmpjycD91TU", "types": ["establishment", "point_of_interest"]}]}, "180740530": {"AfN": "national committee for quality assurance", "Location": [{"address_components": [{"long_name": "Washington", "short_name": "Washington", "types": ["locality", "political"]}, {"long_name": "District of Columbia", "short_name": "DC", "types": ["administrative_area_level_1", "political"]}, {"long_name": "United States", "short_name": "US", "types": ["country", "political"]}, {"long_name": "20005", "short_name": "20005", "types": ["postal_code"]}], "formatted_address": "1100 13th Street Northwest, 3rd Floor, Washington, DC 20005, United States", "geometry": {"location": {"lat": 38.9041706, "lng": -77.0300681}, "location_type": "GEOMETRIC_CENTER", "viewport": {"northeast": {"lat": 38.9055195802915, "lng": -77.02871911970848}, "southwest": {"lat": 38.9028216197085, "lng": -77.03141708029149}}}, "place_id": "ChIJgUZN75S3t4kREdgNy20-w0w", "types": ["establishment", "point_of_interest"]}]}, "345557832": {"AfN": "national comprehensive cancer network", "Location": [{"address_components": [{"long_name": "275", "short_name": "275", "types": ["street_number"]}, {"long_name": "Commerce Drive", "short_name": "Commerce Dr", "types": ["route"]}, {"long_name": "Fort Washington", "short_name": "Fort Washington", "types": ["locality", "political"]}, {"long_name": "Upper Dublin Township", "short_name": "Upper Dublin Township", "types": ["administrative_area_level_3", "political"]}, {"long_name": "Montgomery County", "short_name": "Montgomery County", "types": ["administrative_area_level_2", "political"]}, {"long_name": "Pennsylvania", "short_name": "PA", "types": ["administrative_area_level_1", "political"]}, {"long_name": "United States", "short_name": "US", "types": ["country", "political"]}, {"long_name": "19034", "short_name": "19034", "types": ["postal_code"]}], "formatted_address": "275 Commerce Dr, Fort Washington, PA 19034, USA", "geometry": {"location": {"lat": 40.1362277, "lng": -75.20060509999999}, "location_type": "ROOFTOP", "viewport": {"northeast": {"lat": 40.1375766802915, "lng": -75.19925611970848}, "southwest": {"lat": 40.1348787197085, "lng": -75.2019540802915}}}, "place_id": "ChIJ9TNMQimwxokRUUzE3IB1GrQ", "types": ["establishment", "health", "point_of_interest"]}]}, "66772239": {"AfN": "national conference of state legislatures", "Location": [{"address_components": [{"long_name": "7700", "short_name": "7700", "types": ["street_number"]}, {"long_name": "East 1st Place", "short_name": "E 1st Pl", "types": ["route"]}, {"long_name": "East", "short_name": "East", "types": ["neighborhood", "political"]}, {"long_name": "Denver", "short_name": "Denver", "types": ["locality", "political"]}, {"long_name": "Denver County", "short_name": "Denver County", "types": ["administrative_area_level_2", "political"]}, {"long_name": "Colorado", "short_name": "CO", "types": ["administrative_area_level_1", "political"]}, {"long_name": "United States", "short_name": "US", "types": ["country", "political"]}, {"long_name": "80230", "short_name": "80230", "types": ["postal_code"]}, {"long_name": "7143", "short_name": "7143", "types": ["postal_code_suffix"]}], "formatted_address": "7700 E 1st Pl, Denver, CO 80230, USA", "geometry": {"location": {"lat": 39.7222201, "lng": -104.8954295}, "location_type": "ROOFTOP", "viewport": {"northeast": {"lat": 39.7235690802915, "lng": -104.8940805197085}, "southwest": {"lat": 39.72087111970851, "lng": -104.8967784802915}}}, "place_id": "ChIJC1_JpFl8bIcRASHGo_rAU98", "types": ["establishment", "local_government_office", "point_of_interest"]}, {"address_components": [{"long_name": "515", "short_name": "515", "types": ["subpremise"]}, {"long_name": "444", "short_name": "444", "types": ["street_number"]}, {"long_name": "North Capitol Street Northwest", "short_name": "North Capitol St NW", "types": ["route"]}, {"long_name": "Northwest Washington", "short_name": "Northwest Washington", "types": ["neighborhood", "political"]}, {"long_name": "Washington", "short_name": "Washington", "types": ["locality", "political"]}, {"long_name": "District of Columbia", "short_name": "DC", "types": ["administrative_area_level_1", "political"]}, {"long_name": "United States", "short_name": "US", "types": ["country", "political"]}, {"long_name": "20001", "short_name": "20001", "types": ["postal_code"]}, {"long_name": "1538", "short_name": "1538", "types": ["postal_code_suffix"]}], "formatted_address": "444 North Capitol St NW #515, Washington, DC 20001, USA", "geometry": {"location": {"lat": 38.895792, "lng": -77.010097}, "location_type": "ROOFTOP", "viewport": {"northeast": {"lat": 38.8971409802915, "lng": -77.0087480197085}, "southwest": {"lat": 38.8944430197085, "lng": -77.01144598029151}}}, "place_id": "ChIJr7zOdSe4t4kR3Jof8Zxw1h0", "types": ["establishment", "point_of_interest"]}]}, "11385950": {"AfN": "national council for scientific and technological development", "Location": []}, "57904185": {"AfN": "national dairy development board", "Location": [{"address_components": [{"long_name": "176", "short_name": "176", "types": ["street_number"]}, {"long_name": "Pasadena Drive", "short_name": "Pasadena Dr", "types": ["route"]}, {"long_name": "Deerfield", "short_name": "Deerfield", "types": ["neighborhood", "political"]}, {"long_name": "Lexington", "short_name": "Lexington", "types": ["locality", "political"]}, {"long_name": "Fayette County", "short_name": "Fayette County", "types": ["administrative_area_level_2", "political"]}, {"long_name": "Kentucky", "short_name": "KY", "types": ["administrative_area_level_1", "political"]}, {"long_name": "United States", "short_name": "US", "types": ["country", "political"]}, {"long_name": "40503", "short_name": "40503", "types": ["postal_code"]}], "formatted_address": "176 Pasadena Dr, Lexington, KY 40503, USA", "geometry": {"location": {"lat": 38.0041405, "lng": -84.5222814}, "location_type": "ROOFTOP", "viewport": {"northeast": {"lat": 38.0054894802915, "lng": -84.5209324197085}, "southwest": {"lat": 38.0027915197085, "lng": -84.52363038029151}}}, "place_id": "ChIJZVTBqaBcQogRwQIiS-f8bMk", "types": ["establishment", "food", "point_of_interest"]}, {"address_components": [{"long_name": "Suite 600", "short_name": "Suite 600", "types": ["subpremise"]}, {"long_name": "2107", "short_name": "2107", "types": ["street_number"]}, {"long_name": "Wilson Boulevard", "short_name": "Wilson Blvd", "types": ["route"]}, {"long_name": "Colonial Village", "short_name": "Colonial Village", "types": ["neighborhood", "political"]}, {"long_name": "Arlington", "short_name": "Arlington", "types": ["locality", "political"]}, {"long_name": "Arlington County", "short_name": "Arlington County", "types": ["administrative_area_level_2", "political"]}, {"long_name": "Virginia", "short_name": "VA", "types": ["administrative_area_level_1", "political"]}, {"long_name": "United States", "short_name": "US", "types": ["country", "political"]}, {"long_name": "22201", "short_name": "22201", "types": ["postal_code"]}], "formatted_address": "2107 Wilson Blvd Suite 600, Arlington, VA 22201, USA", "geometry": {"location": {"lat": 38.8930088, "lng": -77.08538829999999}, "location_type": "ROOFTOP", "viewport": {"northeast": {"lat": 38.8943577802915, "lng": -77.08403931970848}, "southwest": {"lat": 38.8916598197085, "lng": -77.0867372802915}}}, "place_id": "ChIJO58DJ2K2t4kRewH-riHhqjU", "types": ["establishment", "point_of_interest"]}]}, "187279525": {"AfN": "national dairy research institute", "Location": [{"address_components": [{"long_name": "GT Road", "short_name": "GT Rd", "types": ["route"]}, {"long_name": "Karnal", "short_name": "Karnal", "types": ["locality", "political"]}, {"long_name": "Haryana", "short_name": "HR", "types": ["administrative_area_level_1", "political"]}, {"long_name": "India", "short_name": "IN", "types": ["country", "political"]}, {"long_name": "132001", "short_name": "132001", "types": ["postal_code"]}], "formatted_address": "Near Jewels Hotel, GT Rd, Karnal, Haryana 132001, India", "geometry": {"location": {"lat": 29.7014151, "lng": 76.98476749999999}, "location_type": "GEOMETRIC_CENTER", "viewport": {"northeast": {"lat": 29.7027640802915, "lng": 76.9861164802915}, "southwest": {"lat": 29.7000661197085, "lng": 76.98341851970848}}}, "place_id": "ChIJEdRKVR9wDjkRATy8dbQ4zC8", "types": ["establishment", "point_of_interest", "university"]}]}, "11414854": {"AfN": "national defence academy", "Location": []}, "443798": {"AfN": "national defense academy of japan", "Location": [{"address_components": [{"long_name": "10-20", "short_name": "10-20", "types": ["premise"]}, {"long_name": "1 Chome", "short_name": "1 Chome", "types": ["political", "sublocality", "sublocality_level_3"]}, {"long_name": "Hashirimizu", "short_name": "Hashirimizu", "types": ["political", "sublocality", "sublocality_level_2"]}, {"long_name": "Yokosuka", "short_name": "Yokosuka", "types": ["locality", "political"]}, {"long_name": "Kanagawa Prefecture", "short_name": "Kanagawa Prefecture", "types": ["administrative_area_level_1", "political"]}, {"long_name": "Japan", "short_name": "JP", "types": ["country", "political"]}, {"long_name": "239-8686", "short_name": "239-8686", "types": ["postal_code"]}], "formatted_address": "1 Chome-10-20 Hashirimizu, Yokosuka, Kanagawa Prefecture 239-8686, Japan", "geometry": {"location": {"lat": 35.2576744, "lng": 139.7219558}, "location_type": "ROOFTOP", "viewport": {"northeast": {"lat": 35.2590233802915, "lng": 139.7233047802915}, "southwest": {"lat": 35.2563254197085, "lng": 139.7206068197085}}}, "place_id": "ChIJ--QkXq8VGGARzb9V8ye14Wc", "types": ["establishment", "point_of_interest", "university"]}]}, "68171755": {"AfN": "national defense medical center", "Location": [{"address_components": [{"long_name": "161\u865f", "short_name": "161\u865f", "types": ["street_number"]}, {"long_name": "Section 6, Minquan East Road", "short_name": "Section 6, Minquan East Road", "types": ["route"]}, {"long_name": "Neihu District", "short_name": "Neihu District", "types": ["administrative_area_level_3", "political"]}, {"long_name": "Taipei City", "short_name": "Taipei City", "types": ["administrative_area_level_1", "political"]}, {"long_name": "Taiwan", "short_name": "TW", "types": ["country", "political"]}, {"long_name": "114", "short_name": "114", "types": ["postal_code"]}], "formatted_address": "No. 161\u865f, Section 6, Minquan East Road, Neihu District, Taipei City, Taiwan 114", "geometry": {"location": {"lat": 25.0711904, "lng": 121.595408}, "location_type": "ROOFTOP", "viewport": {"northeast": {"lat": 25.0725393802915, "lng": 121.5967569802915}, "southwest": {"lat": 25.0698414197085, "lng": 121.5940590197085}}}, "place_id": "ChIJCfH-UH-sQjQRt69Usepu9Iw", "types": ["establishment", "health", "point_of_interest", "school", "university"]}]}, "1324363362": {"AfN": "national development and reform commission", "Location": [{"address_components": [{"long_name": "Xicheng Qu", "short_name": "Xicheng Qu", "types": ["political", "sublocality", "sublocality_level_1"]}, {"long_name": "Beijing Shi", "short_name": "Beijing Shi", "types": ["administrative_area_level_1", "political"]}, {"long_name": "China", "short_name": "CN", "types": ["country", "political"]}], "formatted_address": "China, Beijing Shi, Xicheng Qu, \u6708\u575b\u5357\u885738\u53f7", "geometry": {"location": {"lat": 39.913948, "lng": 116.337742}, "location_type": "GEOMETRIC_CENTER", "viewport": {"northeast": {"lat": 39.9152969802915, "lng": 116.3390909802915}, "southwest": {"lat": 39.9125990197085, "lng": 116.3363930197085}}}, "place_id": "ChIJZyaa7g9S8DUR_Ds5WaE6qqw", "types": ["establishment", "point_of_interest"]}]}, "1331203130": {"AfN": "national development and research institutes", "Location": [{"address_components": [{"long_name": "71", "short_name": "71", "types": ["street_number"]}, {"long_name": "West 23rd Street", "short_name": "W 23rd St", "types": ["route"]}, {"long_name": "Manhattan", "short_name": "Manhattan", "types": ["political", "sublocality", "sublocality_level_1"]}, {"long_name": "New York", "short_name": "New York", "types": ["locality", "political"]}, {"long_name": "New York County", "short_name": "New York County", "types": ["administrative_area_level_2", "political"]}, {"long_name": "New York", "short_name": "NY", "types": ["administrative_area_level_1", "political"]}, {"long_name": "United States", "short_name": "US", "types": ["country", "political"]}, {"long_name": "10010", "short_name": "10010", "types": ["postal_code"]}, {"long_name": "3509", "short_name": "3509", "types": ["postal_code_suffix"]}], "formatted_address": "71 W 23rd St, New York, NY 10010, USA", "geometry": {"location": {"lat": 40.7429529, "lng": -73.9922843}, "location_type": "ROOFTOP", "viewport": {"northeast": {"lat": 40.74430188029149, "lng": -73.99093531970848}, "southwest": {"lat": 40.7416039197085, "lng": -73.9936332802915}}}, "place_id": "ChIJx-Z_jKRZwokRNWhE_J-HOT4", "types": ["establishment", "point_of_interest"]}]}, "33096239": {"AfN": "national dong hwa university", "Location": [{"address_components": [{"long_name": "1", "short_name": "1", "types": ["street_number"]}, {"long_name": "Section 2, Daxue Road", "short_name": "Section 2, Daxue Road", "types": ["route"]}, {"long_name": "Shoufeng Township", "short_name": "Shoufeng Township", "types": ["administrative_area_level_3", "political"]}, {"long_name": "Hualien County", "short_name": "Hualien County", "types": ["administrative_area_level_2", "political"]}, {"long_name": "Taiwan", "short_name": "TW", "types": ["country", "political"]}, {"long_name": "974", "short_name": "974", "types": ["postal_code"]}], "formatted_address": "No. 1, Section 2, Daxue Road, Shoufeng Township, Hualien County, Taiwan 974", "geometry": {"location": {"lat": 23.8976625, "lng": 121.541773}, "location_type": "ROOFTOP", "viewport": {"northeast": {"lat": 23.8990114802915, "lng": 121.5431219802915}, "southwest": {"lat": 23.8963135197085, "lng": 121.5404240197085}}}, "place_id": "ChIJWwqDLVehaDQR2OAptx_4hkc", "types": ["establishment", "point_of_interest", "school", "university"]}]}, "174009993": {"AfN": "national drug and alcohol research centre", "Location": [{"address_components": [{"long_name": "22-32", "short_name": "22-32", "types": ["street_number"]}, {"long_name": "King Street", "short_name": "King St", "types": ["route"]}, {"long_name": "Randwick", "short_name": "Randwick", "types": ["locality", "political"]}, {"long_name": "Randwick City Council", "short_name": "Randwick", "types": ["administrative_area_level_2", "political"]}, {"long_name": "New South Wales", "short_name": "NSW", "types": ["administrative_area_level_1", "political"]}, {"long_name": "Australia", "short_name": "AU", "types": ["country", "political"]}, {"long_name": "2031", "short_name": "2031", "types": ["postal_code"]}], "formatted_address": "22-32 King St, Randwick NSW 2031, Australia", "geometry": {"location": {"lat": -33.9060808, "lng": 151.23461}, "location_type": "ROOFTOP", "viewport": {"northeast": {"lat": -33.9047318197085, "lng": 151.2359589802915}, "southwest": {"lat": -33.9074297802915, "lng": 151.2332610197085}}}, "place_id": "ChIJjXkNJwOyEmsRVlrHnVCTO2Q", "types": ["establishment", "point_of_interest"]}]}, "1338932141": {"AfN": "national earthquake information center", "Location": [{"address_components": [{"long_name": "U.S.G.S. Offices and Laboratory", "short_name": "U.S.G.S. Offices and Laboratory", "types": ["premise"]}, {"long_name": "1711", "short_name": "1711", "types": ["street_number"]}, {"long_name": "Illinois Street", "short_name": "Illinois St", "types": ["route"]}, {"long_name": "Golden", "short_name": "Golden", "types": ["locality", "political"]}, {"long_name": "Jefferson County", "short_name": "Jefferson County", "types": ["administrative_area_level_2", "political"]}, {"long_name": "Colorado", "short_name": "CO", "types": ["administrative_area_level_1", "political"]}, {"long_name": "United States", "short_name": "US", "types": ["country", "political"]}, {"long_name": "80401", "short_name": "80401", "types": ["postal_code"]}], "formatted_address": "U.S.G.S. Offices and Laboratory, 1711 Illinois St, Golden, CO 80401, USA", "geometry": {"location": {"lat": 39.7494916, "lng": -105.2202327}, "location_type": "ROOFTOP", "viewport": {"northeast": {"lat": 39.7508405802915, "lng": -105.2188837197085}, "southwest": {"lat": 39.7481426197085, "lng": -105.2215816802915}}}, "place_id": "ChIJnz4mKdWaa4cRkYWxVCiNnLA", "types": ["establishment", "point_of_interest"]}]}, "28670366": {"AfN": "national ecological observatory network", "Location": [{"address_components": [{"long_name": "100", "short_name": "100", "types": ["subpremise"]}, {"long_name": "1685", "short_name": "1685", "types": ["street_number"]}, {"long_name": "38th Street", "short_name": "38th St", "types": ["route"]}, {"long_name": "Central Boulder", "short_name": "Central Boulder", "types": ["neighborhood", "political"]}, {"long_name": "Boulder", "short_name": "Boulder", "types": ["locality", "political"]}, {"long_name": "Boulder County", "short_name": "Boulder County", "types": ["administrative_area_level_2", "political"]}, {"long_name": "Colorado", "short_name": "CO", "types": ["administrative_area_level_1", "political"]}, {"long_name": "United States", "short_name": "US", "types": ["country", "political"]}, {"long_name": "80301", "short_name": "80301", "types": ["postal_code"]}], "formatted_address": "1685 38th St #100, Boulder, CO 80301, USA", "geometry": {"location": {"lat": 40.016291, "lng": -105.2458419}, "location_type": "ROOFTOP", "viewport": {"northeast": {"lat": 40.01763998029149, "lng": -105.2444929197085}, "southwest": {"lat": 40.0149420197085, "lng": -105.2471908802915}}}, "place_id": "ChIJ30mOJt3ta4cRGD_GTgBLiSw", "types": ["establishment", "point_of_interest"]}, {"address_components": [{"long_name": "2115", "short_name": "2115", "types": ["street_number"]}, {"long_name": "East Valencia Road", "short_name": "E Valencia Rd", "types": ["route"]}, {"long_name": "Tucson", "short_name": "Tucson", "types": ["locality", "political"]}, {"long_name": "Pima County", "short_name": "Pima County", "types": ["administrative_area_level_2", "political"]}, {"long_name": "Arizona", "short_name": "AZ", "types": ["administrative_area_level_1", "political"]}, {"long_name": "United States", "short_name": "US", "types": ["country", "political"]}, {"long_name": "85706", "short_name": "85706", "types": ["postal_code"]}, {"long_name": "5824", "short_name": "5824", "types": ["postal_code_suffix"]}], "formatted_address": "2115 E Valencia Rd, Tucson, AZ 85706, USA", "geometry": {"location": {"lat": 32.13454360000001, "lng": -110.9385369}, "location_type": "ROOFTOP", "viewport": {"northeast": {"lat": 32.13589258029151, "lng": -110.9371879197085}, "southwest": {"lat": 32.13319461970851, "lng": -110.9398858802915}}}, "place_id": "ChIJ6SNXMht71oYRNOoJsIfRuAM", "types": ["establishment", "point_of_interest"]}]}, "138622004": {"AfN": "national economics university", "Location": [{"address_components": [{"long_name": "207", "short_name": "207", "types": ["premise"]}, {"long_name": "Gi\u1ea3i Ph\u00f3ng", "short_name": "Gi\u1ea3i Ph\u00f3ng", "types": ["route"]}, {"long_name": "Hai B\u00e0 Tr\u01b0ng", "short_name": "Hai B\u00e0 Tr\u01b0ng", "types": ["administrative_area_level_2", "political"]}, {"long_name": "H\u00e0 N\u1ed9i", "short_name": "H\u00e0 N\u1ed9i", "types": ["administrative_area_level_1", "political"]}, {"long_name": "Vietnam", "short_name": "VN", "types": ["country", "political"]}], "formatted_address": "207 Gi\u1ea3i Ph\u00f3ng, \u0110\u1ed3ng T\u00e2m, Hai B\u00e0 Tr\u01b0ng, H\u00e0 N\u1ed9i, Vietnam", "geometry": {"location": {"lat": 20.9999251, "lng": 105.8421745}, "location_type": "ROOFTOP", "viewport": {"northeast": {"lat": 21.0012740802915, "lng": 105.8435234802915}, "southwest": {"lat": 20.9985761197085, "lng": 105.8408255197085}}}, "place_id": "ChIJeY8tdXGsNTER-noBAVxX7NI", "types": ["establishment", "point_of_interest", "university"]}]}, "135623853": {"AfN": "national education association", "Location": [{"address_components": [{"long_name": "1201", "short_name": "1201", "types": ["street_number"]}, {"long_name": "16th Street Northwest", "short_name": "16th St NW", "types": ["route"]}, {"long_name": "Downtown", "short_name": "Downtown", "types": ["neighborhood", "political"]}, {"long_name": "Washington", "short_name": "Washington", "types": ["locality", "political"]}, {"long_name": "District of Columbia", "short_name": "DC", "types": ["administrative_area_level_1", "political"]}, {"long_name": "United States", "short_name": "US", "types": ["country", "political"]}, {"long_name": "20036", "short_name": "20036", "types": ["postal_code"]}], "formatted_address": "1201 16th St NW, Washington, DC 20036, USA", "geometry": {"location": {"lat": 38.90603979999999, "lng": -77.0360087}, "location_type": "ROOFTOP", "viewport": {"northeast": {"lat": 38.9073887802915, "lng": -77.03465971970849}, "southwest": {"lat": 38.9046908197085, "lng": -77.03735768029149}}}, "place_id": "ChIJ10-6gr-3t4kR1ljXXn3MUKI", "types": ["establishment", "point_of_interest"]}, {"address_components": [{"long_name": "# 1", "short_name": "# 1", "types": ["subpremise"]}, {"long_name": "1500", "short_name": "1500", "types": ["street_number"]}, {"long_name": "Grant Street", "short_name": "Grant St", "types": ["route"]}, {"long_name": "Central", "short_name": "Central", "types": ["neighborhood", "political"]}, {"long_name": "Denver", "short_name": "Denver", "types": ["locality", "political"]}, {"long_name": "Denver County", "short_name": "Denver County", "types": ["administrative_area_level_2", "political"]}, {"long_name": "Colorado", "short_name": "CO", "types": ["administrative_area_level_1", "political"]}, {"long_name": "United States", "short_name": "US", "types": ["country", "political"]}, {"long_name": "80203", "short_name": "80203", "types": ["postal_code"]}, {"long_name": "1860", "short_name": "1860", "types": ["postal_code_suffix"]}], "formatted_address": "1500 Grant St # 1, Denver, CO 80203, USA", "geometry": {"location": {"lat": 39.7403012, "lng": -104.9832077}, "location_type": "ROOFTOP", "viewport": {"northeast": {"lat": 39.7416501802915, "lng": -104.9818587197085}, "southwest": {"lat": 39.7389522197085, "lng": -104.9845566802915}}}, "place_id": "ChIJfRFj7yp5bIcRKJA9AguFovU", "types": ["establishment", "point_of_interest"]}]}, "170347488": {"AfN": "national environmental engineering research institute", "Location": [{"address_components": [{"long_name": "Hyderabad", "short_name": "Hyderabad", "types": ["locality", "political"]}, {"long_name": "Telangana", "short_name": "Telangana", "types": ["administrative_area_level_1", "political"]}, {"long_name": "India", "short_name": "IN", "types": ["country", "political"]}, {"long_name": "500007", "short_name": "500007", "types": ["postal_code"]}], "formatted_address": "IICT Campus, Tarnaka, Hyderabad, Telangana 500007, India", "geometry": {"location": {"lat": 17.4229084, "lng": 78.5379184}, "location_type": "GEOMETRIC_CENTER", "viewport": {"northeast": {"lat": 17.4242573802915, "lng": 78.53926738029149}, "southwest": {"lat": 17.4215594197085, "lng": 78.53656941970848}}}, "place_id": "ChIJOeHv0UOZyzsRjyzA_PJabCU", "types": ["establishment", "point_of_interest"]}]}, "6002401": {"AfN": "national evolutionary synthesis center", "Location": [{"address_components": [{"long_name": "2024", "short_name": "2024", "types": ["street_number"]}, {"long_name": "West Main Street", "short_name": "W Main St", "types": ["route"]}, {"long_name": "Old West Durham", "short_name": "Old West Durham", "types": ["neighborhood", "political"]}, {"long_name": "Durham", "short_name": "Durham", "types": ["locality", "political"]}, {"long_name": "Durham", "short_name": "Durham", "types": ["administrative_area_level_3", "political"]}, {"long_name": "Durham County", "short_name": "Durham County", "types": ["administrative_area_level_2", "political"]}, {"long_name": "North Carolina", "short_name": "NC", "types": ["administrative_area_level_1", "political"]}, {"long_name": "United States", "short_name": "US", "types": ["country", "political"]}, {"long_name": "27705", "short_name": "27705", "types": ["postal_code"]}], "formatted_address": "2024 W Main St, Durham, NC 27705, USA", "geometry": {"location": {"lat": 36.0080048, "lng": -78.9234013}, "location_type": "ROOFTOP", "viewport": {"northeast": {"lat": 36.00935378029151, "lng": -78.92205231970848}, "southwest": {"lat": 36.00665581970851, "lng": -78.9247502802915}}}, "place_id": "ChIJDf-7tADkrIkRe-yuHHO8D2Y", "types": ["establishment", "point_of_interest", "school"]}]}, "301945944": {"AfN": "national federation of coffee growers of colombia", "Location": [{"address_components": [{"long_name": "Rionegro", "short_name": "Rionegro", "types": ["locality", "political"]}, {"long_name": "Rionegro", "short_name": "Rionegro", "types": ["administrative_area_level_2", "political"]}, {"long_name": "Santander", "short_name": "Santander", "types": ["administrative_area_level_1", "political"]}, {"long_name": "Colombia", "short_name": "CO", "types": ["country", "political"]}, {"long_name": "687511", "short_name": "687511", "types": ["postal_code"]}], "formatted_address": "Rionegro, Santander, Colombia", "geometry": {"location": {"lat": 7.2616567, "lng": -73.1490349}, "location_type": "GEOMETRIC_CENTER", "viewport": {"northeast": {"lat": 7.263005680291502, "lng": -73.14768591970851}, "southwest": {"lat": 7.260307719708497, "lng": -73.15038388029151}}}, "partial_match": true, "place_id": "ChIJ266lmUQSaI4Ric6WytUuwEk", "types": ["establishment", "food", "point_of_interest"]}]}, "1331287991": {"AfN": "national federation of families for children s mental health", "Location": [{"address_components": [{"long_name": "12320", "short_name": "12320", "types": ["street_number"]}, {"long_name": "Parklawn Drive", "short_name": "Parklawn Dr", "types": ["route"]}, {"long_name": "Rockville", "short_name": "Rockville", "types": ["locality", "political"]}, {"long_name": "4", "short_name": "4", "types": ["administrative_area_level_3", "political"]}, {"long_name": "Montgomery County", "short_name": "Montgomery County", "types": ["administrative_area_level_2", "political"]}, {"long_name": "Maryland", "short_name": "MD", "types": ["administrative_area_level_1", "political"]}, {"long_name": "United States", "short_name": "US", "types": ["country", "political"]}, {"long_name": "20852", "short_name": "20852", "types": ["postal_code"]}, {"long_name": "1726", "short_name": "1726", "types": ["postal_code_suffix"]}], "formatted_address": "12320 Parklawn Dr, Rockville, MD 20852, USA", "geometry": {"location": {"lat": 39.0588506, "lng": -77.111578}, "location_type": "ROOFTOP", "viewport": {"northeast": {"lat": 39.0601995802915, "lng": -77.11022901970848}, "southwest": {"lat": 39.0575016197085, "lng": -77.1129269802915}}}, "place_id": "ChIJf0wW0dLNt4kR34uQX6JV_mk", "types": ["establishment", "point_of_interest"]}]}, "896602014": {"AfN": "national federation of republican assemblies", "Location": []}, "15032026": {"AfN": "national fisheries research development institute", "Location": [{"address_components": [{"long_name": "101", "short_name": "101", "types": ["street_number"]}, {"long_name": "Mother Ignacia Street", "short_name": "Mother Ignacia St", "types": ["route"]}, {"long_name": "Diliman", "short_name": "Diliman", "types": ["political", "sublocality", "sublocality_level_1"]}, {"long_name": "Quezon City", "short_name": "QC", "types": ["locality", "political"]}, {"long_name": "Metro Manila", "short_name": "NCR", "types": ["administrative_area_level_1", "political"]}, {"long_name": "Philippines", "short_name": "PH", "types": ["country", "political"]}, {"long_name": "1103", "short_name": "1103", "types": ["postal_code"]}], "formatted_address": "101 Mother Ignacia St, Diliman, Quezon City, 1103 Metro Manila, Philippines", "geometry": {"location": {"lat": 14.637115, "lng": 121.030404}, "location_type": "ROOFTOP", "viewport": {"northeast": {"lat": 14.6384639802915, "lng": 121.0317529802915}, "southwest": {"lat": 14.6357660197085, "lng": 121.0290550197085}}}, "place_id": "ChIJaTo4N0S2lzMRHtevhbH_FNI", "types": ["establishment", "local_government_office", "point_of_interest"]}]}, "40689657": {"AfN": "national formosa university", "Location": [{"address_components": [{"long_name": "64", "short_name": "64", "types": ["street_number"]}, {"long_name": "Wenhua Road", "short_name": "Wenhua Road", "types": ["route"]}, {"long_name": "Huwei Township", "short_name": "Huwei Township", "types": ["administrative_area_level_3", "political"]}, {"long_name": "Yunlin County", "short_name": "Yunlin County", "types": ["administrative_area_level_2", "political"]}, {"long_name": "Taiwan", "short_name": "TW", "types": ["country", "political"]}, {"long_name": "632", "short_name": "632", "types": ["postal_code"]}], "formatted_address": "No. 64, Wenhua Road, Huwei Township, Yunlin County, Taiwan 632", "geometry": {"location": {"lat": 23.703108, "lng": 120.430151}, "location_type": "ROOFTOP", "viewport": {"northeast": {"lat": 23.7044569802915, "lng": 120.4314999802915}, "southwest": {"lat": 23.7017590197085, "lng": 120.4288020197085}}}, "place_id": "ChIJES_iLge6bjQR1wdykAXtilU", "types": ["establishment", "point_of_interest", "university"]}]}, "21182828": {"AfN": "national foundation for cancer research", "Location": [{"address_components": [{"long_name": "525", "short_name": "525", "types": ["subpremise"]}, {"long_name": "4600", "short_name": "4600", "types": ["street_number"]}, {"long_name": "East West Highway", "short_name": "East West Highway", "types": ["route"]}, {"long_name": "Bethesda", "short_name": "Bethesda", "types": ["locality", "political"]}, {"long_name": "7", "short_name": "7", "types": ["administrative_area_level_3", "political"]}, {"long_name": "Montgomery County", "short_name": "Montgomery County", "types": ["administrative_area_level_2", "political"]}, {"long_name": "Maryland", "short_name": "MD", "types": ["administrative_area_level_1", "political"]}, {"long_name": "United States", "short_name": "US", "types": ["country", "political"]}, {"long_name": "20814", "short_name": "20814", "types": ["postal_code"]}, {"long_name": "6900", "short_name": "6900", "types": ["postal_code_suffix"]}], "formatted_address": "4600 East West Highway #525, Bethesda, MD 20814, USA", "geometry": {"location": {"lat": 38.984472, "lng": -77.09285}, "location_type": "ROOFTOP", "viewport": {"northeast": {"lat": 38.9858209802915, "lng": -77.09150101970849}, "southwest": {"lat": 38.9831230197085, "lng": -77.09419898029151}}}, "place_id": "ChIJuYfczHrJt4kRTxNUbQCTjSY", "types": ["establishment", "point_of_interest"]}]}, "1281773123": {"AfN": "national gallery of art", "Location": [{"address_components": [{"long_name": "6th", "short_name": "6th", "types": ["route"]}, {"long_name": "Northwest Washington", "short_name": "Northwest Washington", "types": ["neighborhood", "political"]}, {"long_name": "Washington", "short_name": "Washington", "types": ["locality", "political"]}, {"long_name": "District of Columbia", "short_name": "DC", "types": ["administrative_area_level_1", "political"]}, {"long_name": "United States", "short_name": "US", "types": ["country", "political"]}, {"long_name": "20565", "short_name": "20565", "types": ["postal_code"]}], "formatted_address": "6th & Constitution Ave NW, Washington, DC 20565, USA", "geometry": {"location": {"lat": 38.891298, "lng": -77.019965}, "location_type": "GEOMETRIC_CENTER", "viewport": {"northeast": {"lat": 38.8926469802915, "lng": -77.01861601970849}, "southwest": {"lat": 38.8899490197085, "lng": -77.0213139802915}}}, "place_id": "ChIJSYxSO5u3t4kRm4eyKw_Y7Kg", "types": ["art_gallery", "establishment", "museum", "point_of_interest"]}]}, "22716965": {"AfN": "national geophysical research institute", "Location": [{"address_components": [{"long_name": "Hyderabad", "short_name": "Hyderabad", "types": ["locality", "political"]}, {"long_name": "Telangana", "short_name": "Telangana", "types": ["administrative_area_level_1", "political"]}, {"long_name": "India", "short_name": "IN", "types": ["country", "political"]}, {"long_name": "500007", "short_name": "500007", "types": ["postal_code"]}], "formatted_address": "Uppal Road, Habsiguda, Hyderabad, Telangana 500007, India", "geometry": {"location": {"lat": 17.4163482, "lng": 78.55099899999999}, "location_type": "GEOMETRIC_CENTER", "viewport": {"northeast": {"lat": 17.4176971802915, "lng": 78.5523479802915}, "southwest": {"lat": 17.4149992197085, "lng": 78.5496500197085}}}, "place_id": "ChIJMymMKUSZyzsR1pwBk6o71lo", "types": ["establishment", "point_of_interest"]}]}, "1319259000": {"AfN": "national geospatial intelligence agency", "Location": [{"address_components": [{"long_name": "3200", "short_name": "3200", "types": ["street_number"]}, {"long_name": "South 2nd Street", "short_name": "S 2nd St", "types": ["route"]}, {"long_name": "Kosciusko", "short_name": "Kosciusko", "types": ["neighborhood", "political"]}, {"long_name": "St. Louis", "short_name": "St. Louis", "types": ["locality", "political"]}, {"long_name": "Missouri", "short_name": "MO", "types": ["administrative_area_level_1", "political"]}, {"long_name": "United States", "short_name": "US", "types": ["country", "political"]}, {"long_name": "63118", "short_name": "63118", "types": ["postal_code"]}], "formatted_address": "3200 S 2nd St, St. Louis, MO 63118, USA", "geometry": {"location": {"lat": 38.5920253, "lng": -90.20998469999999}, "location_type": "ROOFTOP", "viewport": {"northeast": {"lat": 38.59337428029149, "lng": -90.2086357197085}, "southwest": {"lat": 38.5906763197085, "lng": -90.2113336802915}}}, "place_id": "ChIJs6BLw5Sz2IcRWTXditded24", "types": ["establishment", "point_of_interest"]}]}, "116292333": {"AfN": "national graduate institute for policy studies", "Location": [{"address_components": [{"long_name": "1", "short_name": "1", "types": ["premise"]}, {"long_name": "22", "short_name": "22", "types": ["political", "sublocality", "sublocality_level_4"]}, {"long_name": "\uff17\u4e01\u76ee", "short_name": "\uff17\u4e01\u76ee", "types": ["political", "sublocality", "sublocality_level_3"]}, {"long_name": "Roppongi", "short_name": "Roppongi", "types": ["political", "sublocality", "sublocality_level_2"]}, {"long_name": "Minato", "short_name": "Minato", "types": ["locality", "political"]}, {"long_name": "Tokyo", "short_name": "Tokyo", "types": ["administrative_area_level_1", "political"]}, {"long_name": "Japan", "short_name": "JP", "types": ["country", "political"]}, {"long_name": "106-0032", "short_name": "106-0032", "types": ["postal_code"]}], "formatted_address": "\uff17\u4e01\u76ee-22-1 Roppongi, Minato, Tokyo 106-0032, Japan", "geometry": {"location": {"lat": 35.663961, "lng": 139.727284}, "location_type": "ROOFTOP", "viewport": {"northeast": {"lat": 35.6653099802915, "lng": 139.7286329802915}, "southwest": {"lat": 35.6626120197085, "lng": 139.7259350197085}}}, "place_id": "ChIJ6xeUe3mLGGAR0Md3S_c20PA", "types": ["establishment", "point_of_interest", "university"]}]}, "172637570": {"AfN": "national grid plc", "Location": [{"address_components": [{"long_name": "1-3", "short_name": "1-3", "types": ["street_number"]}, {"long_name": "Strand", "short_name": "Strand", "types": ["route"]}, {"long_name": "London", "short_name": "London", "types": ["postal_town"]}, {"long_name": "Greater London", "short_name": "Greater London", "types": ["administrative_area_level_2", "political"]}, {"long_name": "England", "short_name": "England", "types": ["administrative_area_level_1", "political"]}, {"long_name": "United Kingdom", "short_name": "GB", "types": ["country", "political"]}, {"long_name": "WC2N 5EH", "short_name": "WC2N 5EH", "types": ["postal_code"]}], "formatted_address": "1-3 Strand, London WC2N 5EH, UK", "geometry": {"location": {"lat": 51.5077231, "lng": -0.1266202}, "location_type": "ROOFTOP", "viewport": {"northeast": {"lat": 51.5090720802915, "lng": -0.125271219708498}, "southwest": {"lat": 51.5063741197085, "lng": -0.127969180291502}}}, "place_id": "ChIJAzeP-M4EdkgR8UjKNECRfSI", "types": ["establishment", "point_of_interest"]}]}, "271893122": {"AfN": "national health and family planning commission", "Location": [{"address_components": [{"long_name": "Guo Jia Wei Sheng He Ji Hua Sheng Yu Wei Yuan Hui", "short_name": "Guo Jia Wei Sheng He Ji Hua Sheng Yu Wei Yuan Hui", "types": ["premise"]}, {"long_name": "Xicheng Qu", "short_name": "Xicheng Qu", "types": ["political", "sublocality", "sublocality_level_1"]}, {"long_name": "Beijing Shi", "short_name": "Beijing Shi", "types": ["administrative_area_level_1", "political"]}, {"long_name": "China", "short_name": "CN", "types": ["country", "political"]}], "formatted_address": "Guo Jia Wei Sheng He Ji Hua Sheng Yu Wei Yuan Hui, Xicheng Qu, Beijing Shi, China", "geometry": {"bounds": {"northeast": {"lat": 39.9385986, "lng": 116.3546002}, "southwest": {"lat": 39.9383529, "lng": 116.3543338}}, "location": {"lat": 39.93846569999999, "lng": 116.3545081}, "location_type": "ROOFTOP", "viewport": {"northeast": {"lat": 39.9398247302915, "lng": 116.3558159802915}, "southwest": {"lat": 39.9371267697085, "lng": 116.3531180197085}}}, "place_id": "ChIJK0udoExS8DUROQRdL26tvPQ", "types": ["premise"]}]}, "42131985": {"AfN": "national health and medical research council", "Location": [{"address_components": [{"long_name": "16", "short_name": "16", "types": ["street_number"]}, {"long_name": "Marcus Clarke Street", "short_name": "Marcus Clarke St", "types": ["route"]}, {"long_name": "Canberra", "short_name": "Canberra", "types": ["locality", "political"]}, {"long_name": "Australian Capital Territory", "short_name": "ACT", "types": ["administrative_area_level_1", "political"]}, {"long_name": "Australia", "short_name": "AU", "types": ["country", "political"]}, {"long_name": "2601", "short_name": "2601", "types": ["postal_code"]}], "formatted_address": "GHD Building Level 1, 16 Marcus Clarke St, Canberra ACT 2601, Australia", "geometry": {"location": {"lat": -35.282223, "lng": 149.124343}, "location_type": "ROOFTOP", "viewport": {"northeast": {"lat": -35.28087401970851, "lng": 149.1256919802915}, "southwest": {"lat": -35.28357198029151, "lng": 149.1229940197085}}}, "place_id": "ChIJDTBud0FNFmsRTrDJcA6pVkE", "types": ["establishment", "point_of_interest"]}]}, "107920810": {"AfN": "national health laboratory service", "Location": [{"address_components": [{"long_name": "3231", "short_name": "3231", "types": ["street_number"]}, {"long_name": "South National Avenue", "short_name": "S National Ave", "types": ["route"]}, {"long_name": "Springfield", "short_name": "Springfield", "types": ["locality", "political"]}, {"long_name": "Springfield Township", "short_name": "Springfield Township", "types": ["administrative_area_level_3", "political"]}, {"long_name": "Greene County", "short_name": "Greene County", "types": ["administrative_area_level_2", "political"]}, {"long_name": "Missouri", "short_name": "MO", "types": ["administrative_area_level_1", "political"]}, {"long_name": "United States", "short_name": "US", "types": ["country", "political"]}, {"long_name": "65807", "short_name": "65807", "types": ["postal_code"]}, {"long_name": "7304", "short_name": "7304", "types": ["postal_code_suffix"]}], "formatted_address": "3231 S National Ave, Springfield, MO 65807, USA", "geometry": {"location": {"lat": 37.1553438, "lng": -93.27961370000001}, "location_type": "ROOFTOP", "viewport": {"northeast": {"lat": 37.15669278029149, "lng": -93.27826471970852}, "southwest": {"lat": 37.15399481970849, "lng": -93.28096268029152}}}, "place_id": "ChIJf4aE9Jdkz4cRKfuFhURqrgg", "types": ["establishment", "health", "point_of_interest"]}]}, "165441096": {"AfN": "national health research institutes", "Location": [{"address_components": [{"long_name": "# 31111", "short_name": "# 31111", "types": ["subpremise"]}, {"long_name": "6610", "short_name": "6610", "types": ["street_number"]}, {"long_name": "Rocklege Dr", "short_name": "Rocklege Dr", "types": ["route"]}, {"long_name": "Bethesda", "short_name": "Bethesda", "types": ["locality", "political"]}, {"long_name": "4", "short_name": "4", "types": ["administrative_area_level_3", "political"]}, {"long_name": "Montgomery County", "short_name": "Montgomery County", "types": ["administrative_area_level_2", "political"]}, {"long_name": "Maryland", "short_name": "MD", "types": ["administrative_area_level_1", "political"]}, {"long_name": "United States", "short_name": "US", "types": ["country", "political"]}, {"long_name": "20892", "short_name": "20892", "types": ["postal_code"]}, {"long_name": "0001", "short_name": "0001", "types": ["postal_code_suffix"]}], "formatted_address": "6610 Rocklege Dr # 31111, Bethesda, MD 20892, USA", "geometry": {"location": {"lat": 39.0288722, "lng": -77.13314629999999}, "location_type": "ROOFTOP", "viewport": {"northeast": {"lat": 39.0302211802915, "lng": -77.13179731970848}, "southwest": {"lat": 39.0275232197085, "lng": -77.13449528029149}}}, "place_id": "ChIJ93mv1m_Mt4kR7EdcUdYSqS0", "types": ["doctor", "establishment", "health", "point_of_interest"]}]}, "125671874": {"AfN": "national health service", "Location": [{"address_components": [{"long_name": "6732", "short_name": "6732", "types": ["street_number"]}, {"long_name": "East 41st Street", "short_name": "E 41st St", "types": ["route"]}, {"long_name": "Tulsa", "short_name": "Tulsa", "types": ["locality", "political"]}, {"long_name": "Tulsa County", "short_name": "Tulsa County", "types": ["administrative_area_level_2", "political"]}, {"long_name": "Oklahoma", "short_name": "OK", "types": ["administrative_area_level_1", "political"]}, {"long_name": "United States", "short_name": "US", "types": ["country", "political"]}, {"long_name": "74145", "short_name": "74145", "types": ["postal_code"]}], "formatted_address": "6732 E 41st St, Tulsa, OK 74145, USA", "geometry": {"location": {"lat": 36.1040002, "lng": -95.9017269}, "location_type": "ROOFTOP", "viewport": {"northeast": {"lat": 36.1053491802915, "lng": -95.90037791970849}, "southwest": {"lat": 36.10265121970851, "lng": -95.90307588029151}}}, "place_id": "ChIJRyF1eqeStocRYmY8OsGdJCc", "types": ["establishment", "health", "point_of_interest"]}]}, "166881300": {"AfN": "national healthcare group", "Location": [{"address_components": [{"long_name": "28856", "short_name": "28856", "types": ["street_number"]}, {"long_name": "Woodcreek", "short_name": "Woodcreek", "types": ["route"]}, {"long_name": "Mission Viejo", "short_name": "Mission Viejo", "types": ["locality", "political"]}, {"long_name": "Orange County", "short_name": "Orange County", "types": ["administrative_area_level_2", "political"]}, {"long_name": "California", "short_name": "CA", "types": ["administrative_area_level_1", "political"]}, {"long_name": "United States", "short_name": "US", "types": ["country", "political"]}, {"long_name": "92692", "short_name": "92692", "types": ["postal_code"]}, {"long_name": "4829", "short_name": "4829", "types": ["postal_code_suffix"]}], "formatted_address": "28856 Woodcreek, Mission Viejo, CA 92692, USA", "geometry": {"location": {"lat": 33.635813, "lng": -117.626955}, "location_type": "ROOFTOP", "viewport": {"northeast": {"lat": 33.63716198029149, "lng": -117.6256060197085}, "southwest": {"lat": 33.6344640197085, "lng": -117.6283039802915}}}, "place_id": "ChIJ95F13M7r3IAR3rFlSWl_f0o", "types": ["establishment", "health", "point_of_interest"]}]}, "27158533": {"AfN": "national heart foundation of australia", "Location": [{"address_components": [{"long_name": "2", "short_name": "2", "types": ["subpremise"]}, {"long_name": "850", "short_name": "850", "types": ["street_number"]}, {"long_name": "Collins Street", "short_name": "Collins St", "types": ["route"]}, {"long_name": "Melbourne", "short_name": "Melbourne", "types": ["locality", "political"]}, {"long_name": "Melbourne City", "short_name": "Melbourne", "types": ["administrative_area_level_2", "political"]}, {"long_name": "Victoria", "short_name": "VIC", "types": ["administrative_area_level_1", "political"]}, {"long_name": "Australia", "short_name": "AU", "types": ["country", "political"]}, {"long_name": "3008", "short_name": "3008", "types": ["postal_code"]}], "formatted_address": "2/850 Collins St, Melbourne VIC 3008, Australia", "geometry": {"location": {"lat": -37.820922, "lng": 144.944549}, "location_type": "ROOFTOP", "viewport": {"northeast": {"lat": -37.8195730197085, "lng": 144.9458979802915}, "southwest": {"lat": -37.82227098029149, "lng": 144.9432000197085}}}, "place_id": "ChIJkctYS0hd1moRS7ynyfYFQaE", "types": ["establishment", "point_of_interest"]}]}, "1338365311": {"AfN": "national highway traffic safety administration", "Location": [{"address_components": [{"long_name": "819", "short_name": "819", "types": ["street_number"]}, {"long_name": "Taylor Street", "short_name": "Taylor St", "types": ["route"]}, {"long_name": "Sundance Square", "short_name": "Sundance Square", "types": ["neighborhood", "political"]}, {"long_name": "Fort Worth", "short_name": "Fort Worth", "types": ["locality", "political"]}, {"long_name": "Tarrant County", "short_name": "Tarrant County", "types": ["administrative_area_level_2", "political"]}, {"long_name": "Texas", "short_name": "TX", "types": ["administrative_area_level_1", "political"]}, {"long_name": "United States", "short_name": "US", "types": ["country", "political"]}, {"long_name": "76102", "short_name": "76102", "types": ["postal_code"]}], "formatted_address": "819 Taylor St, Fort Worth, TX 76102, USA", "geometry": {"location": {"lat": 32.7504411, "lng": -97.3315286}, "location_type": "ROOFTOP", "viewport": {"northeast": {"lat": 32.7517900802915, "lng": -97.33017961970849}, "southwest": {"lat": 32.7490921197085, "lng": -97.33287758029151}}}, "place_id": "ChIJGZiC7GpxToYRsSWprh3vBdU", "types": ["establishment", "local_government_office", "point_of_interest"]}]}, "75430998": {"AfN": "national ilan university", "Location": [{"address_components": [{"long_name": "1", "short_name": "1", "types": ["street_number"]}, {"long_name": "Section 1, Shennong Road", "short_name": "Section 1, Shennong Road", "types": ["route"]}, {"long_name": "Yilan City", "short_name": "Yilan City", "types": ["administrative_area_level_3", "political"]}, {"long_name": "Yilan County", "short_name": "Yilan County", "types": ["administrative_area_level_2", "political"]}, {"long_name": "Taiwan", "short_name": "TW", "types": ["country", "political"]}, {"long_name": "260", "short_name": "260", "types": ["postal_code"]}], "formatted_address": "No. 1, Section 1, Shennong Road, Yilan City, Yilan County, Taiwan 260", "geometry": {"location": {"lat": 24.7462695, "lng": 121.7489071}, "location_type": "ROOFTOP", "viewport": {"northeast": {"lat": 24.7476184802915, "lng": 121.7502560802915}, "southwest": {"lat": 24.7449205197085, "lng": 121.7475581197085}}}, "place_id": "ChIJXUOeb-nkZzQR2OB63tWzg34", "types": ["establishment", "point_of_interest", "university"]}]}, "138804964": {"AfN": "national institute for basic biology japan", "Location": [{"address_components": [{"long_name": "Okazaki", "short_name": "Okazaki", "types": ["locality", "political"]}, {"long_name": "Aichi Prefecture", "short_name": "Aichi Prefecture", "types": ["administrative_area_level_1", "political"]}, {"long_name": "Japan", "short_name": "JP", "types": ["country", "political"]}, {"long_name": "444-8585", "short_name": "444-8585", "types": ["postal_code"]}], "formatted_address": "Japan, \u3012444-8585 Aichi Prefecture, Okazaki, \u660e\u5927\u5bfa\u753a\u897f\u90f7\u4e2d\uff13\uff18", "geometry": {"location": {"lat": 34.9494383, "lng": 137.1651934}, "location_type": "GEOMETRIC_CENTER", "viewport": {"northeast": {"lat": 34.9507872802915, "lng": 137.1665423802915}, "southwest": {"lat": 34.9480893197085, "lng": 137.1638444197085}}}, "place_id": "ChIJQdaXVDu9BGARrFQqYiEtbXI", "types": ["establishment", "point_of_interest"]}]}, "65163767": {"AfN": "national institute for biological standards and control", "Location": [{"address_components": [{"long_name": "Suite 550", "short_name": "Suite 550", "types": ["subpremise"]},