{"48843708": {"AfN": "pamukkale university", "Location": [{"address_components": [{"long_name": "2", "short_name": "2", "types": ["floor"]}, {"long_name": "No:11", "short_name": "No:11", "types": ["street_number"]}, {"long_name": "\u00dcniversite Caddesi", "short_name": "\u00dcniversite Cd.", "types": ["route"]}, {"long_name": "\u00c7amlaralt\u0131 Mahallesi", "short_name": "\u00c7amlaralt\u0131 Mahallesi", "types": ["administrative_area_level_4", "political"]}, {"long_name": "Pamukkale", "short_name": "Pamukkale", "types": ["administrative_area_level_3", "political"]}, {"long_name": "Pamukkale", "short_name": "Pamukkale", "types": ["administrative_area_level_2", "political"]}, {"long_name": "Denizli", "short_name": "Denizli", "types": ["administrative_area_level_1", "political"]}, {"long_name": "Turkey", "short_name": "TR", "types": ["country", "political"]}, {"long_name": "20160", "short_name": "20160", "types": ["postal_code"]}], "formatted_address": "2, \u00c7amlaralt\u0131 Mahallesi, \u00dcniversite Cd. No:11, 20160 Pamukkale/Denizli, Turkey", "geometry": {"location": {"lat": 37.7427468, "lng": 29.1048238}, "location_type": "ROOFTOP", "viewport": {"northeast": {"lat": 37.7440957802915, "lng": 29.1061727802915}, "southwest": {"lat": 37.7413978197085, "lng": 29.1034748197085}}}, "place_id": "ChIJ____v9JMxhQRrFSSuCoQIXw", "types": ["establishment", "point_of_interest", "university"]}]}, "66804793": {"AfN": "pan american health organization", "Location": [{"address_components": [{"long_name": "525", "short_name": "525", "types": ["street_number"]}, {"long_name": "23rd Street, NW", "short_name": "23rd Street, NW", "types": ["route"]}, {"long_name": "Northwest Washington", "short_name": "Northwest Washington", "types": ["neighborhood", "political"]}, {"long_name": "Washington", "short_name": "Washington", "types": ["locality", "political"]}, {"long_name": "District of Columbia", "short_name": "DC", "types": ["administrative_area_level_1", "political"]}, {"long_name": "United States", "short_name": "US", "types": ["country", "political"]}, {"long_name": "20037", "short_name": "20037", "types": ["postal_code"]}], "formatted_address": "525 23rd Street, NW, Washington, DC 20037, USA", "geometry": {"location": {"lat": 38.8963005, "lng": -77.0496567}, "location_type": "ROOFTOP", "viewport": {"northeast": {"lat": 38.89764948029149, "lng": -77.0483077197085}, "southwest": {"lat": 38.89495151970849, "lng": -77.05100568029151}}}, "place_id": "ChIJI-_LEq63t4kRcmVyZ-ykcXQ", "types": ["establishment", "health", "local_government_office", "point_of_interest"]}, {"address_components": [{"long_name": "# C4", "short_name": "# C4", "types": ["subpremise"]}, {"long_name": "5400", "short_name": "5400", "types": ["street_number"]}, {"long_name": "Suncrest Drive", "short_name": "Suncrest Dr", "types": ["route"]}, {"long_name": "Mesa Hills", "short_name": "Mesa Hills", "types": ["neighborhood", "political"]}, {"long_name": "El Paso", "short_name": "El Paso", "types": ["locality", "political"]}, {"long_name": "El Paso County", "short_name": "El Paso County", "types": ["administrative_area_level_2", "political"]}, {"long_name": "Texas", "short_name": "TX", "types": ["administrative_area_level_1", "political"]}, {"long_name": "United States", "short_name": "US", "types": ["country", "political"]}, {"long_name": "79912", "short_name": "79912", "types": ["postal_code"]}, {"long_name": "5615", "short_name": "5615", "types": ["postal_code_suffix"]}], "formatted_address": "5400 Suncrest Dr # C4, El Paso, TX 79912, USA", "geometry": {"location": {"lat": 31.816781, "lng": -106.526614}, "location_type": "ROOFTOP", "viewport": {"northeast": {"lat": 31.8181299802915, "lng": -106.5252650197085}, "southwest": {"lat": 31.8154320197085, "lng": -106.5279629802915}}}, "place_id": "ChIJiYOgJftX54YRamsMbCzqWLw", "types": ["establishment", "point_of_interest"]}]}, "86613570": {"AfN": "panamerican university", "Location": [{"address_components": [{"long_name": "1201", "short_name": "1201", "types": ["street_number"]}, {"long_name": "West University Drive", "short_name": "W University Dr", "types": ["route"]}, {"long_name": "Edinburg", "short_name": "Edinburg", "types": ["locality", "political"]}, {"long_name": "Hidalgo County", "short_name": "Hidalgo County", "types": ["administrative_area_level_2", "political"]}, {"long_name": "Texas", "short_name": "TX", "types": ["administrative_area_level_1", "political"]}, {"long_name": "United States", "short_name": "US", "types": ["country", "political"]}, {"long_name": "78539", "short_name": "78539", "types": ["postal_code"]}], "formatted_address": "1201 W University Dr, Edinburg, TX 78539, USA", "geometry": {"location": {"lat": 26.3082047, "lng": -98.1740447}, "location_type": "ROOFTOP", "viewport": {"northeast": {"lat": 26.3095536802915, "lng": -98.17269571970849}, "southwest": {"lat": 26.30685571970849, "lng": -98.1753936802915}}}, "place_id": "ChIJTYynFUuiZYYRDPE5FvAb3Cw", "types": ["establishment", "point_of_interest", "university"]}]}, "1283155146": {"AfN": "panasonic", "Location": [{"address_components": [{"long_name": "13625", "short_name": "13625", "types": ["street_number"]}, {"long_name": "Lakefront Drive", "short_name": "Lakefront Dr", "types": ["route"]}, {"long_name": "Earth City", "short_name": "Earth City", "types": ["locality", "political"]}, {"long_name": "Northwest Township", "short_name": "Northwest Township", "types": ["administrative_area_level_3", "political"]}, {"long_name": "St. Louis County", "short_name": "St Louis County", "types": ["administrative_area_level_2", "political"]}, {"long_name": "Missouri", "short_name": "MO", "types": ["administrative_area_level_1", "political"]}, {"long_name": "United States", "short_name": "US", "types": ["country", "political"]}, {"long_name": "63045", "short_name": "63045", "types": ["postal_code"]}, {"long_name": "1404", "short_name": "1404", "types": ["postal_code_suffix"]}], "formatted_address": "13625 Lakefront Dr, Earth City, MO 63045, USA", "geometry": {"location": {"lat": 38.7652427, "lng": -90.4652426}, "location_type": "ROOFTOP", "viewport": {"northeast": {"lat": 38.7665916802915, "lng": -90.4638936197085}, "southwest": {"lat": 38.7638937197085, "lng": -90.4665915802915}}}, "place_id": "ChIJKRlHmjku34cRb5duU-NAobo", "types": ["electronics_store", "establishment", "point_of_interest", "store"]}]}, "51452335": {"AfN": "panjab university chandigarh", "Location": [{"address_components": [{"long_name": "Chandigarh", "short_name": "Chandigarh", "types": ["locality", "political"]}, {"long_name": "Chandigarh", "short_name": "CH", "types": ["administrative_area_level_1", "political"]}, {"long_name": "India", "short_name": "IN", "types": ["country", "political"]}, {"long_name": "160014", "short_name": "160014", "types": ["postal_code"]}], "formatted_address": "Sector 14, Chandigarh, 160014, India", "geometry": {"location": {"lat": 30.7600747, "lng": 76.76630279999999}, "location_type": "GEOMETRIC_CENTER", "viewport": {"northeast": {"lat": 30.7614236802915, "lng": 76.76765178029149}, "southwest": {"lat": 30.7587257197085, "lng": 76.76495381970848}}}, "place_id": "ChIJ27w-eojtDzkRlmHXip3S47k", "types": ["establishment", "point_of_interest", "university"]}]}, "1338195976": {"AfN": "panthera corporation", "Location": [{"address_components": [{"long_name": "New York", "short_name": "New York", "types": ["locality", "political"]}, {"long_name": "New York", "short_name": "NY", "types": ["administrative_area_level_1", "political"]}, {"long_name": "United States", "short_name": "US", "types": ["country", "political"]}, {"long_name": "10018", "short_name": "10018", "types": ["postal_code"]}, {"long_name": "2218", "short_name": "2218", "types": ["postal_code_suffix"]}], "formatted_address": "8 W 40th St, 18th Floor, New York, NY 10018, United States", "geometry": {"location": {"lat": 40.7523109, "lng": -73.9826824}, "location_type": "GEOMETRIC_CENTER", "viewport": {"northeast": {"lat": 40.75365988029149, "lng": -73.98133341970849}, "southwest": {"lat": 40.75096191970849, "lng": -73.98403138029151}}}, "place_id": "ChIJR1BMhwBZwokRROYZOQgT7Dg", "types": ["establishment", "home_goods_store", "point_of_interest", "store"]}]}, "176993332": {"AfN": "panum institute", "Location": [{"address_components": [{"long_name": "41", "short_name": "41", "types": ["street_number"]}, {"long_name": "N\u00f8rre All\u00e9", "short_name": "N\u00f8rre All\u00e9", "types": ["route"]}, {"long_name": "K\u00f8benhavn N", "short_name": "K\u00f8benhavn N", "types": ["political", "sublocality", "sublocality_level_1"]}, {"long_name": "K\u00f8benhavn", "short_name": "K\u00f8benhavn", "types": ["locality", "political"]}, {"long_name": "Denmark", "short_name": "DK", "types": ["country", "political"]}, {"long_name": "2200", "short_name": "2200", "types": ["postal_code"]}], "formatted_address": "N\u00f8rre All\u00e9 41, 2200 K\u00f8benhavn, Denmark", "geometry": {"location": {"lat": 55.6947886, "lng": 12.5609819}, "location_type": "ROOFTOP", "viewport": {"northeast": {"lat": 55.6961375802915, "lng": 12.5623308802915}, "southwest": {"lat": 55.6934396197085, "lng": 12.5596329197085}}}, "place_id": "ChIJr5QE_f9SUkYR_6WAmWHrBf0", "types": ["establishment", "point_of_interest", "university"]}]}, "85225031": {"AfN": "papua new guinea institute of medical research", "Location": [{"address_components": [{"long_name": "Papua New Guinea", "short_name": "PG", "types": ["country", "political"]}], "formatted_address": "Papua New Guinea", "geometry": {"bounds": {"northeast": {"lat": -0.6702, "lng": 159.9609001}, "southwest": {"lat": -12.0823, "lng": 140.8419695}}, "location": {"lat": -6.314992999999999, "lng": 143.95555}, "location_type": "APPROXIMATE", "viewport": {"northeast": {"lat": -0.6702, "lng": 159.9609001}, "southwest": {"lat": -12.0823, "lng": 140.8419695}}}, "partial_match": true, "place_id": "ChIJr54Ov6_oWWgRehKcjg3l8No", "types": ["country", "political"]}]}, "1314580408": {"AfN": "paradigm", "Location": [{"address_components": [{"long_name": "# 300", "short_name": "# 300", "types": ["subpremise"]}, {"long_name": "7146", "short_name": "7146", "types": ["street_number"]}, {"long_name": "South Braden Avenue", "short_name": "S Braden Ave", "types": ["route"]}, {"long_name": "Southridge Estate", "short_name": "Southridge Estate", "types": ["neighborhood", "political"]}, {"long_name": "Tulsa", "short_name": "Tulsa", "types": ["locality", "political"]}, {"long_name": "Tulsa County", "short_name": "Tulsa County", "types": ["administrative_area_level_2", "political"]}, {"long_name": "Oklahoma", "short_name": "OK", "types": ["administrative_area_level_1", "political"]}, {"long_name": "United States", "short_name": "US", "types": ["country", "political"]}, {"long_name": "74136", "short_name": "74136", "types": ["postal_code"]}, {"long_name": "6317", "short_name": "6317", "types": ["postal_code_suffix"]}], "formatted_address": "7146 S Braden Ave # 300, Tulsa, OK 74136, USA", "geometry": {"location": {"lat": 36.058884, "lng": -95.920969}, "location_type": "ROOFTOP", "viewport": {"northeast": {"lat": 36.0602329802915, "lng": -95.9196200197085}, "southwest": {"lat": 36.0575350197085, "lng": -95.92231798029151}}}, "place_id": "ChIJgRQia0KStocRrKmL9tIZgkE", "types": ["establishment", "general_contractor", "point_of_interest"]}]}, "173498003": {"AfN": "parc", "Location": [{"address_components": [{"long_name": "6006", "short_name": "6006", "types": ["street_number"]}, {"long_name": "East Adams Boulevard", "short_name": "E Adams Blvd", "types": ["route"]}, {"long_name": "Bartlesville", "short_name": "Bartlesville", "types": ["locality", "political"]}, {"long_name": "Washington County", "short_name": "Washington County", "types": ["administrative_area_level_2", "political"]}, {"long_name": "Oklahoma", "short_name": "OK", "types": ["administrative_area_level_1", "political"]}, {"long_name": "United States", "short_name": "US", "types": ["country", "political"]}, {"long_name": "74006", "short_name": "74006", "types": ["postal_code"]}], "formatted_address": "6006 E Adams Blvd, Bartlesville, OK 74006, USA", "geometry": {"location": {"lat": 36.7424718, "lng": -95.888342}, "location_type": "ROOFTOP", "viewport": {"northeast": {"lat": 36.7438207802915, "lng": -95.8869930197085}, "southwest": {"lat": 36.7411228197085, "lng": -95.8896909802915}}}, "place_id": "ChIJG30unPINt4cR2c5TRvvrz6A", "types": ["establishment", "health", "point_of_interest"]}]}, "197681013": {"AfN": "paris 12 val de marne university", "Location": [{"address_components": [{"long_name": "61", "short_name": "61", "types": ["street_number"]}, {"long_name": "Avenue du G\u00e9n\u00e9ral de Gaulle", "short_name": "Avenue du G\u00e9n\u00e9ral de Gaulle", "types": ["route"]}, {"long_name": "Cr\u00e9teil", "short_name": "Cr\u00e9teil", "types": ["locality", "political"]}, {"long_name": "Val-de-Marne", "short_name": "Val-de-Marne", "types": ["administrative_area_level_2", "political"]}, {"long_name": "\u00cele-de-France", "short_name": "\u00cele-de-France", "types": ["administrative_area_level_1", "political"]}, {"long_name": "France", "short_name": "FR", "types": ["country", "political"]}, {"long_name": "94000", "short_name": "94000", "types": ["postal_code"]}], "formatted_address": "61 Avenue du G\u00e9n\u00e9ral de Gaulle, 94000 Cr\u00e9teil, France", "geometry": {"location": {"lat": 48.7881698, "lng": 2.4440992}, "location_type": "ROOFTOP", "viewport": {"northeast": {"lat": 48.7895187802915, "lng": 2.445448180291502}, "southwest": {"lat": 48.7868208197085, "lng": 2.442750219708498}}}, "place_id": "ChIJ9bvMoID65UcRjzwwG8EcKgY", "types": ["establishment", "point_of_interest", "university"]}]}, "56435720": {"AfN": "paris dauphine university", "Location": [{"address_components": [{"long_name": "Place du Mar\u00e9chal de Lattre de Tassigny", "short_name": "Place du Mar\u00e9chal de Lattre de Tassigny", "types": ["route"]}, {"long_name": "Paris", "short_name": "Paris", "types": ["locality", "political"]}, {"long_name": "Paris", "short_name": "Paris", "types": ["administrative_area_level_2", "political"]}, {"long_name": "\u00cele-de-France", "short_name": "\u00cele-de-France", "types": ["administrative_area_level_1", "political"]}, {"long_name": "France", "short_name": "FR", "types": ["country", "political"]}, {"long_name": "75016", "short_name": "75016", "types": ["postal_code"]}], "formatted_address": "Place du Mar\u00e9chal de Lattre de Tassigny, 75016 Paris, France", "geometry": {"location": {"lat": 48.870029, "lng": 2.273451}, "location_type": "GEOMETRIC_CENTER", "viewport": {"northeast": {"lat": 48.87137798029149, "lng": 2.274799980291502}, "southwest": {"lat": 48.86868001970849, "lng": 2.272102019708498}}}, "place_id": "ChIJt1DSIlll5kcRg56slfq0kzM", "types": ["establishment", "point_of_interest", "university"]}]}, "110736937": {"AfN": "paris descartes university", "Location": [{"address_components": [{"long_name": "12", "short_name": "12", "types": ["street_number"]}, {"long_name": "Rue de l'\u00c9cole de M\u00e9decine", "short_name": "Rue de l'\u00c9cole de M\u00e9decine", "types": ["route"]}, {"long_name": "Paris", "short_name": "Paris", "types": ["locality", "political"]}, {"long_name": "Paris", "short_name": "Paris", "types": ["administrative_area_level_2", "political"]}, {"long_name": "\u00cele-de-France", "short_name": "\u00cele-de-France", "types": ["administrative_area_level_1", "political"]}, {"long_name": "France", "short_name": "FR", "types": ["country", "political"]}, {"long_name": "75006", "short_name": "75006", "types": ["postal_code"]}], "formatted_address": "12 Rue de l'\u00c9cole de M\u00e9decine, 75006 Paris, France", "geometry": {"location": {"lat": 48.851251, "lng": 2.340761}, "location_type": "ROOFTOP", "viewport": {"northeast": {"lat": 48.8525999802915, "lng": 2.342109980291502}, "southwest": {"lat": 48.8499020197085, "lng": 2.339412019708498}}}, "place_id": "ChIJdYTML9xx5kcRB4xwGzX0Ao0", "types": ["establishment", "point_of_interest", "university"]}]}, "169173203": {"AfN": "paris diderot university", "Location": [{"address_components": [{"long_name": "5", "short_name": "5", "types": ["street_number"]}, {"long_name": "Rue Thomas Mann", "short_name": "Rue Thomas Mann", "types": ["route"]}, {"long_name": "Paris", "short_name": "Paris", "types": ["locality", "political"]}, {"long_name": "Paris", "short_name": "Paris", "types": ["administrative_area_level_2", "political"]}, {"long_name": "\u00cele-de-France", "short_name": "\u00cele-de-France", "types": ["administrative_area_level_1", "political"]}, {"long_name": "France", "short_name": "FR", "types": ["country", "political"]}, {"long_name": "75013", "short_name": "75013", "types": ["postal_code"]}], "formatted_address": "5 Rue Thomas Mann, 75013 Paris, France", "geometry": {"location": {"lat": 48.82931869999999, "lng": 2.3817936}, "location_type": "ROOFTOP", "viewport": {"northeast": {"lat": 48.83066768029149, "lng": 2.383142580291502}, "southwest": {"lat": 48.8279697197085, "lng": 2.380444619708499}}}, "place_id": "ChIJSaRspQZy5kcRsJLL_mMMCF4", "types": ["establishment", "point_of_interest", "university"]}]}, "57995698": {"AfN": "paris school of economics", "Location": [{"address_components": [{"long_name": "48", "short_name": "48", "types": ["street_number"]}, {"long_name": "Boulevard Jourdan", "short_name": "Boulevard Jourdan", "types": ["route"]}, {"long_name": "Paris", "short_name": "Paris", "types": ["locality", "political"]}, {"long_name": "Paris", "short_name": "Paris", "types": ["administrative_area_level_2", "political"]}, {"long_name": "\u00cele-de-France", "short_name": "\u00cele-de-France", "types": ["administrative_area_level_1", "political"]}, {"long_name": "France", "short_name": "FR", "types": ["country", "political"]}, {"long_name": "75014", "short_name": "75014", "types": ["postal_code"]}], "formatted_address": "48 Boulevard Jourdan, 75014 Paris, France", "geometry": {"location": {"lat": 48.8224495, "lng": 2.3308821}, "location_type": "ROOFTOP", "viewport": {"northeast": {"lat": 48.82379848029151, "lng": 2.332231080291502}, "southwest": {"lat": 48.82110051970851, "lng": 2.329533119708499}}}, "place_id": "ChIJnz9dL6Rx5kcRuGeyQjCN9HM", "types": ["establishment", "point_of_interest", "university"]}]}, "220871436": {"AfN": "paris sorbonne university", "Location": [{"address_components": [{"long_name": "Paris", "short_name": "Paris", "types": ["locality", "political"]}, {"long_name": "Paris", "short_name": "Paris", "types": ["administrative_area_level_2", "political"]}, {"long_name": "\u00cele-de-France", "short_name": "\u00cele-de-France", "types": ["administrative_area_level_1", "political"]}, {"long_name": "France", "short_name": "FR", "types": ["country", "political"]}, {"long_name": "75005", "short_name": "75005", "types": ["postal_code"]}], "formatted_address": "75005 Paris, France", "geometry": {"location": {"lat": 48.8484556, "lng": 2.3432774}, "location_type": "GEOMETRIC_CENTER", "viewport": {"northeast": {"lat": 48.8498045802915, "lng": 2.344626380291502}, "southwest": {"lat": 48.8471066197085, "lng": 2.341928419708498}}}, "place_id": "ChIJEx1hct1x5kcR8cYrn0H-GkQ", "types": ["establishment", "point_of_interest", "university"]}]}, "190752583": {"AfN": "paristech", "Location": [{"address_components": [{"long_name": "37", "short_name": "37", "types": ["street_number"]}, {"long_name": "Rue Dareau", "short_name": "Rue Dareau", "types": ["route"]}, {"long_name": "Paris", "short_name": "Paris", "types": ["locality", "political"]}, {"long_name": "Paris", "short_name": "Paris", "types": ["administrative_area_level_2", "political"]}, {"long_name": "\u00cele-de-France", "short_name": "\u00cele-de-France", "types": ["administrative_area_level_1", "political"]}, {"long_name": "France", "short_name": "FR", "types": ["country", "political"]}, {"long_name": "75014", "short_name": "75014", "types": ["postal_code"]}], "formatted_address": "37 Rue Dareau, 75014 Paris, France", "geometry": {"location": {"lat": 48.8303135, "lng": 2.3358107}, "location_type": "ROOFTOP", "viewport": {"northeast": {"lat": 48.8316624802915, "lng": 2.337159680291502}, "southwest": {"lat": 48.8289645197085, "lng": 2.334461719708498}}}, "place_id": "ChIJZTVp77tx5kcRdG39OD2Z8jM", "types": ["establishment", "point_of_interest", "school"]}]}, "4179309": {"AfN": "park university", "Location": [{"address_components": [{"long_name": "8700", "short_name": "8700", "types": ["street_number"]}, {"long_name": "Northwest River Park Drive", "short_name": "NW River Park Dr", "types": ["route"]}, {"long_name": "Parkville", "short_name": "Parkville", "types": ["locality", "political"]}, {"long_name": "Sioux Township", "short_name": "Sioux Township", "types": ["administrative_area_level_3", "political"]}, {"long_name": "Platte County", "short_name": "Platte County", "types": ["administrative_area_level_2", "political"]}, {"long_name": "Missouri", "short_name": "MO", "types": ["administrative_area_level_1", "political"]}, {"long_name": "United States", "short_name": "US", "types": ["country", "political"]}, {"long_name": "64152", "short_name": "64152", "types": ["postal_code"]}], "formatted_address": "8700 NW River Park Dr, Parkville, MO 64152, USA", "geometry": {"location": {"lat": 39.19082179999999, "lng": -94.6772599}, "location_type": "ROOFTOP", "viewport": {"northeast": {"lat": 39.1921707802915, "lng": -94.67591091970849}, "southwest": {"lat": 39.1894728197085, "lng": -94.6786088802915}}}, "place_id": "ChIJt7EsC671wIcRUPjGMJ2eZlE", "types": ["establishment", "point_of_interest", "university"]}]}, "4531280": {"AfN": "parke davis", "Location": [{"address_components": [{"long_name": "605", "short_name": "605", "types": ["street_number"]}, {"long_name": "Crescent Executive Court", "short_name": "Crescent Executive Ct", "types": ["route"]}, {"long_name": "Lake Mary", "short_name": "Lake Mary", "types": ["locality", "political"]}, {"long_name": "Seminole County", "short_name": "Seminole County", "types": ["administrative_area_level_2", "political"]}, {"long_name": "Florida", "short_name": "FL", "types": ["administrative_area_level_1", "political"]}, {"long_name": "United States", "short_name": "US", "types": ["country", "political"]}, {"long_name": "32746", "short_name": "32746", "types": ["postal_code"]}, {"long_name": "2100", "short_name": "2100", "types": ["postal_code_suffix"]}], "formatted_address": "605 Crescent Executive Ct, Lake Mary, FL 32746, USA", "geometry": {"location": {"lat": 28.7619409, "lng": -81.3575202}, "location_type": "ROOFTOP", "viewport": {"northeast": {"lat": 28.7632898802915, "lng": -81.3561712197085}, "southwest": {"lat": 28.7605919197085, "lng": -81.3588691802915}}}, "place_id": "ChIJJ3Blv7Zy54gRWdIKXmgJXgg", "types": ["establishment", "health", "point_of_interest"]}]}, "1331281098": {"AfN": "parker h petit institute for bioengineering bioscience", "Location": [{"address_components": [{"long_name": "315", "short_name": "315", "types": ["street_number"]}, {"long_name": "Ferst Drive Northwest", "short_name": "Ferst Dr NW", "types": ["route"]}, {"long_name": "Georgia Tech", "short_name": "Georgia Tech", "types": ["neighborhood", "political"]}, {"long_name": "Atlanta", "short_name": "Atlanta", "types": ["locality", "political"]}, {"long_name": "Fulton County", "short_name": "Fulton County", "types": ["administrative_area_level_2", "political"]}, {"long_name": "Georgia", "short_name": "GA", "types": ["administrative_area_level_1", "political"]}, {"long_name": "United States", "short_name": "US", "types": ["country", "political"]}, {"long_name": "30332", "short_name": "30332", "types": ["postal_code"]}], "formatted_address": "315 Ferst Dr NW, Atlanta, GA 30332, USA", "geometry": {"location": {"lat": 33.7789006, "lng": -84.39707829999999}, "location_type": "ROOFTOP", "viewport": {"northeast": {"lat": 33.7802495802915, "lng": -84.3957293197085}, "southwest": {"lat": 33.7775516197085, "lng": -84.3984272802915}}}, "place_id": "ChIJtccwfYoE9YgRnXJTHodAVoo", "types": ["establishment", "point_of_interest"]}]}, "98555331": {"AfN": "parker hannifin", "Location": [{"address_components": [{"long_name": "220", "short_name": "220", "types": ["street_number"]}, {"long_name": "Roberts Cut Off Road", "short_name": "Roberts Cut Off Rd", "types": ["route"]}, {"long_name": "Fort Worth", "short_name": "Fort Worth", "types": ["locality", "political"]}, {"long_name": "Tarrant County", "short_name": "Tarrant County", "types": ["administrative_area_level_2", "political"]}, {"long_name": "Texas", "short_name": "TX", "types": ["administrative_area_level_1", "political"]}, {"long_name": "United States", "short_name": "US", "types": ["country", "political"]}, {"long_name": "76114", "short_name": "76114", "types": ["postal_code"]}, {"long_name": "3605", "short_name": "3605", "types": ["postal_code_suffix"]}], "formatted_address": "220 Roberts Cut Off Rd, Fort Worth, TX 76114, USA", "geometry": {"location": {"lat": 32.7631826, "lng": -97.3996535}, "location_type": "ROOFTOP", "viewport": {"northeast": {"lat": 32.7645315802915, "lng": -97.39830451970849}, "southwest": {"lat": 32.7618336197085, "lng": -97.40100248029151}}}, "place_id": "ChIJ7dNVZnlzToYR4N6kV16OxBw", "types": ["establishment", "point_of_interest"]}]}, "1284037270": {"AfN": "parkland memorial hospital", "Location": [{"address_components": [{"long_name": "5200", "short_name": "5200", "types": ["street_number"]}, {"long_name": "Harry Hines Boulevard", "short_name": "Harry Hines Blvd", "types": ["route"]}, {"long_name": "Dallas", "short_name": "Dallas", "types": ["locality", "political"]}, {"long_name": "Dallas County", "short_name": "Dallas County", "types": ["administrative_area_level_2", "political"]}, {"long_name": "Texas", "short_name": "TX", "types": ["administrative_area_level_1", "political"]}, {"long_name": "United States", "short_name": "US", "types": ["country", "political"]}, {"long_name": "75235", "short_name": "75235", "types": ["postal_code"]}], "formatted_address": "5200 Harry Hines Blvd, Dallas, TX 75235, USA", "geometry": {"location": {"lat": 32.813016, "lng": -96.8354201}, "location_type": "ROOFTOP", "viewport": {"northeast": {"lat": 32.8143649802915, "lng": -96.8340711197085}, "southwest": {"lat": 32.8116670197085, "lng": -96.8367690802915}}}, "place_id": "ChIJeb-DqAOcToYRgvAhBWutcCY", "types": ["establishment", "hospital", "point_of_interest"]}]}, "125932930": {"AfN": "parks canada", "Location": [{"address_components": [{"long_name": "Parks Canada Agency", "short_name": "Parks Canada Agency", "types": ["establishment", "park", "point_of_interest"]}, {"long_name": "30", "short_name": "30", "types": ["street_number"]}, {"long_name": "Rue Victoria", "short_name": "Rue Victoria", "types": ["route"]}, {"long_name": "Hull", "short_name": "Hull", "types": ["political", "sublocality", "sublocality_level_1"]}, {"long_name": "Gatineau", "short_name": "Gatineau", "types": ["locality", "political"]}, {"long_name": "Communaut\u00e9-Urbaine-de-l'Outaouais", "short_name": "Communaut\u00e9-Urbaine-de-l'Outaouais", "types": ["administrative_area_level_2", "political"]}, {"long_name": "Qu\u00e9bec", "short_name": "QC", "types": ["administrative_area_level_1", "political"]}, {"long_name": "Canada", "short_name": "CA", "types": ["country", "political"]}, {"long_name": "J8X 0B3", "short_name": "J8X 0B3", "types": ["postal_code"]}], "formatted_address": "Parks Canada Agency, 30 Rue Victoria, Gatineau, QC J8X 0B3, Canada", "geometry": {"location": {"lat": 45.4283895, "lng": -75.7144423}, "location_type": "ROOFTOP", "viewport": {"northeast": {"lat": 45.4297384802915, "lng": -75.71309331970849}, "southwest": {"lat": 45.42704051970851, "lng": -75.7157912802915}}}, "place_id": "ChIJcZPz-18EzkwR4U572L6pmoQ", "types": ["establishment", "park", "point_of_interest"]}]}, "1306324498": {"AfN": "parsons brinckerhoff", "Location": [{"address_components": [{"long_name": "# 350", "short_name": "# 350", "types": ["subpremise"]}, {"long_name": "225", "short_name": "225", "types": ["street_number"]}, {"long_name": "North Market Street", "short_name": "N Market St", "types": ["route"]}, {"long_name": "Wichita", "short_name": "Wichita", "types": ["locality", "political"]}, {"long_name": "Sedgwick County", "short_name": "Sedgwick County", "types": ["administrative_area_level_2", "political"]}, {"long_name": "Kansas", "short_name": "KS", "types": ["administrative_area_level_1", "political"]}, {"long_name": "United States", "short_name": "US", "types": ["country", "political"]}, {"long_name": "67202", "short_name": "67202", "types": ["postal_code"]}, {"long_name": "2028", "short_name": "2028", "types": ["postal_code_suffix"]}], "formatted_address": "225 N Market St # 350, Wichita, KS 67202, USA", "geometry": {"location": {"lat": 37.688946, "lng": -97.33724099999999}, "location_type": "ROOFTOP", "viewport": {"northeast": {"lat": 37.6902949802915, "lng": -97.3358920197085}, "southwest": {"lat": 37.68759701970851, "lng": -97.3385899802915}}}, "place_id": "ChIJ-5XrTsLjuocR2aA0DEBtlsM", "types": ["establishment", "point_of_interest"]}]}, "1320675724": {"AfN": "parsons corporation", "Location": [{"address_components": [{"long_name": "2200", "short_name": "2200", "types": ["street_number"]}, {"long_name": "West Loop South Freeway", "short_name": "West Loop S", "types": ["route"]}, {"long_name": "Houston", "short_name": "Houston", "types": ["locality", "political"]}, {"long_name": "Texas", "short_name": "TX", "types": ["administrative_area_level_1", "political"]}, {"long_name": "United States", "short_name": "US", "types": ["country", "political"]}, {"long_name": "77027", "short_name": "77027", "types": ["postal_code"]}, {"long_name": "3247", "short_name": "3247", "types": ["postal_code_suffix"]}], "formatted_address": "2200 West Loop South, Suite 200, Houston, TX 77027, 2200 West Loop S, Houston, TX 77027, United States", "geometry": {"location": {"lat": 29.7448633, "lng": -95.45812199999999}, "location_type": "ROOFTOP", "viewport": {"northeast": {"lat": 29.7462122802915, "lng": -95.45677301970849}, "southwest": {"lat": 29.7435143197085, "lng": -95.4594709802915}}}, "place_id": "ChIJpVsrD0DBQIYRKbkjKMtyMq8", "types": ["establishment", "point_of_interest"]}]}, "113760565": {"AfN": "particle physics and astronomy research council", "Location": [{"address_components": [{"long_name": "70", "short_name": "70", "types": ["street_number"]}, {"long_name": "Calle \u00c1lvarez de Abreu", "short_name": "Calle \u00c1lvarez de Abreu", "types": ["route"]}, {"long_name": "Santa Cruz de la Palma", "short_name": "Santa Cruz de la Palma", "types": ["locality", "political"]}, {"long_name": "Santa Cruz de Tenerife", "short_name": "TF", "types": ["administrative_area_level_2", "political"]}, {"long_name": "Canarias", "short_name": "CN", "types": ["administrative_area_level_1", "political"]}, {"long_name": "Spain", "short_name": "ES", "types": ["country", "political"]}, {"long_name": "38700", "short_name": "38700", "types": ["postal_code"]}], "formatted_address": "Calle \u00c1lvarez de Abreu, 70, 38700 Santa Cruz de la Palma, Santa Cruz de Tenerife, Spain", "geometry": {"location": {"lat": 28.6812099, "lng": -17.7664401}, "location_type": "ROOFTOP", "viewport": {"northeast": {"lat": 28.6825588802915, "lng": -17.7650911197085}, "southwest": {"lat": 28.6798609197085, "lng": -17.7677890802915}}}, "place_id": "ChIJB5AvKgfsawwR58D6nwBn9bg", "types": ["establishment", "point_of_interest"]}]}, "48633490": {"AfN": "partners healthcare", "Location": [{"address_components": [{"long_name": "800", "short_name": "800", "types": ["street_number"]}, {"long_name": "Boylston Street", "short_name": "Boylston St", "types": ["route"]}, {"long_name": "Prudential / St. Botolph", "short_name": "Prudential / St. Botolph", "types": ["neighborhood", "political"]}, {"long_name": "Boston", "short_name": "Boston", "types": ["locality", "political"]}, {"long_name": "Suffolk County", "short_name": "Suffolk County", "types": ["administrative_area_level_2", "political"]}, {"long_name": "Massachusetts", "short_name": "MA", "types": ["administrative_area_level_1", "political"]}, {"long_name": "United States", "short_name": "US", "types": ["country", "political"]}, {"long_name": "02199", "short_name": "02199", "types": ["postal_code"]}], "formatted_address": "800 Boylston St, Boston, MA 02199, USA", "geometry": {"location": {"lat": 42.3473046, "lng": -71.0819042}, "location_type": "ROOFTOP", "viewport": {"northeast": {"lat": 42.3486535802915, "lng": -71.08055521970849}, "southwest": {"lat": 42.3459556197085, "lng": -71.0832531802915}}}, "place_id": "ChIJJawYr_dw44kRiWeIOKyTIq0", "types": ["establishment", "point_of_interest"]}]}, "129364015": {"AfN": "partners in health", "Location": [{"address_components": [{"long_name": "104", "short_name": "104", "types": ["subpremise"]}, {"long_name": "3520", "short_name": "3520", "types": ["street_number"]}, {"long_name": "W 92nd Ave", "short_name": "W 92nd Ave", "types": ["route"]}, {"long_name": "Shaw Heights", "short_name": "Shaw Heights", "types": ["neighborhood", "political"]}, {"long_name": "Westminster", "short_name": "Westminster", "types": ["locality", "political"]}, {"long_name": "Adams County", "short_name": "Adams County", "types": ["administrative_area_level_2", "political"]}, {"long_name": "Colorado", "short_name": "CO", "types": ["administrative_area_level_1", "political"]}, {"long_name": "United States", "short_name": "US", "types": ["country", "political"]}, {"long_name": "80031", "short_name": "80031", "types": ["postal_code"]}, {"long_name": "3304", "short_name": "3304", "types": ["postal_code_suffix"]}], "formatted_address": "3520 W 92nd Ave #104, Westminster, CO 80031, USA", "geometry": {"location": {"lat": 39.8630358, "lng": -105.0332181}, "location_type": "ROOFTOP", "viewport": {"northeast": {"lat": 39.8643847802915, "lng": -105.0318691197085}, "southwest": {"lat": 39.8616868197085, "lng": -105.0345670802915}}}, "place_id": "ChIJw-F-HdiJa4cRACyn_sG9xzc", "types": ["establishment", "health", "point_of_interest"]}]}, "109301148": {"AfN": "pasadena city college", "Location": [{"address_components": [{"long_name": "1570", "short_name": "1570", "types": ["street_number"]}, {"long_name": "East Colorado Boulevard", "short_name": "E Colorado Blvd", "types": ["route"]}, {"long_name": "Pasadena", "short_name": "Pasadena", "types": ["locality", "political"]}, {"long_name": "Los Angeles County", "short_name": "Los Angeles County", "types": ["administrative_area_level_2", "political"]}, {"long_name": "California", "short_name": "CA", "types": ["administrative_area_level_1", "political"]}, {"long_name": "United States", "short_name": "US", "types": ["country", "political"]}, {"long_name": "91106", "short_name": "91106", "types": ["postal_code"]}], "formatted_address": "1570 E Colorado Blvd, Pasadena, CA 91106, USA", "geometry": {"location": {"lat": 34.1438126, "lng": -118.1181603}, "location_type": "ROOFTOP", "viewport": {"northeast": {"lat": 34.1451615802915, "lng": -118.1168113197085}, "southwest": {"lat": 34.1424636197085, "lng": -118.1195092802915}}}, "place_id": "ChIJbT2TV1HDwoAR98MKm-GMYt4", "types": ["establishment", "point_of_interest", "university"]}]}, "157536573": {"AfN": "pasteur institute", "Location": [{"address_components": [{"long_name": "25-28", "short_name": "25-28", "types": ["street_number"]}, {"long_name": "Rue du Docteur Roux", "short_name": "Rue du Dr Roux", "types": ["route"]}, {"long_name": "Paris", "short_name": "Paris", "types": ["locality", "political"]}, {"long_name": "Paris", "short_name": "Paris", "types": ["administrative_area_level_2", "political"]}, {"long_name": "\u00cele-de-France", "short_name": "\u00cele-de-France", "types": ["administrative_area_level_1", "political"]}, {"long_name": "France", "short_name": "FR", "types": ["country", "political"]}, {"long_name": "75015", "short_name": "75015", "types": ["postal_code"]}], "formatted_address": "25-28 Rue du Dr Roux, 75015 Paris, France", "geometry": {"location": {"lat": 48.8403734, "lng": 2.3112488}, "location_type": "ROOFTOP", "viewport": {"northeast": {"lat": 48.8417223802915, "lng": 2.312597780291502}, "southwest": {"lat": 48.8390244197085, "lng": 2.309899819708498}}}, "place_id": "ChIJW0u_ajdw5kcRVYb2EH0nMeg", "types": ["establishment", "health", "point_of_interest"]}]}, "1301411061": {"AfN": "pasteur institute of iran", "Location": [{"address_components": [{"long_name": "12 Farvardin Street", "short_name": "12 Farvardin St", "types": ["route"]}, {"long_name": "Tehran", "short_name": "Tehran", "types": ["locality", "political"]}, {"long_name": "Tehran", "short_name": "Tehran", "types": ["administrative_area_level_2", "political"]}, {"long_name": "Tehran Province", "short_name": "Tehran Province", "types": ["administrative_area_level_1", "political"]}, {"long_name": "Iran", "short_name": "IR", "types": ["country", "political"]}], "formatted_address": "Tehran Province, Tehran, 12 Farvardin St, Iran", "geometry": {"location": {"lat": 35.6917519, "lng": 51.3953386}, "location_type": "GEOMETRIC_CENTER", "viewport": {"northeast": {"lat": 35.6931008802915, "lng": 51.3966875802915}, "southwest": {"lat": 35.6904029197085, "lng": 51.3939896197085}}}, "place_id": "ChIJh0Q2yqkBjj8Rw_zdmKUk6f8", "types": ["establishment", "point_of_interest"]}]}, "1304598786": {"AfN": "path", "Location": [{"address_components": [{"long_name": "# 2A", "short_name": "# 2A", "types": ["subpremise"]}, {"long_name": "201", "short_name": "201", "types": ["street_number"]}, {"long_name": "East Grove Street", "short_name": "E Grove St", "types": ["route"]}, {"long_name": "Bloomington", "short_name": "Bloomington", "types": ["locality", "political"]}, {"long_name": "McLean County", "short_name": "McLean County", "types": ["administrative_area_level_2", "political"]}, {"long_name": "Illinois", "short_name": "IL", "types": ["administrative_area_level_1", "political"]}, {"long_name": "United States", "short_name": "US", "types": ["country", "political"]}, {"long_name": "61701", "short_name": "61701", "types": ["postal_code"]}, {"long_name": "5258", "short_name": "5258", "types": ["postal_code_suffix"]}], "formatted_address": "201 E Grove St # 2A, Bloomington, IL 61701, USA", "geometry": {"location": {"lat": 40.4776271, "lng": -88.9922538}, "location_type": "ROOFTOP", "viewport": {"northeast": {"lat": 40.4789760802915, "lng": -88.99090481970849}, "southwest": {"lat": 40.4762781197085, "lng": -88.9936027802915}}}, "place_id": "ChIJfwtvMttxC4gRK0hCJoxTi_o", "types": ["establishment", "point_of_interest"]}]}, "320671016": {"AfN": "patient centered outcomes research institute", "Location": [{"address_components": [{"long_name": "1828", "short_name": "1828", "types": ["street_number"]}, {"long_name": "L Street Northwest", "short_name": "L St NW", "types": ["route"]}, {"long_name": "Downtown", "short_name": "Downtown", "types": ["neighborhood", "political"]}, {"long_name": "Washington", "short_name": "Washington", "types": ["locality", "political"]}, {"long_name": "District of Columbia", "short_name": "DC", "types": ["administrative_area_level_1", "political"]}, {"long_name": "United States", "short_name": "US", "types": ["country", "political"]}, {"long_name": "20036", "short_name": "20036", "types": ["postal_code"]}], "formatted_address": "1828 L St NW, Washington, DC 20036, USA", "geometry": {"location": {"lat": 38.9034655, "lng": -77.04296049999999}, "location_type": "ROOFTOP", "viewport": {"northeast": {"lat": 38.9048144802915, "lng": -77.04161151970848}, "southwest": {"lat": 38.9021165197085, "lng": -77.0443094802915}}}, "place_id": "ChIJ92Ilnbu3t4kRsAISWFBLuZI", "types": ["establishment", "point_of_interest"]}]}, "81312786": {"AfN": "patrick", "Location": [{"address_components": [{"long_name": "3976", "short_name": "3976", "types": ["street_number"]}, {"long_name": "Elm Springs Road", "short_name": "Elm Springs Rd", "types": ["route"]}, {"long_name": "Springdale", "short_name": "Springdale", "types": ["locality", "political"]}, {"long_name": "Springdale Township", "short_name": "Springdale Township", "types": ["administrative_area_level_3", "political"]}, {"long_name": "Washington County", "short_name": "Washington County", "types": ["administrative_area_level_2", "political"]}, {"long_name": "Arkansas", "short_name": "AR", "types": ["administrative_area_level_1", "political"]}, {"long_name": "United States", "short_name": "US", "types": ["country", "political"]}, {"long_name": "72762", "short_name": "72762", "types": ["postal_code"]}], "formatted_address": "3976 Elm Springs Rd, Springdale, AR 72762, USA", "geometry": {"location": {"lat": 36.1934719, "lng": -94.17397}, "location_type": "ROOFTOP", "viewport": {"northeast": {"lat": 36.19482088029149, "lng": -94.17262101970849}, "southwest": {"lat": 36.1921229197085, "lng": -94.1753189802915}}}, "place_id": "ChIJpWFY-UoTyYcRGessRQNdK8o", "types": ["establishment", "food", "point_of_interest", "restaurant"]}]}, "1308294787": {"AfN": "patuxent wildlife research center", "Location": [{"address_components": [{"long_name": "Patuxent Wildlife Research Center", "short_name": "Patuxent Wildlife Research Center", "types": ["establishment", "park", "point_of_interest"]}, {"long_name": "12311", "short_name": "12311", "types": ["street_number"]}, {"long_name": "Beech Forest Road", "short_name": "Beech Forest Rd", "types": ["route"]}, {"long_name": "Laurel", "short_name": "Laurel", "types": ["locality", "political"]}, {"long_name": "10, Laurel", "short_name": "10, Laurel", "types": ["administrative_area_level_3", "political"]}, {"long_name": "Prince George's County", "short_name": "Prince George's County", "types": ["administrative_area_level_2", "political"]}, {"long_name": "Maryland", "short_name": "MD", "types": ["administrative_area_level_1", "political"]}, {"long_name": "United States", "short_name": "US", "types": ["country", "political"]}, {"long_name": "20708", "short_name": "20708", "types": ["postal_code"]}, {"long_name": "4009", "short_name": "4009", "types": ["postal_code_suffix"]}], "formatted_address": "Patuxent Wildlife Research Center, 12311 Beech Forest Rd, Laurel, MD 20708, USA", "geometry": {"location": {"lat": 39.0543179, "lng": -76.8170071}, "location_type": "ROOFTOP", "viewport": {"northeast": {"lat": 39.0556668802915, "lng": -76.8156581197085}, "southwest": {"lat": 39.0529689197085, "lng": -76.81835608029151}}}, "place_id": "ChIJw9pphBzot4kRqDE_WKZ3-co", "types": ["establishment", "park", "point_of_interest"]}]}, "884002606": {"AfN": "paul ehrlich institute", "Location": [{"address_components": [{"long_name": "51-59", "short_name": "51-59", "types": ["street_number"]}, {"long_name": "Paul-Ehrlich-Stra\u00dfe", "short_name": "Paul-Ehrlich-Stra\u00dfe", "types": ["route"]}, {"long_name": "Langen (Hessen)", "short_name": "Langen (Hessen)", "types": ["locality", "political"]}, {"long_name": "Offenbach", "short_name": "Offenbach", "types": ["administrative_area_level_3", "political"]}, {"long_name": "Darmstadt", "short_name": "DA", "types": ["administrative_area_level_2", "political"]}, {"long_name": "Hessen", "short_name": "HE", "types": ["administrative_area_level_1", "political"]}, {"long_name": "Germany", "short_name": "DE", "types": ["country", "political"]}, {"long_name": "63225", "short_name": "63225", "types": ["postal_code"]}], "formatted_address": "Paul-Ehrlich-Stra\u00dfe 51-59, 63225 Langen (Hessen), Germany", "geometry": {"location": {"lat": 50.00548939999999, "lng": 8.649948199999999}, "location_type": "ROOFTOP", "viewport": {"northeast": {"lat": 50.0068383802915, "lng": 8.651297180291502}, "southwest": {"lat": 50.0041404197085, "lng": 8.648599219708498}}}, "place_id": "ChIJQZt_tEJzvUcRJ22IeU60HjA", "types": ["establishment", "point_of_interest"]}]}, "134560555": {"AfN": "paul sabatier university", "Location": [{"address_components": [{"long_name": "Route de Narbonne", "short_name": "Route de Narbonne", "types": ["route"]}, {"long_name": "Toulouse", "short_name": "Toulouse", "types": ["locality", "political"]}, {"long_name": "Haute-Garonne", "short_name": "Haute-Garonne", "types": ["administrative_area_level_2", "political"]}, {"long_name": "Occitanie", "short_name": "Occitanie", "types": ["administrative_area_level_1", "political"]}, {"long_name": "France", "short_name": "FR", "types": ["country", "political"]}, {"long_name": "31330", "short_name": "31330", "types": ["postal_code"]}], "formatted_address": "Route de Narbonne, 31330 Toulouse, France", "geometry": {"location": {"lat": 43.5619687, "lng": 1.4700537}, "location_type": "GEOMETRIC_CENTER", "viewport": {"northeast": {"lat": 43.5633176802915, "lng": 1.471402680291502}, "southwest": {"lat": 43.5606197197085, "lng": 1.468704719708498}}}, "place_id": "ChIJyVSeITu8rhIRaGQ-9pEcoL8", "types": ["establishment", "point_of_interest", "university"]}]}, "158183117": {"AfN": "pdvsa", "Location": [{"address_components": [{"long_name": "11490", "short_name": "11490", "types": ["street_number"]}, {"long_name": "Westheimer Road", "short_name": "Westheimer Rd", "types": ["route"]}, {"long_name": "Briarforest", "short_name": "Briarforest", "types": ["neighborhood", "political"]}, {"long_name": "Houston", "short_name": "Houston", "types": ["locality", "political"]}, {"long_name": "Harris County", "short_name": "Harris County", "types": ["administrative_area_level_2", "political"]}, {"long_name": "Texas", "short_name": "TX", "types": ["administrative_area_level_1", "political"]}, {"long_name": "United States", "short_name": "US", "types": ["country", "political"]}, {"long_name": "77077", "short_name": "77077", "types": ["postal_code"]}, {"long_name": "6800", "short_name": "6800", "types": ["postal_code_suffix"]}], "formatted_address": "11490 Westheimer Rd, Houston, TX 77077, USA", "geometry": {"location": {"lat": 29.7371518, "lng": -95.58073429999999}, "location_type": "ROOFTOP", "viewport": {"northeast": {"lat": 29.7385007802915, "lng": -95.57938531970849}, "southwest": {"lat": 29.7358028197085, "lng": -95.5820832802915}}}, "place_id": "ChIJz6iXr8HcQIYRXpQREpQljT4", "types": ["establishment", "point_of_interest"]}]}, "90394297": {"AfN": "peabody college", "Location": [{"address_components": [{"long_name": "230", "short_name": "230", "types": ["street_number"]}, {"long_name": "Appleton Place", "short_name": "Appleton Pl", "types": ["route"]}, {"long_name": "Midtown", "short_name": "Midtown", "types": ["neighborhood", "political"]}, {"long_name": "Nashville", "short_name": "Nashville", "types": ["locality", "political"]}, {"long_name": "Davidson County", "short_name": "Davidson County", "types": ["administrative_area_level_2", "political"]}, {"long_name": "Tennessee", "short_name": "TN", "types": ["administrative_area_level_1", "political"]}, {"long_name": "United States", "short_name": "US", "types": ["country", "political"]}, {"long_name": "37203", "short_name": "37203", "types": ["postal_code"]}, {"long_name": "5721", "short_name": "5721", "types": ["postal_code_suffix"]}], "formatted_address": "230 Appleton Pl, Nashville, TN 37203, USA", "geometry": {"location": {"lat": 36.1434175, "lng": -86.7968662}, "location_type": "ROOFTOP", "viewport": {"northeast": {"lat": 36.1447664802915, "lng": -86.7955172197085}, "southwest": {"lat": 36.1420685197085, "lng": -86.7982151802915}}}, "place_id": "ChIJyYsJHppmZIgRf6sXbZkC79s", "types": ["establishment", "point_of_interest", "university"]}]}, "60419261": {"AfN": "peace research institute oslo", "Location": [{"address_components": [{"long_name": "3", "short_name": "3", "types": ["street_number"]}, {"long_name": "Hausmanns gate", "short_name": "Hausmanns gate", "types": ["route"]}, {"long_name": "Gr\u00fcnerl\u00f8kka", "short_name": "Gr\u00fcnerl\u00f8kka", "types": ["political", "sublocality", "sublocality_level_1"]}, {"long_name": "Oslo", "short_name": "Oslo", "types": ["postal_town"]}, {"long_name": "Oslo kommune", "short_name": "Oslo kommune", "types": ["administrative_area_level_2", "political"]}, {"long_name": "Oslo", "short_name": "Oslo", "types": ["administrative_area_level_1", "political"]}, {"long_name": "Norway", "short_name": "NO", "types": ["country", "political"]}, {"long_name": "0186", "short_name": "0186", "types": ["postal_code"]}], "formatted_address": "Hausmanns gate 3, 0186 Oslo, Norway", "geometry": {"location": {"lat": 59.91527429999999, "lng": 10.7584262}, "location_type": "ROOFTOP", "viewport": {"northeast": {"lat": 59.9166232802915, "lng": 10.7597751802915}, "southwest": {"lat": 59.91392531970849, "lng": 10.7570772197085}}}, "place_id": "ChIJv0oE52BuQUYRgap0KnTg2do", "types": ["establishment", "point_of_interest"]}]}, "1283104182": {"AfN": "pearson education", "Location": [{"address_components": [{"long_name": "2510", "short_name": "2510", "types": ["street_number"]}, {"long_name": "North Dodge Street", "short_name": "N Dodge St", "types": ["route"]}, {"long_name": "Shimek", "short_name": "Shimek", "types": ["neighborhood", "political"]}, {"long_name": "Iowa City", "short_name": "Iowa City", "types": ["locality", "political"]}, {"long_name": "Johnson County", "short_name": "Johnson County", "types": ["administrative_area_level_2", "political"]}, {"long_name": "Iowa", "short_name": "IA", "types": ["administrative_area_level_1", "political"]}, {"long_name": "United States", "short_name": "US", "types": ["country", "political"]}, {"long_name": "52245", "short_name": "52245", "types": ["postal_code"]}, {"long_name": "9555", "short_name": "9555", "types": ["postal_code_suffix"]}], "formatted_address": "2510 N Dodge St, Iowa City, IA 52245, USA", "geometry": {"location": {"lat": 41.6905131, "lng": -91.4993011}, "location_type": "ROOFTOP", "viewport": {"northeast": {"lat": 41.6918620802915, "lng": -91.4979521197085}, "southwest": {"lat": 41.6891641197085, "lng": -91.5006500802915}}}, "place_id": "ChIJzw7Te5Vp5IcR9KEhwwuZl90", "types": ["establishment", "point_of_interest"]}]}, "128556153": {"AfN": "peco energy company", "Location": [{"address_components": [{"long_name": "300", "short_name": "300", "types": ["street_number"]}, {"long_name": "Front Street", "short_name": "Front St", "types": ["route"]}, {"long_name": "Conshohocken", "short_name": "Conshohocken", "types": ["locality", "political"]}, {"long_name": "Montgomery County", "short_name": "Montgomery County", "types": ["administrative_area_level_2", "political"]}, {"long_name": "Pennsylvania", "short_name": "PA", "types": ["administrative_area_level_1", "political"]}, {"long_name": "United States", "short_name": "US", "types": ["country", "political"]}, {"long_name": "19428", "short_name": "19428", "types": ["postal_code"]}, {"long_name": "2723", "short_name": "2723", "types": ["postal_code_suffix"]}], "formatted_address": "300 Front St, Conshohocken, PA 19428, USA", "geometry": {"location": {"lat": 40.0758103, "lng": -75.3179664}, "location_type": "ROOFTOP", "viewport": {"northeast": {"lat": 40.0771592802915, "lng": -75.31661741970849}, "southwest": {"lat": 40.0744613197085, "lng": -75.3193153802915}}}, "place_id": "ChIJN8QPWz--xokRCsp3eCY82t0", "types": ["establishment", "point_of_interest"]}]}, "155627368": {"AfN": "pedagogical university", "Location": [{"address_components": [{"long_name": "1300", "short_name": "1300", "types": ["street_number"]}, {"long_name": "Burgos", "short_name": "Burgos", "types": ["route"]}, {"long_name": "Revoluci\u00f3n Obrera", "short_name": "Revoluci\u00f3n Obrera", "types": ["political", "sublocality", "sublocality_level_1"]}, {"long_name": "Reynosa", "short_name": "Reynosa", "types": ["locality", "political"]}, {"long_name": "Tamaulipas", "short_name": "Tamps.", "types": ["administrative_area_level_1", "political"]}, {"long_name": "Mexico", "short_name": "MX", "types": ["country", "political"]}, {"long_name": "88759", "short_name": "88759", "types": ["postal_code"]}], "formatted_address": "Burgos 1300, Revoluci\u00f3n Obrera, 88759 Reynosa, Tamps., Mexico", "geometry": {"location": {"lat": 26.049004, "lng": -98.30364499999999}, "location_type": "ROOFTOP", "viewport": {"northeast": {"lat": 26.0503529802915, "lng": -98.30229601970848}, "southwest": {"lat": 26.0476550197085, "lng": -98.3049939802915}}}, "place_id": "ChIJ7Zlcn3wPZYYRjT8mvmrj8rs", "types": ["establishment", "point_of_interest", "university"]}]}, "141950808": {"AfN": "pediatric oncology group", "Location": [{"address_components": [{"long_name": "Canada", "short_name": "CA", "types": ["country", "political"]}], "formatted_address": "480 University Avenue, Suite 1014, Toronto, ON M5G 1V2, Canada", "geometry": {"location": {"lat": 43.6550684, "lng": -79.38888539999999}, "location_type": "GEOMETRIC_CENTER", "viewport": {"northeast": {"lat": 43.6564173802915, "lng": -79.3875364197085}, "southwest": {"lat": 43.6537194197085, "lng": -79.3902343802915}}}, "place_id": "ChIJacwEKs80K4gRifqh0pz1_Wo", "types": ["establishment", "health", "point_of_interest"]}]}, "200296433": {"AfN": "peking union medical college", "Location": [{"address_components": [{"long_name": "9", "short_name": "9", "types": ["street_number"]}, {"long_name": "Dongdan 3rd Alley", "short_name": "Dongdan 3rd Alley", "types": ["route"]}, {"long_name": "DongDan", "short_name": "DongDan", "types": ["neighborhood", "political"]}, {"long_name": "Dongcheng Qu", "short_name": "Dongcheng Qu", "types": ["political", "sublocality", "sublocality_level_1"]}, {"long_name": "Beijing Shi", "short_name": "Beijing Shi", "types": ["administrative_area_level_1", "political"]}, {"long_name": "China", "short_name": "CN", "types": ["country", "political"]}, {"long_name": "100006", "short_name": "100006", "types": ["postal_code"]}], "formatted_address": "9 Dongdan 3rd Alley, DongDan, Dongcheng Qu, Beijing Shi, China, 100006", "geometry": {"location": {"lat": 39.911431, "lng": 116.41481}, "location_type": "ROOFTOP", "viewport": {"northeast": {"lat": 39.9127799802915, "lng": 116.4161589802915}, "southwest": {"lat": 39.9100820197085, "lng": 116.4134610197085}}}, "place_id": "ChIJP14aFcxS8DURFHqKeYtFHZc", "types": ["establishment", "point_of_interest", "university"]}, {"address_components": [{"long_name": "China", "short_name": "CN", "types": ["country", "political"]}, {"long_name": "Dongdan", "short_name": "Dongdan", "types": ["neighborhood", "political"]}, {"long_name": "Dongcheng", "short_name": "Dongcheng", "types": ["political", "sublocality", "sublocality_level_1"]}, {"long_name": "Beijing", "short_name": "Beijing", "types": ["administrative_area_level_1", "political"]}, {"long_name": "100006", "short_name": "100006", "types": ["postal_code"]}], "formatted_address": "Dongdan, Dongcheng, China, 100006", "geometry": {"location": {"lat": 39.912461, "lng": 116.417512}, "location_type": "GEOMETRIC_CENTER", "viewport": {"northeast": {"lat": 39.9138099802915, "lng": 116.4188609802915}, "southwest": {"lat": 39.9111120197085, "lng": 116.4161630197085}}}, "place_id": "ChIJsYI1euBP8DUR35wrOHrztLU", "types": ["establishment", "hospital", "point_of_interest"]}]}, "20231570": {"AfN": "peking university", "Location": [{"address_components": [{"long_name": "5", "short_name": "5", "types": ["street_number"]}, {"long_name": "Yiheyuan Road", "short_name": "Yiheyuan Rd", "types": ["route"]}, {"long_name": "Haidian Qu", "short_name": "Haidian Qu", "types": ["political", "sublocality", "sublocality_level_1"]}, {"long_name": "Beijing Shi", "short_name": "Beijing Shi", "types": ["administrative_area_level_1", "political"]}, {"long_name": "China", "short_name": "CN", "types": ["country", "political"]}, {"long_name": "100080", "short_name": "100080", "types": ["postal_code"]}], "formatted_address": "5 Yiheyuan Rd, Haidian Qu, Beijing Shi, China, 100080", "geometry": {"location": {"lat": 39.986913, "lng": 116.3058739}, "location_type": "ROOFTOP", "viewport": {"northeast": {"lat": 39.9882619802915, "lng": 116.3072228802915}, "southwest": {"lat": 39.98556401970851, "lng": 116.3045249197085}}}, "place_id": "ChIJdaICDUtR8DURywTKgdicwXs", "types": ["establishment", "point_of_interest", "university"]}]}, "1297381477": {"AfN": "pembina institute", "Location": [{"address_components": [{"long_name": "600", "short_name": "600", "types": ["subpremise"]}, {"long_name": "920", "short_name": "920", "types": ["street_number"]}, {"long_name": "Yonge Street", "short_name": "Yonge St", "types": ["route"]}, {"long_name": "Old Toronto", "short_name": "Old Toronto", "types": ["political", "sublocality", "sublocality_level_1"]}, {"long_name": "Toronto", "short_name": "Toronto", "types": ["locality", "political"]}, {"long_name": "Toronto Division", "short_name": "Toronto Division", "types": ["administrative_area_level_2", "political"]}, {"long_name": "Ontario", "short_name": "ON", "types": ["administrative_area_level_1", "political"]}, {"long_name": "Canada", "short_name": "CA", "types": ["country", "political"]}, {"long_name": "M4W 2J2", "short_name": "M4W 2J2", "types": ["postal_code"]}], "formatted_address": "920 Yonge St #600, Toronto, ON M4W 2J2, Canada", "geometry": {"location": {"lat": 43.6741653, "lng": -79.38885719999999}, "location_type": "ROOFTOP", "viewport": {"northeast": {"lat": 43.6755142802915, "lng": -79.38750821970848}, "southwest": {"lat": 43.6728163197085, "lng": -79.3902061802915}}}, "place_id": "ChIJs34U2Kg0K4gRqarGsqKbB7U", "types": ["establishment", "point_of_interest"]}, {"address_components": [{"long_name": "610", "short_name": "610", "types": ["subpremise"]}, {"long_name": "55", "short_name": "55", "types": ["street_number"]}, {"long_name": "Water Street", "short_name": "Water St", "types": ["route"]}, {"long_name": "Central", "short_name": "Central", "types": ["neighborhood", "political"]}, {"long_name": "Vancouver", "short_name": "Vancouver", "types": ["locality", "political"]}, {"long_name": "Greater Vancouver", "short_name": "Greater Vancouver", "types": ["administrative_area_level_2", "political"]}, {"long_name": "British Columbia", "short_name": "BC", "types": ["administrative_area_level_1", "political"]}, {"long_name": "Canada", "short_name": "CA", "types": ["country", "political"]}, {"long_name": "V6B 1A1", "short_name": "V6B 1A1", "types": ["postal_code"]}], "formatted_address": "55 Water St #610, Vancouver, BC V6B 1A1, Canada", "geometry": {"location": {"lat": 49.2839043, "lng": -123.1053527}, "location_type": "ROOFTOP", "viewport": {"northeast": {"lat": 49.2852532802915, "lng": -123.1040037197085}, "southwest": {"lat": 49.2825553197085, "lng": -123.1067016802915}}}, "place_id": "ChIJP9TWXHdxhlQRI-3wX73nV7Q", "types": ["establishment", "point_of_interest"]}]}, "144041092": {"AfN": "peninsula college", "Location": [{"address_components": [{"long_name": "1502", "short_name": "1502", "types": ["street_number"]}, {"long_name": "East Lauridsen Boulevard", "short_name": "E Lauridsen Blvd", "types": ["route"]}, {"long_name": "Port Angeles", "short_name": "Port Angeles", "types": ["locality", "political"]}, {"long_name": "Clallam County", "short_name": "Clallam County", "types": ["administrative_area_level_2", "political"]}, {"long_name": "Washington", "short_name": "WA", "types": ["administrative_area_level_1", "political"]}, {"long_name": "United States", "short_name": "US", "types": ["country", "political"]}, {"long_name": "98362", "short_name": "98362", "types": ["postal_code"]}], "formatted_address": "1502 E Lauridsen Blvd, Port Angeles, WA 98362, USA", "geometry": {"location": {"lat": 48.1017982, "lng": -123.4127157}, "location_type": "ROOFTOP", "viewport": {"northeast": {"lat": 48.10314718029149, "lng": -123.4113667197085}, "southwest": {"lat": 48.1004492197085, "lng": -123.4140646802915}}}, "place_id": "ChIJ07HPzwixj1QRN7aWKIakLtQ", "types": ["establishment", "point_of_interest", "university"]}]}, "85788879": {"AfN": "peninsula college of medicine and dentistry", "Location": [{"address_components": [{"long_name": "John Bull Building", "short_name": "John Bull Building", "types": ["premise"]}, {"long_name": "Plymouth Science Park", "short_name": "Plymouth Science Park", "types": ["premise"]}, {"long_name": "Research Way", "short_name": "Research Way", "types": ["route"]}, {"long_name": "Plymouth", "short_name": "Plymouth", "types": ["postal_town"]}, {"long_name": "Plymouth", "short_name": "Plymouth", "types": ["administrative_area_level_2", "political"]}, {"long_name": "England", "short_name": "England", "types": ["administrative_area_level_1", "political"]}, {"long_name": "United Kingdom", "short_name": "GB", "types": ["country", "political"]}, {"long_name": "PL6 8BT", "short_name": "PL6 8BT", "types": ["postal_code"]}], "formatted_address": "John Bull Building, Plymouth Science Park, Research Way, Plymouth PL6 8BT, UK", "geometry": {"location": {"lat": 50.4157354, "lng": -4.1105706}, "location_type": "ROOFTOP", "viewport": {"northeast": {"lat": 50.4170843802915, "lng": -4.109221619708498}, "southwest": {"lat": 50.4143864197085, "lng": -4.111919580291502}}}, "place_id": "ChIJjw8IRhLtbEgRCAkUQFHjLMI", "types": ["establishment", "health", "point_of_interest", "university"]}]}, "1294627699": {"AfN": "peninsular malaysia", "Location": [{"address_components": [{"long_name": "2608", "short_name": "2608", "types": ["street_number"]}, {"long_name": "Nicollet Avenue", "short_name": "Nicollet Ave", "types": ["route"]}, {"long_name": "Powderhorn", "short_name": "Powderhorn", "types": ["neighborhood", "political"]}, {"long_name": "Minneapolis", "short_name": "Minneapolis", "types": ["locality", "political"]}, {"long_name": "Hennepin County", "short_name": "Hennepin County", "types": ["administrative_area_level_2", "political"]}, {"long_name": "Minnesota", "short_name": "MN", "types": ["administrative_area_level_1", "political"]}, {"long_name": "United States", "short_name": "US", "types": ["country", "political"]}, {"long_name": "55408", "short_name": "55408", "types": ["postal_code"]}], "formatted_address": "2608 Nicollet Ave, Minneapolis, MN 55408, USA", "geometry": {"location": {"lat": 44.9551163, "lng": -93.27822610000001}, "location_type": "ROOFTOP", "viewport": {"northeast": {"lat": 44.9564652802915, "lng": -93.27687711970852}, "southwest": {"lat": 44.9537673197085, "lng": -93.27957508029152}}}, "place_id": "ChIJHUdVd7Uys1IRPB_28ufQ93E", "types": ["bar", "establishment", "food", "point_of_interest", "restaurant"]}]}, "105604004": {"AfN": "penn state abington", "Location": [{"address_components": [{"long_name": "1600", "short_name": "1600", "types": ["street_number"]}, {"long_name": "Woodland Road", "short_name": "Woodland Rd", "types": ["route"]}, {"long_name": "Abington", "short_name": "Abington", "types": ["locality", "political"]}, {"long_name": "Abington Township", "short_name": "Abington Township", "types": ["administrative_area_level_3", "political"]}, {"long_name": "Montgomery County", "short_name": "Montgomery County", "types": ["administrative_area_level_2", "political"]}, {"long_name": "Pennsylvania", "short_name": "PA", "types": ["administrative_area_level_1", "political"]}, {"long_name": "United States", "short_name": "US", "types": ["country", "political"]}, {"long_name": "19001", "short_name": "19001", "types": ["postal_code"]}], "formatted_address": "1600 Woodland Rd, Abington, PA 19001, USA", "geometry": {"location": {"lat": 40.115494, "lng": -75.110288}, "location_type": "ROOFTOP", "viewport": {"northeast": {"lat": 40.11684298029149, "lng": -75.1089390197085}, "southwest": {"lat": 40.1141450197085, "lng": -75.11163698029151}}}, "place_id": "ChIJZwyIqlWwxokR1wGvzckw3N0", "types": ["establishment", "point_of_interest", "university"]}]}, "130127978": {"AfN": "penn state altoona", "Location": [{"address_components": [{"long_name": "3000", "short_name": "3000", "types": ["street_number"]}, {"long_name": "Ivyside Park", "short_name": "Ivyside Park", "types": ["route"]}, {"long_name": "Altoona", "short_name": "Altoona", "types": ["locality", "political"]}, {"long_name": "Blair County", "short_name": "Blair County", "types": ["administrative_area_level_2", "political"]}, {"long_name": "Pennsylvania", "short_name": "PA", "types": ["administrative_area_level_1", "political"]}, {"long_name": "United States", "short_name": "US", "types": ["country", "political"]}, {"long_name": "16601", "short_name": "16601", "types": ["postal_code"]}, {"long_name": "3777", "short_name": "3777", "types": ["postal_code_suffix"]}], "formatted_address": "3000 Ivyside Park, Altoona, PA 16601, USA", "geometry": {"location": {"lat": 40.5407571, "lng": -78.40948039999999}, "location_type": "ROOFTOP", "viewport": {"northeast": {"lat": 40.5421060802915, "lng": -78.40813141970848}, "southwest": {"lat": 40.5394081197085, "lng": -78.4108293802915}}}, "place_id": "ChIJfzs9pSOOy4kR0fsiQ3fL9PE", "types": ["establishment", "point_of_interest", "university"]}]}, "125745342": {"AfN": "penn state berks", "Location": [{"address_components": [{"long_name": "1801", "short_name": "1801", "types": ["street_number"]}, {"long_name": "Broadcasting Road", "short_name": "Broadcasting Rd", "types": ["route"]}, {"long_name": "Reading", "short_name": "Reading", "types": ["locality", "political"]}, {"long_name": "Spring Township", "short_name": "Spring Township", "types": ["administrative_area_level_3", "political"]}, {"long_name": "Berks County", "short_name": "Berks County", "types": ["administrative_area_level_2", "political"]}, {"long_name": "Pennsylvania", "short_name": "PA", "types": ["administrative_area_level_1", "political"]}, {"long_name": "United States", "short_name": "US", "types": ["country", "political"]}, {"long_name": "19610", "short_name": "19610", "types": ["postal_code"]}], "formatted_address": "1801 Broadcasting Rd, Reading, PA 19610, USA", "geometry": {"location": {"lat": 40.359947, "lng": -75.97614899999999}, "location_type": "ROOFTOP", "viewport": {"northeast": {"lat": 40.36129598029149, "lng": -75.9748000197085}, "southwest": {"lat": 40.3585980197085, "lng": -75.9774979802915}}}, "place_id": "ChIJuyOtcr92xokRj5X_Wq7-N4M", "types": ["establishment", "point_of_interest", "university"]}]}, "178557175": {"AfN": "penn state brandywine", "Location": [{"address_components": [{"long_name": "25", "short_name": "25", "types": ["street_number"]}, {"long_name": "Yearsley Mill Road", "short_name": "Yearsley Mill Rd", "types": ["route"]}, {"long_name": "Media", "short_name": "Media", "types": ["locality", "political"]}, {"long_name": "Middletown Township", "short_name": "Middletown Township", "types": ["administrative_area_level_3", "political"]}, {"long_name": "Delaware County", "short_name": "Delaware County", "types": ["administrative_area_level_2", "political"]}, {"long_name": "Pennsylvania", "short_name": "PA", "types": ["administrative_area_level_1", "political"]}, {"long_name": "United States", "short_name": "US", "types": ["country", "political"]}, {"long_name": "19063", "short_name": "19063", "types": ["postal_code"]}, {"long_name": "5522", "short_name": "5522", "types": ["postal_code_suffix"]}], "formatted_address": "25 Yearsley Mill Rd, Media, PA 19063, USA", "geometry": {"location": {"lat": 39.9278884, "lng": -75.4481416}, "location_type": "ROOFTOP", "viewport": {"northeast": {"lat": 39.9292373802915, "lng": -75.4467926197085}, "southwest": {"lat": 39.9265394197085, "lng": -75.44949058029151}}}, "place_id": "ChIJp7kJUsXuxokRS4sr61dioOM", "types": ["establishment", "point_of_interest", "university"]}]}, "139100880": {"AfN": "penn state cancer institute", "Location": [{"address_components": [{"long_name": "400", "short_name": "400", "types": ["street_number"]}, {"long_name": "University Drive", "short_name": "University Dr", "types": ["route"]}, {"long_name": "Hershey", "short_name": "Hershey", "types": ["locality", "political"]}, {"long_name": "Derry Township", "short_name": "Derry Township", "types": ["administrative_area_level_3", "political"]}, {"long_name": "Dauphin County", "short_name": "Dauphin County", "types": ["administrative_area_level_2", "political"]}, {"long_name": "Pennsylvania", "short_name": "PA", "types": ["administrative_area_level_1", "political"]}, {"long_name": "United States", "short_name": "US", "types": ["country", "political"]}, {"long_name": "17033", "short_name": "17033", "types": ["postal_code"]}], "formatted_address": "400 University Dr, Hershey, PA 17033, USA", "geometry": {"location": {"lat": 40.2645547, "lng": -76.6744677}, "location_type": "ROOFTOP", "viewport": {"northeast": {"lat": 40.26590368029149, "lng": -76.67311871970848}, "southwest": {"lat": 40.2632057197085, "lng": -76.67581668029149}}}, "place_id": "ChIJNQOKL4O8yIkR6Cy8PYLJPJI", "types": ["doctor", "establishment", "health", "point_of_interest"]}]}, "37318280": {"AfN": "penn state college of communications", "Location": [{"address_components": [{"long_name": "201", "short_name": "201", "types": ["street_number"]}, {"long_name": "Carnegie Building", "short_name": "Carnegie Building", "types": ["route"]}, {"long_name": "University Park", "short_name": "University Park", "types": ["neighborhood", "political"]}, {"long_name": "State College", "short_name": "State College", "types": ["locality", "political"]}, {"long_name": "Centre County", "short_name": "Centre County", "types": ["administrative_area_level_2", "political"]}, {"long_name": "Pennsylvania", "short_name": "PA", "types": ["administrative_area_level_1", "political"]}, {"long_name": "United States", "short_name": "US", "types": ["country", "political"]}, {"long_name": "16803", "short_name": "16803", "types": ["postal_code"]}], "formatted_address": "201 Carnegie Building, State College, PA 16803, USA", "geometry": {"location": {"lat": 40.7964716, "lng": -77.8649106}, "location_type": "ROOFTOP", "viewport": {"northeast": {"lat": 40.79782058029149, "lng": -77.8635616197085}, "southwest": {"lat": 40.7951226197085, "lng": -77.86625958029151}}}, "place_id": "ChIJQUsbnJ6ozokRJJBKvZHsxYE", "types": ["establishment", "point_of_interest", "university"]}]}, "29105353": {"AfN": "penn state college of information sciences and technology", "Location": [{"address_components": [{"long_name": "332", "short_name": "332", "types": ["street_number"]}, {"long_name": "Info Science and Tech", "short_name": "Info Science and Tech", "types": ["route"]}, {"long_name": "University Park", "short_name": "University Park", "types": ["neighborhood", "political"]}, {"long_name": "State College", "short_name": "State College", "types": ["locality", "political"]}, {"long_name": "Centre County", "short_name": "Centre County", "types": ["administrative_area_level_2", "political"]}, {"long_name": "Pennsylvania", "short_name": "PA", "types": ["administrative_area_level_1", "political"]}, {"long_name": "United States", "short_name": "US", "types": ["country", "political"]}, {"long_name": "16802", "short_name": "16802", "types": ["postal_code"]}, {"long_name": "6823", "short_name": "6823", "types": ["postal_code_suffix"]}], "formatted_address": "332 Info Science and Tech, University Park, PA 16802, USA", "geometry": {"location": {"lat": 40.793678, "lng": -77.868123}, "location_type": "ROOFTOP", "viewport": {"northeast": {"lat": 40.7950269802915, "lng": -77.86677401970849}, "southwest": {"lat": 40.7923290197085, "lng": -77.86947198029151}}}, "place_id": "ChIJq6pqoJuozokRoH2CeXiGhNU", "types": ["establishment", "point_of_interest", "university"]}]}, "62720582": {"AfN": "penn state dubois", "Location": [{"address_components": [{"long_name": "1", "short_name": "1", "types": ["street_number"]}, {"long_name": "College Place", "short_name": "College Pl", "types": ["route"]}, {"long_name": "DuBois", "short_name": "DuBois", "types": ["locality", "political"]}, {"long_name": "Clearfield County", "short_name": "Clearfield County", "types": ["administrative_area_level_2", "political"]}, {"long_name": "Pennsylvania", "short_name": "PA", "types": ["administrative_area_level_1", "political"]}, {"long_name": "United States", "short_name": "US", "types": ["country", "political"]}, {"long_name": "15801", "short_name": "15801", "types": ["postal_code"]}, {"long_name": "2597", "short_name": "2597", "types": ["postal_code_suffix"]}], "formatted_address": "1 College Pl, DuBois, PA 15801, USA", "geometry": {"location": {"lat": 41.1272143, "lng": -78.7511698}, "location_type": "ROOFTOP", "viewport": {"northeast": {"lat": 41.1285632802915, "lng": -78.74982081970849}, "southwest": {"lat": 41.1258653197085, "lng": -78.75251878029151}}}, "place_id": "ChIJodVWh_7zzIkRBMHSl-vIB-Y", "types": ["establishment", "point_of_interest", "university"]}]}, "178866852": {"AfN": "penn state erie the behrend college", "Location": [{"address_components": [{"long_name": "4701", "short_name": "4701", "types": ["street_number"]}, {"long_name": "College Drive", "short_name": "College Dr", "types": ["route"]}, {"long_name": "Erie", "short_name": "Erie", "types": ["locality", "political"]}, {"long_name": "Harborcreek Township", "short_name": "Harborcreek Township", "types": ["administrative_area_level_3", "political"]}, {"long_name": "Erie County", "short_name": "Erie County", "types": ["administrative_area_level_2", "political"]}, {"long_name": "Pennsylvania", "short_name": "PA", "types": ["administrative_area_level_1", "political"]}, {"long_name": "United States", "short_name": "US", "types": ["country", "political"]}, {"long_name": "16563", "short_name": "16563", "types": ["postal_code"]}], "formatted_address": "4701 College Dr, Erie, PA 16563, USA", "geometry": {"location": {"lat": 42.119308, "lng": -79.98371399999999}, "location_type": "ROOFTOP", "viewport": {"northeast": {"lat": 42.1206569802915, "lng": -79.98236501970848}, "southwest": {"lat": 42.1179590197085, "lng": -79.9850629802915}}}, "place_id": "ChIJoyMKHpJ9LYgR_fpiG4yNBBw", "types": ["establishment", "point_of_interest", "university"]}]}, "98965574": {"AfN": "penn state harrisburg", "Location": [{"address_components": [{"long_name": "777", "short_name": "777", "types": ["street_number"]}, {"long_name": "West Harrisburg Pike", "short_name": "W Harrisburg Pike", "types": ["route"]}, {"long_name": "Middletown", "short_name": "Middletown", "types": ["locality", "political"]}, {"long_name": "Dauphin County", "short_name": "Dauphin County", "types": ["administrative_area_level_2", "political"]}, {"long_name": "Pennsylvania", "short_name": "PA", "types": ["administrative_area_level_1", "political"]}, {"long_name": "United States", "short_name": "US", "types": ["country", "political"]}, {"long_name": "17057", "short_name": "17057", "types": ["postal_code"]}], "formatted_address": "777 W Harrisburg Pike, Middletown, PA 17057, USA", "geometry": {"location": {"lat": 40.2042904, "lng": -76.744929}, "location_type": "ROOFTOP", "viewport": {"northeast": {"lat": 40.2056393802915, "lng": -76.74358001970849}, "southwest": {"lat": 40.2029414197085, "lng": -76.7462779802915}}}, "place_id": "ChIJ4cLWsBq-yIkR8RoxiN6GEFc", "types": ["establishment", "point_of_interest", "school", "university"]}]}, "117684438": {"AfN": "penn state hazleton", "Location": [{"address_components": [{"long_name": "76", "short_name": "76", "types": ["street_number"]}, {"long_name": "University Drive", "short_name": "University Dr", "types": ["route"]}, {"long_name": "Hazleton", "short_name": "Hazleton", "types": ["locality", "political"]}, {"long_name": "Sugarloaf Township", "short_name": "Sugarloaf Township", "types": ["administrative_area_level_3", "political"]}, {"long_name": "Luzerne County", "short_name": "Luzerne County", "types": ["administrative_area_level_2", "political"]}, {"long_name": "Pennsylvania", "short_name": "PA", "types": ["administrative_area_level_1", "political"]}, {"long_name": "United States", "short_name": "US", "types": ["country", "political"]}, {"long_name": "18202", "short_name": "18202", "types": ["postal_code"]}, {"long_name": "1291", "short_name": "1291", "types": ["postal_code_suffix"]}], "formatted_address": "76 University Dr, Hazleton, PA 18202, USA", "geometry": {"location": {"lat": 40.98394649999999, "lng": -76.0290881}, "location_type": "ROOFTOP", "viewport": {"northeast": {"lat": 40.9852954802915, "lng": -76.02773911970849}, "southwest": {"lat": 40.9825975197085, "lng": -76.0304370802915}}}, "place_id": "ChIJf_rSr9ajxYkRJtly17lWnM8", "types": ["establishment", "point_of_interest", "university"]}]}, "82783531": {"AfN": "penn state milton s hershey medical center", "Location": [{"address_components": [{"long_name": "500", "short_name": "500", "types": ["street_number"]}, {"long_name": "University Drive", "short_name": "University Dr", "types": ["route"]}, {"long_name": "Hershey", "short_name": "Hershey", "types": ["locality", "political"]}, {"long_name": "Derry Township", "short_name": "Derry Township", "types": ["administrative_area_level_3", "political"]}, {"long_name": "Dauphin County", "short_name": "Dauphin County", "types": ["administrative_area_level_2", "political"]}, {"long_name": "Pennsylvania", "short_name": "PA", "types": ["administrative_area_level_1", "political"]}, {"long_name": "United States", "short_name": "US", "types": ["country", "political"]}, {"long_name": "17033", "short_name": "17033", "types": ["postal_code"]}], "formatted_address": "500 University Dr, Hershey, PA 17033, USA", "geometry": {"location": {"lat": 40.26437019999999, "lng": -76.6747274}, "location_type": "ROOFTOP", "viewport": {"northeast": {"lat": 40.26571918029149, "lng": -76.67337841970848}, "southwest": {"lat": 40.26302121970849, "lng": -76.6760763802915}}}, "place_id": "ChIJeWAYJoO8yIkR4QRnK3dNTuU", "types": ["establishment", "hospital", "point_of_interest"]}]}, "162749616": {"AfN": "penn state mont alto", "Location": [{"address_components": [{"long_name": "1", "short_name": "1", "types": ["street_number"]}, {"long_name": "Campus Drive", "short_name": "Campus Dr", "types": ["route"]}, {"long_name": "Mont Alto", "short_name": "Mont Alto", "types": ["locality", "political"]}, {"long_name": "Franklin County", "short_name": "Franklin County", "types": ["administrative_area_level_2", "political"]}, {"long_name": "Pennsylvania", "short_name": "PA", "types": ["administrative_area_level_1", "political"]}, {"long_name": "United States", "short_name": "US", "types": ["country", "political"]}, {"long_name": "17237", "short_name": "17237", "types": ["postal_code"]}], "formatted_address": "1 Campus Dr, Mont Alto, PA 17237, USA", "geometry": {"location": {"lat": 39.8406628, "lng": -77.54259859999999}, "location_type": "ROOFTOP", "viewport": {"northeast": {"lat": 39.84201178029149, "lng": -77.54124961970848}, "southwest": {"lat": 39.83931381970849, "lng": -77.5439475802915}}}, "place_id": "ChIJCTnjdYqiyYkRKtF0GyZybxg", "types": ["establishment", "point_of_interest", "university"]}]}, "887627919": {"AfN": "penn state worthington scranton", "Location": [{"address_components": [{"long_name": "120", "short_name": "120", "types": ["street_number"]}, {"long_name": "Ridgeview Drive", "short_name": "Ridgeview Dr", "types": ["route"]}, {"long_name": "Dunmore", "short_name": "Dunmore", "types": ["locality", "political"]}, {"long_name": "Lackawanna County", "short_name": "Lackawanna County", "types": ["administrative_area_level_2", "political"]}, {"long_name": "Pennsylvania", "short_name": "PA", "types": ["administrative_area_level_1", "political"]}, {"long_name": "United States", "short_name": "US", "types": ["country", "political"]}, {"long_name": "18512", "short_name": "18512", "types": ["postal_code"]}, {"long_name": "1602", "short_name": "1602", "types": ["postal_code_suffix"]}], "formatted_address": "120 Ridgeview Dr, Dunmore, PA 18512, USA", "geometry": {"location": {"lat": 41.4401197, "lng": -75.6208369}, "location_type": "ROOFTOP", "viewport": {"northeast": {"lat": 41.44146868029149, "lng": -75.6194879197085}, "southwest": {"lat": 41.43877071970849, "lng": -75.62218588029151}}}, "place_id": "ChIJQdz9e33ZxIkR8f0QnML1Ag4", "types": ["establishment", "point_of_interest", "university"]}]}, "57900074": {"AfN": "penn state york", "Location": [{"address_components": [{"long_name": "1031", "short_name": "1031", "types": ["street_number"]}, {"long_name": "Edgecomb Avenue", "short_name": "Edgecomb Ave", "types": ["route"]}, {"long_name": "York", "short_name": "York", "types": ["locality", "political"]}, {"long_name": "Spring Garden Township", "short_name": "Spring Garden Township", "types": ["administrative_area_level_3", "political"]}, {"long_name": "York County", "short_name": "York County", "types": ["administrative_area_level_2", "political"]}, {"long_name": "Pennsylvania", "short_name": "PA", "types": ["administrative_area_level_1", "political"]}, {"long_name": "United States", "short_name": "US", "types": ["country", "political"]}, {"long_name": "17403", "short_name": "17403", "types": ["postal_code"]}, {"long_name": "3326", "short_name": "3326", "types": ["postal_code_suffix"]}], "formatted_address": "1031 Edgecomb Ave, York, PA 17403, USA", "geometry": {"location": {"lat": 39.9518241, "lng": -76.702947}, "location_type": "ROOFTOP", "viewport": {"northeast": {"lat": 39.9531730802915, "lng": -76.7015980197085}, "southwest": {"lat": 39.9504751197085, "lng": -76.7042959802915}}}, "place_id": "ChIJMU6bcMyOyIkRvjAmgJaeeTY", "types": ["establishment", "point_of_interest", "university"]}]}, "103990859": {"AfN": "pennington biomedical research center", "Location": [{"address_components": [{"long_name": "6400", "short_name": "6400", "types": ["street_number"]}, {"long_name": "Perkins Road", "short_name": "Perkins Rd", "types": ["route"]}, {"long_name": "Highlands/Perkins", "short_name": "Highlands/Perkins", "types": ["neighborhood", "political"]}, {"long_name": "Baton Rouge", "short_name": "Baton Rouge", "types": ["locality", "political"]}, {"long_name": "12", "short_name": "12", "types": ["administrative_area_level_3", "political"]}, {"long_name": "East Baton Rouge Parish", "short_name": "East Baton Rouge Parish", "types": ["administrative_area_level_2", "political"]}, {"long_name": "Louisiana", "short_name": "LA", "types": ["administrative_area_level_1", "political"]}, {"long_name": "United States", "short_name": "US", "types": ["country", "political"]}, {"long_name": "70808", "short_name": "70808", "types": ["postal_code"]}], "formatted_address": "6400 Perkins Rd, Baton Rouge, LA 70808, USA", "geometry": {"location": {"lat": 30.403305, "lng": -91.122665}, "location_type": "ROOFTOP", "viewport": {"northeast": {"lat": 30.4046539802915, "lng": -91.12131601970849}, "southwest": {"lat": 30.4019560197085, "lng": -91.12401398029151}}}, "place_id": "ChIJd4y8aDykJoYRP_mly6-6e8k", "types": ["establishment", "point_of_interest"]}, {"address_components": [{"long_name": "2328", "short_name": "2328", "types": ["street_number"]}, {"long_name": "Irene Drive", "short_name": "Irene Dr", "types": ["route"]}, {"long_name": "Highlands/Perkins", "short_name": "Highlands/Perkins", "types": ["neighborhood", "political"]}, {"long_name": "Baton Rouge", "short_name": "Baton Rouge", "types": ["locality", "political"]}, {"long_name": "12", "short_name": "12", "types": ["administrative_area_level_3", "political"]}, {"long_name": "East Baton Rouge Parish", "short_name": "East Baton Rouge Parish", "types": ["administrative_area_level_2", "political"]}, {"long_name": "Louisiana", "short_name": "LA", "types": ["administrative_area_level_1", "political"]}, {"long_name": "United States", "short_name": "US", "types": ["country", "political"]}, {"long_name": "70808", "short_name": "70808", "types": ["postal_code"]}], "formatted_address": "2328 Irene Dr, Baton Rouge, LA 70808, USA", "geometry": {"location": {"lat": 30.401275, "lng": -91.12341239999999}, "location_type": "ROOFTOP", "viewport": {"northeast": {"lat": 30.4026239802915, "lng": -91.12206341970848}, "southwest": {"lat": 30.3999260197085, "lng": -91.1247613802915}}}, "place_id": "ChIJxwuxdzukJoYR7mngIg4ueyg", "types": ["establishment", "point_of_interest"]}]}, "158506100": {"AfN": "pennsylvania board of probation and parole", "Location": [{"address_components": [{"long_name": "2040", "short_name": "2040", "types": ["street_number"]}, {"long_name": "South 12th Street", "short_name": "S 12th St", "types": ["route"]}, {"long_name": "Allentown", "short_name": "Allentown", "types": ["locality", "political"]}, {"long_name": "Lehigh County", "short_name": "Lehigh County", "types": ["administrative_area_level_2", "political"]}, {"long_name": "Pennsylvania", "short_name": "PA", "types": ["administrative_area_level_1", "political"]}, {"long_name": "United States", "short_name": "US", "types": ["country", "political"]}, {"long_name": "18103", "short_name": "18103", "types": ["postal_code"]}, {"long_name": "4750", "short_name": "4750", "types": ["postal_code_suffix"]}], "formatted_address": "2040 S 12th St, Allentown, PA 18103, USA", "geometry": {"location": {"lat": 40.575163, "lng": -75.476428}, "location_type": "ROOFTOP", "viewport": {"northeast": {"lat": 40.5765119802915, "lng": -75.47507901970849}, "southwest": {"lat": 40.5738140197085, "lng": -75.47777698029151}}}, "place_id": "ChIJEX_gtl46xIkRu_cZjoHgots", "types": ["establishment", "point_of_interest"]}]}, "204795616": {"AfN": "pennsylvania college of technology", "Location": [{"address_components": [{"long_name": "1", "short_name": "1", "types": ["street_number"]}, {"long_name": "College Avenue", "short_name": "College Ave", "types": ["route"]}, {"long_name": "Williamsport", "short_name": "Williamsport", "types": ["locality", "political"]}, {"long_name": "Lycoming County", "short_name": "Lycoming County", "types": ["administrative_area_level_2", "political"]}, {"long_name": "Pennsylvania", "short_name": "PA", "types": ["administrative_area_level_1", "political"]}, {"long_name": "United States", "short_name": "US", "types": ["country", "political"]}, {"long_name": "17701", "short_name": "17701", "types": ["postal_code"]}], "formatted_address": "1 College Ave, Williamsport, PA 17701, USA", "geometry": {"location": {"lat": 41.234716, "lng": -77.021041}, "location_type": "ROOFTOP", "viewport": {"northeast": {"lat": 41.2360649802915, "lng": -77.0196920197085}, "southwest": {"lat": 41.2333670197085, "lng": -77.0223899802915}}}, "place_id": "ChIJV25KoZGoz4kRwAHA2tY34vI", "types": ["establishment", "point_of_interest", "university"]}]}, "1342378838": {"AfN": "pennsylvania department of education", "Location": [{"address_components": [{"long_name": "333", "short_name": "333", "types": ["street_number"]}, {"long_name": "Market Street", "short_name": "Market St", "types": ["route"]}, {"long_name": "Harrisburg", "short_name": "Harrisburg", "types": ["locality", "political"]}, {"long_name": "Dauphin County", "short_name": "Dauphin County", "types": ["administrative_area_level_2", "political"]}, {"long_name": "Pennsylvania", "short_name": "PA", "types": ["administrative_area_level_1", "political"]}, {"long_name": "United States", "short_name": "US", "types": ["country", "political"]}, {"long_name": "17126", "short_name": "17126", "types": ["postal_code"]}], "formatted_address": "333 Market St, Harrisburg, PA 17126, USA", "geometry": {"location": {"lat": 40.2612422, "lng": -76.8790667}, "location_type": "ROOFTOP", "viewport": {"northeast": {"lat": 40.26259118029149, "lng": -76.87771771970849}, "southwest": {"lat": 40.2598932197085, "lng": -76.8804156802915}}}, "place_id": "ChIJScLnFhvByIkRgyuo-DgsN2I", "types": ["establishment", "point_of_interest"]}]}, "1336994424": {"AfN": "pennsylvania department of environmental protection", "Location": [{"address_components": [{"long_name": "400", "short_name": "400", "types": ["street_number"]}, {"long_name": "Market Street", "short_name": "Market St", "types": ["route"]}, {"long_name": "Harrisburg", "short_name": "Harrisburg", "types": ["locality", "political"]}, {"long_name": "Dauphin County", "short_name": "Dauphin County", "types": ["administrative_area_level_2", "political"]}, {"long_name": "Pennsylvania", "short_name": "PA", "types": ["administrative_area_level_1", "political"]}, {"long_name": "United States", "short_name": "US", "types": ["country", "political"]}, {"long_name": "17101", "short_name": "17101", "types": ["postal_code"]}, {"long_name": "2301", "short_name": "2301", "types": ["postal_code_suffix"]}], "formatted_address": "400 Market St, Harrisburg, PA 17101, USA", "geometry": {"location": {"lat": 40.26246, "lng": -76.879874}, "location_type": "ROOFTOP", "viewport": {"northeast": {"lat": 40.26380898029149, "lng": -76.87852501970849}, "southwest": {"lat": 40.26111101970849, "lng": -76.88122298029151}}}, "place_id": "ChIJsd1lCxvByIkRyuf5DB8n5bo", "types": ["establishment", "local_government_office", "point_of_interest"]}]}, "1314730391": {"AfN": "pennsylvania department of health", "Location": [{"address_components": [{"long_name": "1", "short_name": "1", "types": ["subpremise"]}, {"long_name": "184", "short_name": "184", "types": ["street_number"]}, {"long_name": "Donald Lane", "short_name": "Donald Ln", "types": ["route"]}, {"long_name": "Johnstown", "short_name": "Johnstown", "types": ["locality", "political"]}, {"long_name": "Richland", "short_name": "Richland", "types": ["administrative_area_level_3", "political"]}, {"long_name": "Cambria County", "short_name": "Cambria County", "types": ["administrative_area_level_2", "political"]}, {"long_name": "Pennsylvania", "short_name": "PA", "types": ["administrative_area_level_1", "political"]}, {"long_name": "United States", "short_name": "US", "types": ["country", "political"]}, {"long_name": "15904", "short_name": "15904", "types": ["postal_code"]}], "formatted_address": "184 Donald Ln #1, Johnstown, PA 15904, USA", "geometry": {"location": {"lat": 40.2851137, "lng": -78.8403146}, "location_type": "ROOFTOP", "viewport": {"northeast": {"lat": 40.2864626802915, "lng": -78.83896561970849}, "southwest": {"lat": 40.2837647197085, "lng": -78.84166358029151}}}, "place_id": "ChIJxzmjuicQy4kRZdbRfIxtQtc", "types": ["establishment", "health", "local_government_office", "point_of_interest"]}]}, "322107071": {"AfN": "pennsylvania department of transportation", "Location": [{"address_components": [{"long_name": "Mercer", "short_name": "Mercer", "types": ["locality", "political"]}, {"long_name": "Pennsylvania", "short_name": "PA", "types": ["administrative_area_level_1", "political"]}, {"long_name": "United States", "short_name": "US", "types": ["country", "political"]}, {"long_name": "16137", "short_name": "16137", "types": ["postal_code"]}], "formatted_address": "519-B Greenville Road, PA Route 58, Mercer, PA 16137, United States", "geometry": {"location": {"lat": 41.23336400000001, "lng": -80.24183909999999}, "location_type": "GEOMETRIC_CENTER", "viewport": {"northeast": {"lat": 41.23471298029151, "lng": -80.24049011970848}, "southwest": {"lat": 41.23201501970851, "lng": -80.24318808029149}}}, "place_id": "ChIJswdC7wSjM4gRN33_VBf-An0", "types": ["establishment", "local_government_office", "point_of_interest"]}]}, "1305101008": {"AfN": "pennsylvania game commission", "Location": [{"address_components": [{"long_name": "# A", "short_name": "# A", "types": ["subpremise"]}, {"long_name": "217", "short_name": "217", "types": ["street_number"]}, {"long_name": "Pheasant Farm Rd", "short_name": "Pheasant Farm Rd", "types": ["route"]}, {"long_name": "New Bethlehem", "short_name": "New Bethlehem", "types": ["locality", "political"]}, {"long_name": "Mahoning Township", "short_name": "Mahoning Township", "types": ["administrative_area_level_3", "political"]}, {"long_name": "Armstrong County", "short_name": "Armstrong County", "types": ["administrative_area_level_2", "political"]}, {"long_name": "Pennsylvania", "short_name": "PA", "types": ["administrative_area_level_1", "political"]}, {"long_name": "United States", "short_name": "US", "types": ["country", "political"]}, {"long_name": "16242", "short_name": "16242", "types": ["postal_code"]}, {"long_name": "7737", "short_name": "7737", "types": ["postal_code_suffix"]}], "formatted_address": "217 Pheasant Farm Rd # A, New Bethlehem, PA 16242, USA", "geometry": {"location": {"lat": 40.9972319, "lng": -79.336525}, "location_type": "ROOFTOP", "viewport": {"northeast": {"lat": 40.9985808802915, "lng": -79.3351760197085}, "southwest": {"lat": 40.9958829197085, "lng": -79.3378739802915}}}, "place_id": "ChIJrUL1EgizzIkR5vbOEIvjTVA", "types": ["casino", "establishment", "point_of_interest"]}]}, "1300774049": {"AfN": "pennsylvania historical and museum commission", "Location": [{"address_components": [{"long_name": "300", "short_name": "300", "types": ["street_number"]}, {"long_name": "North Street", "short_name": "North St", "types": ["route"]}, {"long_name": "Harrisburg", "short_name": "Harrisburg", "types": ["locality", "political"]}, {"long_name": "Dauphin County", "short_name": "Dauphin County", "types": ["administrative_area_level_2", "political"]}, {"long_name": "Pennsylvania", "short_name": "PA", "types": ["administrative_area_level_1", "political"]}, {"long_name": "United States", "short_name": "US", "types": ["country", "political"]}, {"long_name": "17120", "short_name": "17120", "types": ["postal_code"]}, {"long_name": "0101", "short_name": "0101", "types": ["postal_code_suffix"]}], "formatted_address": "300 North St, Harrisburg, PA 17120, USA", "geometry": {"location": {"lat": 40.2659627, "lng": -76.88542679999999}, "location_type": "ROOFTOP", "viewport": {"northeast": {"lat": 40.2673116802915, "lng": -76.88407781970848}, "southwest": {"lat": 40.2646137197085, "lng": -76.8867757802915}}}, "place_id": "ChIJCSv9xBDByIkRpgGnQN_p05s", "types": ["establishment", "local_government_office", "museum", "point_of_interest"]}, {"address_components": [{"long_name": "632", "short_name": "632", "types": ["street_number"]}, {"long_name": "West Main Street", "short_name": "W Main St", "types": ["route"]}, {"long_name": "Ephrata", "short_name": "Ephrata", "types": ["locality", "political"]}, {"long_name": "Lancaster County", "short_name": "Lancaster County", "types": ["administrative_area_level_2", "political"]}, {"long_name": "Pennsylvania", "short_name": "PA", "types": ["administrative_area_level_1", "political"]}, {"long_name": "United States", "short_name": "US", "types": ["country", "political"]}, {"long_name": "17522", "short_name": "17522", "types": ["postal_code"]}, {"long_name": "1717", "short_name": "1717", "types": ["postal_code_suffix"]}], "formatted_address": "632 W Main St, Ephrata, PA 17522, USA", "geometry": {"location": {"lat": 40.1832411, "lng": -76.1881549}, "location_type": "ROOFTOP", "viewport": {"northeast": {"lat": 40.18459008029149, "lng": -76.1868059197085}, "southwest": {"lat": 40.18189211970849, "lng": -76.18950388029151}}}, "place_id": "ChIJwWrTIJoWxokRC50arn2supE", "types": ["establishment", "museum", "point_of_interest"]}]}, "29957033": {"AfN": "pennsylvania state system of higher education", "Location": [{"address_components": [{"long_name": "2986", "short_name": "2986", "types": ["street_number"]}, {"long_name": "North 2nd Street", "short_name": "N 2nd St", "types": ["route"]}, {"long_name": "Uptown", "short_name": "Uptown", "types": ["neighborhood", "political"]}, {"long_name": "Harrisburg", "short_name": "Harrisburg", "types": ["locality", "political"]}, {"long_name": "Dauphin County", "short_name": "Dauphin County", "types": ["administrative_area_level_2", "political"]}, {"long_name": "Pennsylvania", "short_name": "PA", "types": ["administrative_area_level_1", "political"]}, {"long_name": "United States", "short_name": "US", "types": ["country", "political"]}, {"long_name": "17110", "short_name": "17110", "types": ["postal_code"]}, {"long_name": "1201", "short_name": "1201", "types": ["postal_code_suffix"]}], "formatted_address": "2986 N 2nd St, Harrisburg, PA 17110, USA", "geometry": {"location": {"lat": 40.2948867, "lng": -76.904394}, "location_type": "ROOFTOP", "viewport": {"northeast": {"lat": 40.2962356802915, "lng": -76.90304501970849}, "southwest": {"lat": 40.2935377197085, "lng": -76.9057429802915}}}, "place_id": "ChIJY3KB7rLGyIkRGHyl3S5BRiw", "types": ["establishment", "point_of_interest", "university"]}]}, "130769515": {"AfN": "pennsylvania state university", "Location": [{"address_components": [{"long_name": "Old Main", "short_name": "Old Main", "types": ["premise"]}, {"long_name": "State College", "short_name": "State College", "types": ["locality", "political"]}, {"long_name": "Centre County", "short_name": "Centre County", "types": ["administrative_area_level_2", "political"]}, {"long_name": "Pennsylvania", "short_name": "PA", "types": ["administrative_area_level_1", "political"]}, {"long_name": "United States", "short_name": "US", "types": ["country", "political"]}, {"long_name": "16801", "short_name": "16801", "types": ["postal_code"]}], "formatted_address": "Old Main, State College, PA 16801, USA", "geometry": {"location": {"lat": 40.7982133, "lng": -77.8599084}, "location_type": "ROOFTOP", "viewport": {"northeast": {"lat": 40.7995622802915, "lng": -77.8585594197085}, "southwest": {"lat": 40.7968643197085, "lng": -77.8612573802915}}}, "place_id": "ChIJkQJdfySmzokRaYLkVpuOPq0", "types": ["establishment", "point_of_interest", "university"]}]}, "152812213": {"AfN": "pennsylvania transportation institute", "Location": [{"address_components": [{"long_name": "Test Track Road", "short_name": "Test Track Rd", "types": ["route"]}, {"long_name": "Bellefonte", "short_name": "Bellefonte", "types": ["locality", "political"]}, {"long_name": "Benner Township", "short_name": "Benner Township", "types": ["administrative_area_level_3", "political"]}, {"long_name": "Centre County", "short_name": "Centre County", "types": ["administrative_area_level_2", "political"]}, {"long_name": "Pennsylvania", "short_name": "PA", "types": ["administrative_area_level_1", "political"]}, {"long_name": "United States", "short_name": "US", "types": ["country", "political"]}, {"long_name": "16823", "short_name": "16823", "types": ["postal_code"]}], "formatted_address": "Test Track Rd, Bellefonte, PA 16823, USA", "geometry": {"location": {"lat": 40.8638331, "lng": -77.8350213}, "location_type": "GEOMETRIC_CENTER", "viewport": {"northeast": {"lat": 40.8651820802915, "lng": -77.83367231970848}, "southwest": {"lat": 40.8624841197085, "lng": -77.8363702802915}}}, "place_id": "ChIJi6PBoB2kzokRcf5hqBxf5Zc", "types": ["establishment", "point_of_interest", "school"]}]}, "895667886": {"AfN": "penta ocean construction co ltd", "Location": [{"address_components": [{"long_name": "1", "short_name": "1", "types": ["street_number"]}, {"long_name": "Kim Seng Promenade", "short_name": "Kim Seng Promenade", "types": ["route"]}, {"long_name": "Singapore River", "short_name": "Singapore River", "types": ["neighborhood", "political"]}, {"long_name": "Singapore", "short_name": "Singapore", "types": ["locality", "political"]}, {"long_name": "Singapore", "short_name": "SG", "types": ["country", "political"]}, {"long_name": "237994", "short_name": "237994", "types": ["postal_code"]}], "formatted_address": "1 Kim Seng Promenade, Singapore 237994", "geometry": {"location": {"lat": 1.2936325, "lng": 103.8319665}, "location_type": "ROOFTOP", "viewport": {"northeast": {"lat": 1.294981480291502, "lng": 103.8333154802915}, "southwest": {"lat": 1.292283519708498, "lng": 103.8306175197085}}}, "place_id": "ChIJu3mTX4MZ2jEREgKrbmkrtYo", "types": ["establishment", "general_contractor", "point_of_interest"]}, {"address_components": [{"long_name": "3", "short_name": "3", "types": ["street_number"]}, {"long_name": "Marina Gardens Drive", "short_name": "Marina Gardens Dr", "types": ["route"]}, {"long_name": "Marina South", "short_name": "Marina South", "types": ["neighborhood", "political"]}, {"long_name": "Singapore", "short_name": "Singapore", "types": ["locality", "political"]}, {"long_name": "Singapore", "short_name": "SG", "types": ["country", "political"]}, {"long_name": "018950", "short_name": "018950", "types": ["postal_code"]}], "formatted_address": "3 Marina Gardens Dr, Singapore 018950", "geometry": {"location": {"lat": 1.281315, "lng": 103.868109},