{"153455119": {"AfN": "university of zimbabwe", "Location": [{"address_components": [{"long_name": "Harare", "short_name": "Harare", "types": ["locality", "political"]}, {"long_name": "Zimbabwe", "short_name": "ZW", "types": ["country", "political"]}], "formatted_address": "630 Churchill Avenue, Harare, Zimbabwe", "geometry": {"location": {"lat": -17.784983, "lng": 31.054561}, "location_type": "GEOMETRIC_CENTER", "viewport": {"northeast": {"lat": -17.7836340197085, "lng": 31.0559099802915}, "southwest": {"lat": -17.7863319802915, "lng": 31.0532120197085}}}, "place_id": "ChIJDwcYMWelMRkRcebZ7od3ELk", "types": ["establishment", "point_of_interest", "university"]}]}, "1648549": {"AfN": "university of zulia", "Location": [{"address_components": [{"long_name": "Maracaibo", "short_name": "Maracaibo", "types": ["locality", "political"]}, {"long_name": "Maracaibo", "short_name": "Maracaibo", "types": ["administrative_area_level_2", "political"]}, {"long_name": "Zulia", "short_name": "Zulia", "types": ["administrative_area_level_1", "political"]}, {"long_name": "Venezuela", "short_name": "VE", "types": ["country", "political"]}, {"long_name": "4001", "short_name": "4001", "types": ["postal_code"]}], "formatted_address": "Maracaibo 4001, Zulia, Venezuela", "geometry": {"location": {"lat": 10.6724518, "lng": -71.6326976}, "location_type": "GEOMETRIC_CENTER", "viewport": {"northeast": {"lat": 10.6738007802915, "lng": -71.63134861970849}, "southwest": {"lat": 10.6711028197085, "lng": -71.63404658029151}}}, "place_id": "ChIJG36COD2ZiY4RSe4ntbAzR4g", "types": ["establishment", "point_of_interest", "university"]}]}, "12553626": {"AfN": "university of zululand", "Location": [{"address_components": [{"long_name": "Guldengracht st", "short_name": "Guldengracht st", "types": ["route"]}, {"long_name": "Arboretum", "short_name": "Arboretum", "types": ["political", "sublocality", "sublocality_level_1"]}, {"long_name": "Richards Bay", "short_name": "Richards Bay", "types": ["locality", "political"]}, {"long_name": "(South) Uthungulu DC", "short_name": "(South) Uthungulu DC", "types": ["administrative_area_level_2", "political"]}, {"long_name": "KwaZulu-Natal", "short_name": "KZN", "types": ["administrative_area_level_1", "political"]}, {"long_name": "South Africa", "short_name": "ZA", "types": ["country", "political"]}, {"long_name": "3900", "short_name": "3900", "types": ["postal_code"]}], "formatted_address": "Guldengracht st & East Arterial Road, Arboretum, Richards Bay, 3900, South Africa", "geometry": {"location": {"lat": -28.8523793, "lng": 31.849065}, "location_type": "GEOMETRIC_CENTER", "viewport": {"northeast": {"lat": -28.8510303197085, "lng": 31.8504139802915}, "southwest": {"lat": -28.8537282802915, "lng": 31.8477160197085}}}, "place_id": "ChIJi_N2I2wb-h4RzP0lC3m1tCQ", "types": ["establishment", "point_of_interest", "university"]}]}, "202697423": {"AfN": "university of zurich", "Location": [{"address_components": [{"long_name": "71", "short_name": "71", "types": ["street_number"]}, {"long_name": "R\u00e4mistrasse", "short_name": "R\u00e4mistrasse", "types": ["route"]}, {"long_name": "Kreis 6", "short_name": "Kreis 6", "types": ["political", "sublocality", "sublocality_level_1"]}, {"long_name": "Z\u00fcrich", "short_name": "Z\u00fcrich", "types": ["locality", "political"]}, {"long_name": "Z\u00fcrich", "short_name": "Z\u00fcrich", "types": ["administrative_area_level_2", "political"]}, {"long_name": "Z\u00fcrich", "short_name": "ZH", "types": ["administrative_area_level_1", "political"]}, {"long_name": "Switzerland", "short_name": "CH", "types": ["country", "political"]}, {"long_name": "8006", "short_name": "8006", "types": ["postal_code"]}], "formatted_address": "R\u00e4mistrasse 71, 8006 Z\u00fcrich, Switzerland", "geometry": {"location": {"lat": 47.3743221, "lng": 8.550981199999999}, "location_type": "ROOFTOP", "viewport": {"northeast": {"lat": 47.3756710802915, "lng": 8.5523301802915}, "southwest": {"lat": 47.3729731197085, "lng": 8.549632219708496}}}, "place_id": "ChIJi4WVWJ-gmkcRz9p-0FL6ULo", "types": ["establishment", "point_of_interest", "university"]}]}, "34250744": {"AfN": "university of \u0142od\u017a", "Location": [{"address_components": [{"long_name": "68", "short_name": "68", "types": ["street_number"]}, {"long_name": "ul. Prez. Gabriela Narutowicza", "short_name": "ul. Prez. Gabriela Narutowicza", "types": ["route"]}, {"long_name": "\u015ar\u00f3dmie\u015bcie", "short_name": "\u015ar\u00f3dmie\u015bcie", "types": ["political", "sublocality", "sublocality_level_1"]}, {"long_name": "\u0141\u00f3d\u017a", "short_name": "\u0141\u00f3d\u017a", "types": ["locality", "political"]}, {"long_name": "\u0141\u00f3d\u017a", "short_name": "\u0141\u00f3d\u017a", "types": ["administrative_area_level_2", "political"]}, {"long_name": "wojew\u00f3dztwo \u0142\u00f3dzkie", "short_name": "wojew\u00f3dztwo \u0142\u00f3dzkie", "types": ["administrative_area_level_1", "political"]}, {"long_name": "Poland", "short_name": "PL", "types": ["country", "political"]}, {"long_name": "90-136", "short_name": "90-136", "types": ["postal_code"]}], "formatted_address": "ul. Prez. Gabriela Narutowicza 68, 90-136 \u0141\u00f3d\u017a, Poland", "geometry": {"location": {"lat": 51.77207749999999, "lng": 19.4740065}, "location_type": "ROOFTOP", "viewport": {"northeast": {"lat": 51.77342648029149, "lng": 19.4753554802915}, "southwest": {"lat": 51.7707285197085, "lng": 19.47265751970849}}}, "place_id": "ChIJkzVRdi_LG0cRIMXhgRsDc2Q", "types": ["establishment", "point_of_interest", "university"]}]}, "1318100756": {"AfN": "university school of colorado springs", "Location": [{"address_components": [{"long_name": "2713", "short_name": "2713", "types": ["street_number"]}, {"long_name": "West Cucharras Street", "short_name": "W Cucharras St", "types": ["route"]}, {"long_name": "Old Colorado City", "short_name": "Old Colorado City", "types": ["neighborhood", "political"]}, {"long_name": "Colorado Springs", "short_name": "Colorado Springs", "types": ["locality", "political"]}, {"long_name": "El Paso County", "short_name": "El Paso County", "types": ["administrative_area_level_2", "political"]}, {"long_name": "Colorado", "short_name": "CO", "types": ["administrative_area_level_1", "political"]}, {"long_name": "United States", "short_name": "US", "types": ["country", "political"]}, {"long_name": "80904", "short_name": "80904", "types": ["postal_code"]}], "formatted_address": "2713 W Cucharras St, Colorado Springs, CO 80904, USA", "geometry": {"location": {"lat": 38.848521, "lng": -104.867275}, "location_type": "ROOFTOP", "viewport": {"northeast": {"lat": 38.84986998029149, "lng": -104.8659260197085}, "southwest": {"lat": 38.8471720197085, "lng": -104.8686239802915}}}, "place_id": "ChIJm9aSE71aE4cRmnpfkSHZ9xc", "types": ["establishment", "point_of_interest", "school"]}]}, "1289702989": {"AfN": "university system of georgia", "Location": [{"address_components": [{"long_name": "270", "short_name": "270", "types": ["street_number"]}, {"long_name": "Washington Street Southwest", "short_name": "Washington St SW", "types": ["route"]}, {"long_name": "Downtown", "short_name": "Downtown", "types": ["neighborhood", "political"]}, {"long_name": "Atlanta", "short_name": "Atlanta", "types": ["locality", "political"]}, {"long_name": "Fulton County", "short_name": "Fulton County", "types": ["administrative_area_level_2", "political"]}, {"long_name": "Georgia", "short_name": "GA", "types": ["administrative_area_level_1", "political"]}, {"long_name": "United States", "short_name": "US", "types": ["country", "political"]}, {"long_name": "30334", "short_name": "30334", "types": ["postal_code"]}], "formatted_address": "270 Washington St SW, Atlanta, GA 30334, USA", "geometry": {"location": {"lat": 33.747412, "lng": -84.390149}, "location_type": "ROOFTOP", "viewport": {"northeast": {"lat": 33.74876098029149, "lng": -84.3888000197085}, "southwest": {"lat": 33.74606301970849, "lng": -84.3914979802915}}}, "place_id": "ChIJpRroHYUD9YgRVsXk1dmSW9s", "types": ["establishment", "point_of_interest", "university"]}]}, "1317227900": {"AfN": "university system of maryland", "Location": [{"address_components": [{"long_name": "3300", "short_name": "3300", "types": ["street_number"]}, {"long_name": "Metzerott Road", "short_name": "Metzerott Rd", "types": ["route"]}, {"long_name": "Adelphi", "short_name": "Adelphi", "types": ["locality", "political"]}, {"long_name": "Berwyn", "short_name": "21, Berwyn", "types": ["administrative_area_level_3", "political"]}, {"long_name": "Prince George's County", "short_name": "Prince George's County", "types": ["administrative_area_level_2", "political"]}, {"long_name": "Maryland", "short_name": "MD", "types": ["administrative_area_level_1", "political"]}, {"long_name": "United States", "short_name": "US", "types": ["country", "political"]}, {"long_name": "20783", "short_name": "20783", "types": ["postal_code"]}], "formatted_address": "3300 Metzerott Rd, Adelphi, MD 20783, USA", "geometry": {"location": {"lat": 39.0046189, "lng": -76.95420020000002}, "location_type": "ROOFTOP", "viewport": {"northeast": {"lat": 39.00596788029151, "lng": -76.95285121970852}, "southwest": {"lat": 39.00326991970851, "lng": -76.95554918029153}}}, "place_id": "ChIJF3dzgSjEt4kR3BOirEM5qHI", "types": ["establishment", "point_of_interest"]}]}, "1342417904": {"AfN": "uop llc", "Location": [{"address_components": [{"long_name": "760", "short_name": "760", "types": ["street_number"]}, {"long_name": "West Main Parkway", "short_name": "W Main Pkwy", "types": ["route"]}, {"long_name": "Catoosa", "short_name": "Catoosa", "types": ["locality", "political"]}, {"long_name": "Rogers County", "short_name": "Rogers County", "types": ["administrative_area_level_2", "political"]}, {"long_name": "Oklahoma", "short_name": "OK", "types": ["administrative_area_level_1", "political"]}, {"long_name": "United States", "short_name": "US", "types": ["country", "political"]}, {"long_name": "74015", "short_name": "74015", "types": ["postal_code"]}], "formatted_address": "760 W Main Pkwy, Catoosa, OK 74015, USA", "geometry": {"location": {"lat": 36.2341049, "lng": -95.7485251}, "location_type": "ROOFTOP", "viewport": {"northeast": {"lat": 36.23545388029149, "lng": -95.74717611970848}, "southwest": {"lat": 36.2327559197085, "lng": -95.74987408029149}}}, "place_id": "ChIJAf0Q0z_2tocR6Kf3csEvDt0", "types": ["establishment", "point_of_interest", "storage"]}]}, "906480834": {"AfN": "upc ireland", "Location": [{"address_components": [{"long_name": "Ushers", "short_name": "Ushers", "types": ["neighborhood", "political"]}, {"long_name": "Dublin", "short_name": "Dublin", "types": ["locality", "political"]}, {"long_name": "County Dublin", "short_name": "County Dublin", "types": ["administrative_area_level_1", "political"]}, {"long_name": "Ireland", "short_name": "IE", "types": ["country", "political"]}], "formatted_address": "Ushers, Dublin, Ireland", "geometry": {"location": {"lat": 53.3421505, "lng": -6.296357299999999}, "location_type": "GEOMETRIC_CENTER", "viewport": {"northeast": {"lat": 53.34349948029149, "lng": -6.295008319708497}, "southwest": {"lat": 53.34080151970849, "lng": -6.297706280291502}}}, "partial_match": true, "place_id": "ChIJVQQgjUcMZ0gRAejEI-dJ57s", "types": ["church", "establishment", "place_of_worship", "point_of_interest"]}]}, "124128386": {"AfN": "upjohn", "Location": [{"address_components": [{"long_name": "300", "short_name": "300", "types": ["street_number"]}, {"long_name": "South Westnedge Avenue", "short_name": "S Westnedge Ave", "types": ["route"]}, {"long_name": "Central Business District", "short_name": "Central Business District", "types": ["neighborhood", "political"]}, {"long_name": "Kalamazoo", "short_name": "Kalamazoo", "types": ["locality", "political"]}, {"long_name": "Kalamazoo County", "short_name": "Kalamazoo County", "types": ["administrative_area_level_2", "political"]}, {"long_name": "Michigan", "short_name": "MI", "types": ["administrative_area_level_1", "political"]}, {"long_name": "United States", "short_name": "US", "types": ["country", "political"]}, {"long_name": "49007", "short_name": "49007", "types": ["postal_code"]}], "formatted_address": "300 S Westnedge Ave, Kalamazoo, MI 49007, USA", "geometry": {"location": {"lat": 42.289198, "lng": -85.590265}, "location_type": "ROOFTOP", "viewport": {"northeast": {"lat": 42.2905469802915, "lng": -85.58891601970849}, "southwest": {"lat": 42.2878490197085, "lng": -85.5916139802915}}}, "place_id": "ChIJB4x5g0KdF4gRrFiSioEhIxs", "types": ["establishment", "point_of_interest"]}]}, "1308699925": {"AfN": "upmc hamot", "Location": [{"address_components": [{"long_name": "201", "short_name": "201", "types": ["street_number"]}, {"long_name": "State St", "short_name": "State St", "types": ["route"]}, {"long_name": "Erie", "short_name": "Erie", "types": ["locality", "political"]}, {"long_name": "Erie County", "short_name": "Erie County", "types": ["administrative_area_level_2", "political"]}, {"long_name": "Pennsylvania", "short_name": "PA", "types": ["administrative_area_level_1", "political"]}, {"long_name": "United States", "short_name": "US", "types": ["country", "political"]}, {"long_name": "16550", "short_name": "16550", "types": ["postal_code"]}, {"long_name": "0002", "short_name": "0002", "types": ["postal_code_suffix"]}], "formatted_address": "201 State St, Erie, PA 16550, USA", "geometry": {"location": {"lat": 42.1335862, "lng": -80.0869202}, "location_type": "ROOFTOP", "viewport": {"northeast": {"lat": 42.13493518029149, "lng": -80.0855712197085}, "southwest": {"lat": 42.1322372197085, "lng": -80.0882691802915}}}, "place_id": "ChIJk5PDQe5_LYgRhi0MboOwYyI", "types": ["establishment", "hospital", "point_of_interest"]}, {"address_components": [{"long_name": "200", "short_name": "200", "types": ["street_number"]}, {"long_name": "State Street", "short_name": "State St", "types": ["route"]}, {"long_name": "Erie", "short_name": "Erie", "types": ["locality", "political"]}, {"long_name": "Erie County", "short_name": "Erie County", "types": ["administrative_area_level_2", "political"]}, {"long_name": "Pennsylvania", "short_name": "PA", "types": ["administrative_area_level_1", "political"]}, {"long_name": "United States", "short_name": "US", "types": ["country", "political"]}, {"long_name": "16550", "short_name": "16550", "types": ["postal_code"]}], "formatted_address": "200 State St, Erie, PA 16550, USA", "geometry": {"location": {"lat": 42.1326544, "lng": -80.0884544}, "location_type": "ROOFTOP", "viewport": {"northeast": {"lat": 42.1340033802915, "lng": -80.0871054197085}, "southwest": {"lat": 42.1313054197085, "lng": -80.08980338029151}}}, "place_id": "ChIJOT57O_B_LYgRdcq1v_de3as", "types": ["establishment", "health", "point_of_interest"]}]}, "123387679": {"AfN": "uppsala university", "Location": [{"address_components": [{"long_name": "Uppsala", "short_name": "Uppsala", "types": ["locality", "political"]}, {"long_name": "K\u00e5bo", "short_name": "K\u00e5bo", "types": ["political", "sublocality", "sublocality_level_1"]}, {"long_name": "Uppsala", "short_name": "Uppsala", "types": ["postal_town"]}, {"long_name": "Uppsala County", "short_name": "Uppsala County", "types": ["administrative_area_level_1", "political"]}, {"long_name": "Sweden", "short_name": "SE", "types": ["country", "political"]}, {"long_name": "752 36", "short_name": "752 36", "types": ["postal_code"]}], "formatted_address": "Uppsala, 752 36 Uppsala, Sweden", "geometry": {"location": {"lat": 59.85090049999999, "lng": 17.6300093}, "location_type": "GEOMETRIC_CENTER", "viewport": {"northeast": {"lat": 59.8522494802915, "lng": 17.6313582802915}, "southwest": {"lat": 59.84955151970848, "lng": 17.62866031970849}}}, "place_id": "ChIJE65Zh-_LX0YR1Yh_NTFb3lI", "types": ["establishment", "point_of_interest", "university"]}]}, "1342360035": {"AfN": "uppsala university hospital", "Location": [{"address_components": [{"long_name": "85", "short_name": "85", "types": ["street_number"]}, {"long_name": "Sjukhusv\u00e4gen", "short_name": "Sjukhusv\u00e4gen", "types": ["route"]}, {"long_name": "Fj\u00e4rdingen", "short_name": "Fj\u00e4rdingen", "types": ["political", "sublocality", "sublocality_level_1"]}, {"long_name": "Uppsala", "short_name": "Uppsala", "types": ["postal_town"]}, {"long_name": "Uppsala l\u00e4n", "short_name": "Uppsala l\u00e4n", "types": ["administrative_area_level_1", "political"]}, {"long_name": "Sweden", "short_name": "SE", "types": ["country", "political"]}, {"long_name": "751 85", "short_name": "751 85", "types": ["postal_code"]}], "formatted_address": "Sjukhusv\u00e4gen 85, 751 85 Uppsala, Sweden", "geometry": {"location": {"lat": 59.8484837, "lng": 17.6407363}, "location_type": "ROOFTOP", "viewport": {"northeast": {"lat": 59.8498326802915, "lng": 17.6420852802915}, "southwest": {"lat": 59.84713471970849, "lng": 17.6393873197085}}}, "place_id": "ChIJvybB5-TLX0YRN5I8i8dU5sw", "types": ["establishment", "hospital", "point_of_interest"]}, {"address_components": [{"long_name": "10", "short_name": "10", "types": ["street_number"]}, {"long_name": "Sjukhusv\u00e4gen", "short_name": "Sjukhusv\u00e4gen", "types": ["route"]}, {"long_name": "Fj\u00e4rdingen", "short_name": "Fj\u00e4rdingen", "types": ["political", "sublocality", "sublocality_level_1"]}, {"long_name": "Uppsala", "short_name": "Uppsala", "types": ["postal_town"]}, {"long_name": "Uppsala l\u00e4n", "short_name": "Uppsala l\u00e4n", "types": ["administrative_area_level_1", "political"]}, {"long_name": "Sweden", "short_name": "SE", "types": ["country", "political"]}, {"long_name": "751 85", "short_name": "751 85", "types": ["postal_code"]}], "formatted_address": "Sjukhusv\u00e4gen 10, 751 85 Uppsala, Sweden", "geometry": {"location": {"lat": 59.85183439999999, "lng": 17.6377125}, "location_type": "ROOFTOP", "viewport": {"northeast": {"lat": 59.8531833802915, "lng": 17.6390614802915}, "southwest": {"lat": 59.85048541970849, "lng": 17.6363635197085}}}, "place_id": "ChIJw0HjnfrLX0YRKw7kDMJLjJM", "types": ["establishment", "health", "hospital", "point_of_interest"]}]}, "26005898": {"AfN": "uprrp college of natural sciences", "Location": [{"address_components": [{"long_name": "R\u00edo Piedras", "short_name": "R\u00edo Piedras", "types": ["political", "sublocality", "sublocality_level_1"]}, {"long_name": "San Juan", "short_name": "San Juan", "types": ["locality", "political"]}, {"long_name": "San Juan", "short_name": "San Juan", "types": ["administrative_area_level_1", "political"]}, {"long_name": "Puerto Rico", "short_name": "PR", "types": ["country", "political"]}, {"long_name": "00925", "short_name": "00925", "types": ["postal_code"]}], "formatted_address": "R\u00edo Piedras, San Juan, 00925, Puerto Rico", "geometry": {"location": {"lat": 18.4040311, "lng": -66.046235}, "location_type": "GEOMETRIC_CENTER", "viewport": {"northeast": {"lat": 18.4053800802915, "lng": -66.0448860197085}, "southwest": {"lat": 18.4026821197085, "lng": -66.0475839802915}}}, "place_id": "ChIJf3sW1SlmA4wRip_2xxGMBTE", "types": ["establishment", "point_of_interest"]}, {"address_components": [{"long_name": "Avenida Doctor Jos\u00e9 N. G\u00e1ndara", "short_name": "Av. Dr. Jos\u00e9 N. G\u00e1ndara", "types": ["route"]}, {"long_name": "Rio Piedras", "short_name": "Rio Piedras", "types": ["political", "sublocality", "sublocality_level_1"]}, {"long_name": "San Juan", "short_name": "San Juan", "types": ["locality", "political"]}, {"long_name": "San Juan", "short_name": "San Juan", "types": ["administrative_area_level_1", "political"]}, {"long_name": "Puerto Rico", "short_name": "PR", "types": ["country", "political"]}, {"long_name": "00931", "short_name": "00931", "types": ["postal_code"]}], "formatted_address": "Av. Dr. Jos\u00e9 N. G\u00e1ndara, San Juan, 00931, Puerto Rico", "geometry": {"location": {"lat": 18.4028091, "lng": -66.05004070000001}, "location_type": "GEOMETRIC_CENTER", "viewport": {"northeast": {"lat": 18.4041580802915, "lng": -66.04869171970851}, "southwest": {"lat": 18.4014601197085, "lng": -66.05138968029152}}}, "place_id": "ChIJZZjo3YJoA4wRW8q6dytkckQ", "types": ["establishment", "point_of_interest", "university"]}]}, "156071443": {"AfN": "upsala college", "Location": [{"address_components": [{"long_name": "2B", "short_name": "2B", "types": ["street_number"]}, {"long_name": "Portalgatan", "short_name": "Portalgatan", "types": ["route"]}, {"long_name": "Uppsala", "short_name": "Uppsala", "types": ["postal_town"]}, {"long_name": "Uppsala l\u00e4n", "short_name": "Uppsala l\u00e4n", "types": ["administrative_area_level_1", "political"]}, {"long_name": "Sweden", "short_name": "SE", "types": ["country", "political"]}, {"long_name": "754 23", "short_name": "754 23", "types": ["postal_code"]}], "formatted_address": "Portalgatan 2B, 754 23 Uppsala, Sweden", "geometry": {"location": {"lat": 59.865891, "lng": 17.6373824}, "location_type": "ROOFTOP", "viewport": {"northeast": {"lat": 59.86723998029151, "lng": 17.6387313802915}, "southwest": {"lat": 59.86454201970849, "lng": 17.6360334197085}}}, "place_id": "ChIJ7V2B0wvMX0YR5xK_j6_7tgk", "types": ["establishment", "point_of_interest", "university"]}]}, "130823665": {"AfN": "ural federal university", "Location": [{"address_components": [{"long_name": "51", "short_name": "51", "types": ["street_number"]}, {"long_name": "Lenin Avenue", "short_name": "Lenin Ave", "types": ["route"]}, {"long_name": "Yekaterinburg", "short_name": "Yekaterinburg", "types": ["locality", "political"]}, {"long_name": "Yekaterinburg", "short_name": "Yekaterinburg", "types": ["administrative_area_level_2", "political"]}, {"long_name": "Sverdlovskaya oblast'", "short_name": "Sverdlovskaya oblast'", "types": ["administrative_area_level_1", "political"]}, {"long_name": "Russia", "short_name": "RU", "types": ["country", "political"]}, {"long_name": "620075", "short_name": "620075", "types": ["postal_code"]}], "formatted_address": "Lenin Ave, 51, Yekaterinburg, Sverdlovskaya oblast', Russia, 620075", "geometry": {"location": {"lat": 56.8404249, "lng": 60.6161195}, "location_type": "ROOFTOP", "viewport": {"northeast": {"lat": 56.8417738802915, "lng": 60.6174684802915}, "southwest": {"lat": 56.8390759197085, "lng": 60.61477051970849}}}, "place_id": "ChIJhUvIJYZuwUMR7NTtleNdymo", "types": ["establishment", "point_of_interest", "university"]}]}, "138819846": {"AfN": "ural state university", "Location": [{"address_components": [{"long_name": "21", "short_name": "21", "types": ["street_number"]}, {"long_name": "Komsomol'skaya Ulitsa", "short_name": "Komsomol'skaya Ulitsa", "types": ["route"]}, {"long_name": "Yekaterinburg", "short_name": "Yekaterinburg", "types": ["locality", "political"]}, {"long_name": "Yekaterinburg", "short_name": "Yekaterinburg", "types": ["administrative_area_level_2", "political"]}, {"long_name": "Sverdlovskaya oblast'", "short_name": "Sverdlovskaya oblast'", "types": ["administrative_area_level_1", "political"]}, {"long_name": "Russia", "short_name": "RU", "types": ["country", "political"]}, {"long_name": "620137", "short_name": "620137", "types": ["postal_code"]}], "formatted_address": "Komsomol'skaya Ulitsa, 21, Yekaterinburg, Sverdlovskaya oblast', Russia, 620137", "geometry": {"location": {"lat": 56.8506434, "lng": 60.6572468}, "location_type": "ROOFTOP", "viewport": {"northeast": {"lat": 56.8519923802915, "lng": 60.65859578029151}, "southwest": {"lat": 56.8492944197085, "lng": 60.6558978197085}}}, "partial_match": true, "place_id": "ChIJJQZUlDNswUMRNis-vbde210", "types": ["establishment", "point_of_interest", "university"]}]}, "183320395": {"AfN": "urban institute", "Location": [{"address_components": [{"long_name": "2100", "short_name": "2100", "types": ["street_number"]}, {"long_name": "M Street Northwest", "short_name": "M St NW", "types": ["route"]}, {"long_name": "Downtown", "short_name": "Downtown", "types": ["neighborhood", "political"]}, {"long_name": "Washington", "short_name": "Washington", "types": ["locality", "political"]}, {"long_name": "District of Columbia", "short_name": "DC", "types": ["administrative_area_level_1", "political"]}, {"long_name": "United States", "short_name": "US", "types": ["country", "political"]}, {"long_name": "20037", "short_name": "20037", "types": ["postal_code"]}, {"long_name": "1207", "short_name": "1207", "types": ["postal_code_suffix"]}], "formatted_address": "2100 M St NW, Washington, DC 20037, USA", "geometry": {"location": {"lat": 38.9048453, "lng": -77.04694719999999}, "location_type": "ROOFTOP", "viewport": {"northeast": {"lat": 38.9061942802915, "lng": -77.04559821970848}, "southwest": {"lat": 38.9034963197085, "lng": -77.04829618029149}}}, "place_id": "ChIJY4t-r7e3t4kRS40wybBEQu4", "types": ["establishment", "point_of_interest"]}]}, "183874917": {"AfN": "urbana university", "Location": [{"address_components": [{"long_name": "579", "short_name": "579", "types": ["street_number"]}, {"long_name": "College Way", "short_name": "College Way", "types": ["route"]}, {"long_name": "Urbana", "short_name": "Urbana", "types": ["locality", "political"]}, {"long_name": "Urbana Township", "short_name": "Urbana Township", "types": ["administrative_area_level_3", "political"]}, {"long_name": "Champaign County", "short_name": "Champaign County", "types": ["administrative_area_level_2", "political"]}, {"long_name": "Ohio", "short_name": "OH", "types": ["administrative_area_level_1", "political"]}, {"long_name": "United States", "short_name": "US", "types": ["country", "political"]}, {"long_name": "43078", "short_name": "43078", "types": ["postal_code"]}], "formatted_address": "579 College Way, Urbana, OH 43078, USA", "geometry": {"location": {"lat": 40.100596, "lng": -83.761111}, "location_type": "ROOFTOP", "viewport": {"northeast": {"lat": 40.10194498029149, "lng": -83.75976201970849}, "southwest": {"lat": 40.0992470197085, "lng": -83.7624599802915}}}, "place_id": "ChIJOfP5a39IP4gRU1Q1a3xAGMs", "types": ["accounting", "establishment", "finance", "library", "point_of_interest", "school", "university"]}]}, "38476204": {"AfN": "urmia university", "Location": [{"address_components": [{"long_name": "Urmia Lake Bridge", "short_name": "Urmia Lake Bridge", "types": ["route"]}, {"long_name": "West Azerbaijan Province", "short_name": "West Azerbaijan Province", "types": ["administrative_area_level_1", "political"]}, {"long_name": "Iran", "short_name": "IR", "types": ["country", "political"]}], "formatted_address": "West Azerbaijan Province, 24\u060c Urmia Lake Bridge, Iran", "geometry": {"location": {"lat": 37.5287405, "lng": 45.0468582}, "location_type": "GEOMETRIC_CENTER", "viewport": {"northeast": {"lat": 37.5300894802915, "lng": 45.0482071802915}, "southwest": {"lat": 37.5273915197085, "lng": 45.0455092197085}}}, "place_id": "ChIJZe7MG7lTBUAR-UVQmYT9gyI", "types": ["establishment", "point_of_interest", "university"]}]}, "100755821": {"AfN": "urs corporation", "Location": [{"address_components": [{"long_name": "# 1020", "short_name": "# 1020", "types": ["subpremise"]}, {"long_name": "1437", "short_name": "1437", "types": ["street_number"]}, {"long_name": "South Boulder Avenue West", "short_name": "South Boulder Ave W", "types": ["route"]}, {"long_name": "Riverview", "short_name": "Riverview", "types": ["neighborhood", "political"]}, {"long_name": "Tulsa", "short_name": "Tulsa", "types": ["locality", "political"]}, {"long_name": "Tulsa County", "short_name": "Tulsa County", "types": ["administrative_area_level_2", "political"]}, {"long_name": "Oklahoma", "short_name": "OK", "types": ["administrative_area_level_1", "political"]}, {"long_name": "United States", "short_name": "US", "types": ["country", "political"]}, {"long_name": "74119", "short_name": "74119", "types": ["postal_code"]}, {"long_name": "3645", "short_name": "3645", "types": ["postal_code_suffix"]}], "formatted_address": "1437 South Boulder Ave W # 1020, Tulsa, OK 74119, USA", "geometry": {"location": {"lat": 36.14085499999999, "lng": -95.988214}, "location_type": "ROOFTOP", "viewport": {"northeast": {"lat": 36.14220398029149, "lng": -95.98686501970849}, "southwest": {"lat": 36.13950601970849, "lng": -95.9895629802915}}}, "place_id": "ChIJ44Hf_WPrtocRsGP9LhW43UI", "types": ["establishment", "point_of_interest"]}]}, "177753169": {"AfN": "ursinus college", "Location": [{"address_components": [{"long_name": "601", "short_name": "601", "types": ["street_number"]}, {"long_name": "East Main Street", "short_name": "E Main St", "types": ["route"]}, {"long_name": "Collegeville", "short_name": "Collegeville", "types": ["locality", "political"]}, {"long_name": "Montgomery County", "short_name": "Montgomery County", "types": ["administrative_area_level_2", "political"]}, {"long_name": "Pennsylvania", "short_name": "PA", "types": ["administrative_area_level_1", "political"]}, {"long_name": "United States", "short_name": "US", "types": ["country", "political"]}, {"long_name": "19426", "short_name": "19426", "types": ["postal_code"]}], "formatted_address": "601 E Main St, Collegeville, PA 19426, USA", "geometry": {"location": {"lat": 40.1915099, "lng": -75.4558588}, "location_type": "ROOFTOP", "viewport": {"northeast": {"lat": 40.1928588802915, "lng": -75.4545098197085}, "southwest": {"lat": 40.1901609197085, "lng": -75.45720778029151}}}, "place_id": "ChIJWawyy6GQxokRqaY_hubtsdk", "types": ["establishment", "museum", "point_of_interest", "university"]}]}, "202189255": {"AfN": "usg corporation", "Location": [{"address_components": [{"long_name": "550", "short_name": "550", "types": ["street_number"]}, {"long_name": "West Adams Street", "short_name": "W Adams St", "types": ["route"]}, {"long_name": "Near West Side", "short_name": "Near West Side", "types": ["neighborhood", "political"]}, {"long_name": "Chicago", "short_name": "Chicago", "types": ["locality", "political"]}, {"long_name": "Cook County", "short_name": "Cook County", "types": ["administrative_area_level_2", "political"]}, {"long_name": "Illinois", "short_name": "IL", "types": ["administrative_area_level_1", "political"]}, {"long_name": "United States", "short_name": "US", "types": ["country", "political"]}, {"long_name": "60661", "short_name": "60661", "types": ["postal_code"]}, {"long_name": "3676", "short_name": "3676", "types": ["postal_code_suffix"]}], "formatted_address": "550 W Adams St, Chicago, IL 60661, USA", "geometry": {"location": {"lat": 41.8795135, "lng": -87.6417287}, "location_type": "ROOFTOP", "viewport": {"northeast": {"lat": 41.8808624802915, "lng": -87.6403797197085}, "southwest": {"lat": 41.8781645197085, "lng": -87.64307768029151}}}, "place_id": "ChIJXwtQPcEsDogR3eS0XQAucJo", "types": ["establishment", "point_of_interest"]}]}, "19861218": {"AfN": "usman institute of technology", "Location": [{"address_components": [{"long_name": "Block 7", "short_name": "Block 7", "types": ["political", "sublocality", "sublocality_level_2"]}, {"long_name": "Gulshan-e-Iqbal", "short_name": "Gulshan-e-Iqbal", "types": ["political", "sublocality", "sublocality_level_1"]}, {"long_name": "Karachi", "short_name": "Karachi", "types": ["locality", "political"]}, {"long_name": "Karachi City", "short_name": "Karachi City", "types": ["administrative_area_level_2", "political"]}, {"long_name": "Sindh", "short_name": "Sindh", "types": ["administrative_area_level_1", "political"]}, {"long_name": "Pakistan", "short_name": "PK", "types": ["country", "political"]}, {"long_name": "75300", "short_name": "75300", "types": ["postal_code"]}], "formatted_address": "ST-13, Block 7, Gulshan-e-Iqbal\u060c Abul Hasan Isphahani Road, Opposite Safari Park\u060c Block 7 Gulshan-e-Iqbal, Karachi, Karachi City, Sindh 75300, Pakistan", "geometry": {"location": {"lat": 24.927906, "lng": 67.108734}, "location_type": "GEOMETRIC_CENTER", "viewport": {"northeast": {"lat": 24.9292549802915, "lng": 67.11008298029151}, "southwest": {"lat": 24.9265570197085, "lng": 67.1073850197085}}}, "place_id": "ChIJCRtXAMc4sz4RavN3nrJ5Z9g", "types": ["establishment", "point_of_interest", "university"]}]}, "1291542325": {"AfN": "utah division of wildlife resources", "Location": [{"address_components": [{"long_name": "1115", "short_name": "1115", "types": ["street_number"]}, {"long_name": "North Main Street", "short_name": "N Main St", "types": ["route"]}, {"long_name": "Springville", "short_name": "Springville", "types": ["locality", "political"]}, {"long_name": "Utah County", "short_name": "Utah County", "types": ["administrative_area_level_2", "political"]}, {"long_name": "Utah", "short_name": "UT", "types": ["administrative_area_level_1", "political"]}, {"long_name": "United States", "short_name": "US", "types": ["country", "political"]}, {"long_name": "84663", "short_name": "84663", "types": ["postal_code"]}], "formatted_address": "1115 N Main St, Springville, UT 84663, USA", "geometry": {"location": {"lat": 40.1822433, "lng": -111.6114913}, "location_type": "ROOFTOP", "viewport": {"northeast": {"lat": 40.18359228029149, "lng": -111.6101423197085}, "southwest": {"lat": 40.1808943197085, "lng": -111.6128402802915}}}, "place_id": "ChIJvfshxjaWTYcR4zX3Tynz8y8", "types": ["establishment", "local_government_office", "point_of_interest"]}]}, "341704201": {"AfN": "utah state historical society", "Location": [{"address_components": [{"long_name": "300", "short_name": "300", "types": ["street_number"]}, {"long_name": "South Rio Grande Street", "short_name": "S Rio Grande St", "types": ["route"]}, {"long_name": "Downtown", "short_name": "Downtown", "types": ["neighborhood", "political"]}, {"long_name": "Salt Lake City", "short_name": "Salt Lake City", "types": ["locality", "political"]}, {"long_name": "Salt Lake County", "short_name": "Salt Lake County", "types": ["administrative_area_level_2", "political"]}, {"long_name": "Utah", "short_name": "UT", "types": ["administrative_area_level_1", "political"]}, {"long_name": "United States", "short_name": "US", "types": ["country", "political"]}, {"long_name": "84101", "short_name": "84101", "types": ["postal_code"]}, {"long_name": "1182", "short_name": "1182", "types": ["postal_code_suffix"]}], "formatted_address": "300 S Rio Grande St, Salt Lake City, UT 84101, USA", "geometry": {"location": {"lat": 40.7628955, "lng": -111.9046202}, "location_type": "ROOFTOP", "viewport": {"northeast": {"lat": 40.7642444802915, "lng": -111.9032712197085}, "southwest": {"lat": 40.7615465197085, "lng": -111.9059691802915}}}, "place_id": "ChIJ6dB8f_30UocRKFNgTTHT59E", "types": ["establishment", "local_government_office", "point_of_interest"]}, {"address_components": [{"long_name": "300", "short_name": "300", "types": ["street_number"]}, {"long_name": "South Rio Grande Street", "short_name": "S Rio Grande St", "types": ["route"]}, {"long_name": "Downtown", "short_name": "Downtown", "types": ["neighborhood", "political"]}, {"long_name": "Salt Lake City", "short_name": "Salt Lake City", "types": ["locality", "political"]}, {"long_name": "Salt Lake County", "short_name": "Salt Lake County", "types": ["administrative_area_level_2", "political"]}, {"long_name": "Utah", "short_name": "UT", "types": ["administrative_area_level_1", "political"]}, {"long_name": "United States", "short_name": "US", "types": ["country", "political"]}, {"long_name": "84101", "short_name": "84101", "types": ["postal_code"]}, {"long_name": "1106", "short_name": "1106", "types": ["postal_code_suffix"]}], "formatted_address": "300 S Rio Grande St, Salt Lake City, UT 84101, USA", "geometry": {"location": {"lat": 40.7624101, "lng": -111.9046191}, "location_type": "ROOFTOP", "viewport": {"northeast": {"lat": 40.76375908029149, "lng": -111.9032701197085}, "southwest": {"lat": 40.76106111970849, "lng": -111.9059680802915}}}, "place_id": "ChIJ6dB8f_30UocRoJV2Tlx4XpE", "types": ["establishment", "library", "local_government_office", "point_of_interest"]}]}, "121980950": {"AfN": "utah state university", "Location": [{"address_components": [{"long_name": "Logan", "short_name": "Logan", "types": ["locality", "political"]}, {"long_name": "Cache County", "short_name": "Cache County", "types": ["administrative_area_level_2", "political"]}, {"long_name": "Utah", "short_name": "UT", "types": ["administrative_area_level_1", "political"]}, {"long_name": "United States", "short_name": "US", "types": ["country", "political"]}, {"long_name": "84322", "short_name": "84322", "types": ["postal_code"]}], "formatted_address": "Logan, UT 84322, USA", "geometry": {"location": {"lat": 41.745161, "lng": -111.8097425}, "location_type": "GEOMETRIC_CENTER", "viewport": {"northeast": {"lat": 41.7465099802915, "lng": -111.8083935197085}, "southwest": {"lat": 41.7438120197085, "lng": -111.8110914802915}}}, "place_id": "ChIJ7Uuo731-VIcRHL1k1uZNQPw", "types": ["establishment", "point_of_interest", "university"]}, {"address_components": [{"long_name": "3100", "short_name": "3100", "types": ["street_number"]}, {"long_name": "Old Main Hill", "short_name": "Old Main Hill", "types": ["route"]}, {"long_name": "Logan", "short_name": "Logan", "types": ["locality", "political"]}, {"long_name": "Cache County", "short_name": "Cache County", "types": ["administrative_area_level_2", "political"]}, {"long_name": "Utah", "short_name": "UT", "types": ["administrative_area_level_1", "political"]}, {"long_name": "United States", "short_name": "US", "types": ["country", "political"]}, {"long_name": "84322", "short_name": "84322", "types": ["postal_code"]}, {"long_name": "3100", "short_name": "3100", "types": ["postal_code_suffix"]}], "formatted_address": "3100 Old Main Hill, Logan, UT 84322, USA", "geometry": {"location": {"lat": 41.7421417, "lng": -111.809039}, "location_type": "ROOFTOP", "viewport": {"northeast": {"lat": 41.74349068029149, "lng": -111.8076900197085}, "southwest": {"lat": 41.74079271970849, "lng": -111.8103879802915}}}, "place_id": "ChIJ7Uuo731-VIcREysZjBaI2Nw", "types": ["establishment", "library", "point_of_interest"]}]}, "197572798": {"AfN": "utah valley university", "Location": [{"address_components": [{"long_name": "800", "short_name": "800", "types": ["street_number"]}, {"long_name": "West University Parkway", "short_name": "W University Pkwy", "types": ["route"]}, {"long_name": "Sunset Heights", "short_name": "Sunset Heights", "types": ["neighborhood", "political"]}, {"long_name": "Orem", "short_name": "Orem", "types": ["locality", "political"]}, {"long_name": "Utah County", "short_name": "Utah County", "types": ["administrative_area_level_2", "political"]}, {"long_name": "Utah", "short_name": "UT", "types": ["administrative_area_level_1", "political"]}, {"long_name": "United States", "short_name": "US", "types": ["country", "political"]}, {"long_name": "84058", "short_name": "84058", "types": ["postal_code"]}], "formatted_address": "800 W University Pkwy, Orem, UT 84058, USA", "geometry": {"location": {"lat": 40.2788306, "lng": -111.7151968}, "location_type": "ROOFTOP", "viewport": {"northeast": {"lat": 40.2801795802915, "lng": -111.7138478197085}, "southwest": {"lat": 40.2774816197085, "lng": -111.7165457802915}}}, "place_id": "ChIJxfW57h6bTYcRoYrpE4Q9UmM", "types": ["establishment", "point_of_interest", "university"]}]}, "75137553": {"AfN": "utc power", "Location": [{"address_components": [{"long_name": "# 301", "short_name": "# 301", "types": ["subpremise"]}, {"long_name": "2701", "short_name": "2701", "types": ["street_number"]}, {"long_name": "Liberty Parkway", "short_name": "Liberty Pkwy", "types": ["route"]}, {"long_name": "Oklahoma City", "short_name": "Oklahoma City", "types": ["locality", "political"]}, {"long_name": "Oklahoma County", "short_name": "Oklahoma County", "types": ["administrative_area_level_2", "political"]}, {"long_name": "Oklahoma", "short_name": "OK", "types": ["administrative_area_level_1", "political"]}, {"long_name": "United States", "short_name": "US", "types": ["country", "political"]}, {"long_name": "73110", "short_name": "73110", "types": ["postal_code"]}, {"long_name": "2895", "short_name": "2895", "types": ["postal_code_suffix"]}], "formatted_address": "2701 Liberty Pkwy # 301, Oklahoma City, OK 73110, USA", "geometry": {"location": {"lat": 35.4377752, "lng": -97.4226513}, "location_type": "ROOFTOP", "viewport": {"northeast": {"lat": 35.4391241802915, "lng": -97.4213023197085}, "southwest": {"lat": 35.4364262197085, "lng": -97.42400028029151}}}, "place_id": "ChIJ2RZ1N-89socRs0G2WekXeNo", "types": ["establishment", "point_of_interest"]}]}, "104579289": {"AfN": "utica college", "Location": [{"address_components": [{"long_name": "1600", "short_name": "1600", "types": ["street_number"]}, {"long_name": "Burrstone Road", "short_name": "Burrstone Rd", "types": ["route"]}, {"long_name": "Utica", "short_name": "Utica", "types": ["locality", "political"]}, {"long_name": "Oneida County", "short_name": "Oneida County", "types": ["administrative_area_level_2", "political"]}, {"long_name": "New York", "short_name": "NY", "types": ["administrative_area_level_1", "political"]}, {"long_name": "United States", "short_name": "US", "types": ["country", "political"]}, {"long_name": "13502", "short_name": "13502", "types": ["postal_code"]}], "formatted_address": "1600 Burrstone Rd, Utica, NY 13502, USA", "geometry": {"location": {"lat": 43.0936618, "lng": -75.2714604}, "location_type": "ROOFTOP", "viewport": {"northeast": {"lat": 43.0950107802915, "lng": -75.2701114197085}, "southwest": {"lat": 43.0923128197085, "lng": -75.2728093802915}}}, "place_id": "ChIJaWUiqxhB2YkRIuZiXx5KVkY", "types": ["establishment", "point_of_interest", "university"]}]}, "70699430": {"AfN": "utkal university", "Location": [{"address_components": [{"long_name": "Bhubaneswar", "short_name": "Bhubaneswar", "types": ["locality", "political"]}, {"long_name": "Odisha", "short_name": "OD", "types": ["administrative_area_level_1", "political"]}, {"long_name": "India", "short_name": "IN", "types": ["country", "political"]}, {"long_name": "751004", "short_name": "751004", "types": ["postal_code"]}], "formatted_address": "Vani Vihar, Bhubaneswar, Odisha 751004, India", "geometry": {"location": {"lat": 20.3030798, "lng": 85.8399092}, "location_type": "GEOMETRIC_CENTER", "viewport": {"northeast": {"lat": 20.3044287802915, "lng": 85.8412581802915}, "southwest": {"lat": 20.3017308197085, "lng": 85.83856021970848}}}, "place_id": "ChIJtRaE-_IJGToRhjHQzAxFSvA", "types": ["establishment", "point_of_interest", "university"]}, {"address_components": [{"long_name": "University Administrative Building", "short_name": "University Administrative Building", "types": ["premise"]}, {"long_name": "Utkal Univarsity", "short_name": "Utkal Univarsity", "types": ["political", "sublocality", "sublocality_level_2"]}, {"long_name": "Vani Vihar", "short_name": "Vani Vihar", "types": ["political", "sublocality", "sublocality_level_1"]}, {"long_name": "Bhubaneswar", "short_name": "Bhubaneswar", "types": ["locality", "political"]}, {"long_name": "Khordha", "short_name": "Khordha", "types": ["administrative_area_level_2", "political"]}, {"long_name": "Odisha", "short_name": "OD", "types": ["administrative_area_level_1", "political"]}, {"long_name": "India", "short_name": "IN", "types": ["country", "political"]}, {"long_name": "751004", "short_name": "751004", "types": ["postal_code"]}], "formatted_address": "University Administrative Building, Utkal Univarsity, Vani Vihar, Bhubaneswar, Odisha 751004, India", "geometry": {"location": {"lat": 20.3003077, "lng": 85.83978549999999}, "location_type": "ROOFTOP", "viewport": {"northeast": {"lat": 20.3016566802915, "lng": 85.8411344802915}, "southwest": {"lat": 20.29895871970849, "lng": 85.8384365197085}}}, "place_id": "ChIJVVUlPfIJGToRf5pnNxsV7ko", "types": ["establishment", "point_of_interest"]}]}, "193662353": {"AfN": "utrecht university", "Location": [{"address_components": [{"long_name": "29", "short_name": "29", "types": ["street_number"]}, {"long_name": "Domplein", "short_name": "Domplein", "types": ["route"]}, {"long_name": "Utrecht", "short_name": "Utrecht", "types": ["locality", "political"]}, {"long_name": "Utrecht", "short_name": "Utrecht", "types": ["administrative_area_level_2", "political"]}, {"long_name": "Utrecht", "short_name": "UT", "types": ["administrative_area_level_1", "political"]}, {"long_name": "Netherlands", "short_name": "NL", "types": ["country", "political"]}, {"long_name": "3512 JE", "short_name": "3512 JE", "types": ["postal_code"]}], "formatted_address": "Domplein 29, 3512 JE Utrecht, Netherlands", "geometry": {"location": {"lat": 52.0901527, "lng": 5.1226018}, "location_type": "ROOFTOP", "viewport": {"northeast": {"lat": 52.0915016802915, "lng": 5.123950780291502}, "southwest": {"lat": 52.0888037197085, "lng": 5.121252819708498}}}, "place_id": "ChIJiW8TVFBvxkcRNlvU-qGhNNc", "types": ["establishment", "point_of_interest", "university"]}]}, "207399273": {"AfN": "utsunomiya university", "Location": [{"address_components": [{"long_name": "350", "short_name": "350", "types": ["premise"]}, {"long_name": "Minemachi", "short_name": "Minemachi", "types": ["political", "sublocality", "sublocality_level_2"]}, {"long_name": "Utsunomiya", "short_name": "Utsunomiya", "types": ["locality", "political"]}, {"long_name": "Tochigi Prefecture", "short_name": "Tochigi Prefecture", "types": ["administrative_area_level_1", "political"]}, {"long_name": "Japan", "short_name": "JP", "types": ["country", "political"]}, {"long_name": "321-8505", "short_name": "321-8505", "types": ["postal_code"]}], "formatted_address": "350 Minemachi, Utsunomiya, Tochigi Prefecture 321-8505, Japan", "geometry": {"location": {"lat": 36.550972, "lng": 139.912712}, "location_type": "ROOFTOP", "viewport": {"northeast": {"lat": 36.5523209802915, "lng": 139.9140609802915}, "southwest": {"lat": 36.54962301970851, "lng": 139.9113630197085}}}, "place_id": "ChIJXSRVsvtdH2AR4TwSyf6VEfo", "types": ["establishment", "point_of_interest", "university"]}, {"address_components": [{"long_name": "2", "short_name": "2", "types": ["premise"]}, {"long_name": "1", "short_name": "1", "types": ["political", "sublocality", "sublocality_level_4"]}, {"long_name": "7 Chome", "short_name": "7 Chome", "types": ["political", "sublocality", "sublocality_level_3"]}, {"long_name": "Yoto", "short_name": "Yoto", "types": ["political", "sublocality", "sublocality_level_2"]}, {"long_name": "Utsunomiya", "short_name": "Utsunomiya", "types": ["locality", "political"]}, {"long_name": "Tochigi Prefecture", "short_name": "Tochigi Prefecture", "types": ["administrative_area_level_1", "political"]}, {"long_name": "Japan", "short_name": "JP", "types": ["country", "political"]}, {"long_name": "321-8585", "short_name": "321-8585", "types": ["postal_code"]}], "formatted_address": "7 Chome-1-2 Yoto, Utsunomiya, Tochigi Prefecture 321-8585, Japan", "geometry": {"location": {"lat": 36.5505433, "lng": 139.9306626}, "location_type": "ROOFTOP", "viewport": {"northeast": {"lat": 36.5518922802915, "lng": 139.9320115802915}, "southwest": {"lat": 36.5491943197085, "lng": 139.9293136197085}}}, "place_id": "ChIJhV7hsvtdH2ARcmtoLJ54db0", "types": ["establishment", "point_of_interest", "university"]}]}, "204866599": {"AfN": "va palo alto healthcare system", "Location": [{"address_components": [{"long_name": "4951", "short_name": "4951", "types": ["street_number"]}, {"long_name": "Arroyo Road", "short_name": "Arroyo Rd", "types": ["route"]}, {"long_name": "Livermore", "short_name": "Livermore", "types": ["locality", "political"]}, {"long_name": "Alameda County", "short_name": "Alameda County", "types": ["administrative_area_level_2", "political"]}, {"long_name": "California", "short_name": "CA", "types": ["administrative_area_level_1", "political"]}, {"long_name": "United States", "short_name": "US", "types": ["country", "political"]}, {"long_name": "94550", "short_name": "94550", "types": ["postal_code"]}], "formatted_address": "4951 Arroyo Rd, Livermore, CA 94550, USA", "geometry": {"location": {"lat": 37.62552, "lng": -121.763119}, "location_type": "ROOFTOP", "viewport": {"northeast": {"lat": 37.6268689802915, "lng": -121.7617700197085}, "southwest": {"lat": 37.62417101970851, "lng": -121.7644679802915}}}, "place_id": "ChIJwRHAv1Pcj4ARFTi87T-bpSU", "types": ["establishment", "hospital", "point_of_interest"]}]}, "1323355662": {"AfN": "vaccine and infectious disease organization", "Location": [{"address_components": [{"long_name": "7201", "short_name": "7201", "types": ["street_number"]}, {"long_name": "Wisconsin Avenue", "short_name": "Wisconsin Ave", "types": ["route"]}, {"long_name": "Bethesda", "short_name": "Bethesda", "types": ["locality", "political"]}, {"long_name": "7", "short_name": "7", "types": ["administrative_area_level_3", "political"]}, {"long_name": "Montgomery County", "short_name": "Montgomery County", "types": ["administrative_area_level_2", "political"]}, {"long_name": "Maryland", "short_name": "MD", "types": ["administrative_area_level_1", "political"]}, {"long_name": "United States", "short_name": "US", "types": ["country", "political"]}, {"long_name": "20814", "short_name": "20814", "types": ["postal_code"]}], "formatted_address": "7201 Wisconsin Ave, Bethesda, MD 20814, USA", "geometry": {"location": {"lat": 38.981755, "lng": -77.092507}, "location_type": "ROOFTOP", "viewport": {"northeast": {"lat": 38.9831039802915, "lng": -77.0911580197085}, "southwest": {"lat": 38.9804060197085, "lng": -77.09385598029151}}}, "place_id": "ChIJ34I1XnrJt4kRVB43xSHlS6U", "types": ["establishment", "point_of_interest"]}]}, "102716817": {"AfN": "valdosta state university", "Location": [{"address_components": [{"long_name": "1500", "short_name": "1500", "types": ["street_number"]}, {"long_name": "North Patterson Street", "short_name": "N Patterson St", "types": ["route"]}, {"long_name": "Valdosta", "short_name": "Valdosta", "types": ["locality", "political"]}, {"long_name": "Lowndes County", "short_name": "Lowndes County", "types": ["administrative_area_level_2", "political"]}, {"long_name": "Georgia", "short_name": "GA", "types": ["administrative_area_level_1", "political"]}, {"long_name": "United States", "short_name": "US", "types": ["country", "political"]}, {"long_name": "31698", "short_name": "31698", "types": ["postal_code"]}], "formatted_address": "1500 N Patterson St, Valdosta, GA 31698, USA", "geometry": {"location": {"lat": 30.8489491, "lng": -83.2892064}, "location_type": "ROOFTOP", "viewport": {"northeast": {"lat": 30.8502980802915, "lng": -83.2878574197085}, "southwest": {"lat": 30.8476001197085, "lng": -83.29055538029151}}}, "place_id": "ChIJaRTtXyBn7ogRnHzHxChmlS8", "types": ["establishment", "point_of_interest", "university"]}]}, "165476936": {"AfN": "vale", "Location": [{"address_components": [{"long_name": "200", "short_name": "200", "types": ["street_number"]}, {"long_name": "Bay Street", "short_name": "Bay St", "types": ["route"]}, {"long_name": "Old Toronto", "short_name": "Old Toronto", "types": ["political", "sublocality", "sublocality_level_1"]}, {"long_name": "Toronto", "short_name": "Toronto", "types": ["locality", "political"]}, {"long_name": "Toronto Division", "short_name": "Toronto Division", "types": ["administrative_area_level_2", "political"]}, {"long_name": "Ontario", "short_name": "ON", "types": ["administrative_area_level_1", "political"]}, {"long_name": "Canada", "short_name": "CA", "types": ["country", "political"]}, {"long_name": "M5J 2K2", "short_name": "M5J 2K2", "types": ["postal_code"]}], "formatted_address": "200 Bay St, Toronto, ON M5J 2K2, Canada", "geometry": {"location": {"lat": 43.6464489, "lng": -79.3796153}, "location_type": "ROOFTOP", "viewport": {"northeast": {"lat": 43.64779788029149, "lng": -79.37826631970849}, "southwest": {"lat": 43.64509991970849, "lng": -79.38096428029151}}}, "place_id": "ChIJaTok2CzL1IkRw-oEoJXmcxs", "types": ["establishment", "point_of_interest"]}]}, "130567239": {"AfN": "valeant pharmaceuticals", "Location": [{"address_components": [{"long_name": "400", "short_name": "400", "types": ["street_number"]}, {"long_name": "Somerset Corporate Boulevard", "short_name": "Somerset Corporate Blvd", "types": ["route"]}, {"long_name": "Bridgewater", "short_name": "Bridgewater", "types": ["locality", "political"]}, {"long_name": "Somerset County", "short_name": "Somerset County", "types": ["administrative_area_level_2", "political"]}, {"long_name": "New Jersey", "short_name": "NJ", "types": ["administrative_area_level_1", "political"]}, {"long_name": "United States", "short_name": "US", "types": ["country", "political"]}, {"long_name": "08807", "short_name": "08807", "types": ["postal_code"]}], "formatted_address": "400 Somerset Corporate Blvd, Bridgewater, NJ 08807, USA", "geometry": {"location": {"lat": 40.58785470000001, "lng": -74.6281788}, "location_type": "ROOFTOP", "viewport": {"northeast": {"lat": 40.58920368029151, "lng": -74.6268298197085}, "southwest": {"lat": 40.58650571970851, "lng": -74.62952778029151}}}, "place_id": "ChIJRcJa-gmVw4kRNNs3T4ZtMqM", "types": ["establishment", "health", "point_of_interest"]}]}, "149744451": {"AfN": "valparaiso university", "Location": [{"address_components": [{"long_name": "1700", "short_name": "1700", "types": ["street_number"]}, {"long_name": "Chapel Drive", "short_name": "Chapel Dr", "types": ["route"]}, {"long_name": "Valparaiso", "short_name": "Valparaiso", "types": ["locality", "political"]}, {"long_name": "Center Township", "short_name": "Center Township", "types": ["administrative_area_level_3", "political"]}, {"long_name": "Porter County", "short_name": "Porter County", "types": ["administrative_area_level_2", "political"]}, {"long_name": "Indiana", "short_name": "IN", "types": ["administrative_area_level_1", "political"]}, {"long_name": "United States", "short_name": "US", "types": ["country", "political"]}, {"long_name": "46383", "short_name": "46383", "types": ["postal_code"]}], "formatted_address": "1700 Chapel Dr, Valparaiso, IN 46383, USA", "geometry": {"location": {"lat": 41.463273, "lng": -87.04238099999999}, "location_type": "ROOFTOP", "viewport": {"northeast": {"lat": 41.4646219802915, "lng": -87.04103201970848}, "southwest": {"lat": 41.4619240197085, "lng": -87.0437299802915}}}, "place_id": "ChIJ2zyuvGqaEYgRGLo8A2GYSGY", "types": ["establishment", "point_of_interest", "university"]}]}, "1317635190": {"AfN": "valve corporation", "Location": [{"address_components": [{"long_name": "# 200", "short_name": "# 200", "types": ["subpremise"]}, {"long_name": "1738", "short_name": "1738", "types": ["street_number"]}, {"long_name": "Sands Place", "short_name": "Sands Pl", "types": ["route"]}, {"long_name": "Marietta", "short_name": "Marietta", "types": ["locality", "political"]}, {"long_name": "Cobb County", "short_name": "Cobb County", "types": ["administrative_area_level_2", "political"]}, {"long_name": "Georgia", "short_name": "GA", "types": ["administrative_area_level_1", "political"]}, {"long_name": "United States", "short_name": "US", "types": ["country", "political"]}, {"long_name": "30067", "short_name": "30067", "types": ["postal_code"]}, {"long_name": "9226", "short_name": "9226", "types": ["postal_code_suffix"]}], "formatted_address": "1738 Sands Pl # 200, Marietta, GA 30067, USA", "geometry": {"location": {"lat": 33.9143664, "lng": -84.48821939999999}, "location_type": "ROOFTOP", "viewport": {"northeast": {"lat": 33.9157153802915, "lng": -84.4868704197085}, "southwest": {"lat": 33.9130174197085, "lng": -84.4895683802915}}}, "place_id": "ChIJW4yStg0R9YgRKLfnu40PLVg", "types": ["establishment", "point_of_interest"]}]}, "1317189400": {"AfN": "van andel institute", "Location": [{"address_components": [{"long_name": "333", "short_name": "333", "types": ["street_number"]}, {"long_name": "Bostwick Avenue Northeast", "short_name": "Bostwick Ave NE", "types": ["route"]}, {"long_name": "Belknap Lookout", "short_name": "Belknap Lookout", "types": ["neighborhood", "political"]}, {"long_name": "Grand Rapids", "short_name": "Grand Rapids", "types": ["locality", "political"]}, {"long_name": "Kent County", "short_name": "Kent County", "types": ["administrative_area_level_2", "political"]}, {"long_name": "Michigan", "short_name": "MI", "types": ["administrative_area_level_1", "political"]}, {"long_name": "United States", "short_name": "US", "types": ["country", "political"]}, {"long_name": "49503", "short_name": "49503", "types": ["postal_code"]}, {"long_name": "2518", "short_name": "2518", "types": ["postal_code_suffix"]}], "formatted_address": "333 Bostwick Ave NE, Grand Rapids, MI 49503, USA", "geometry": {"location": {"lat": 42.9696428, "lng": -85.6671664}, "location_type": "ROOFTOP", "viewport": {"northeast": {"lat": 42.9709917802915, "lng": -85.66581741970849}, "southwest": {"lat": 42.9682938197085, "lng": -85.6685153802915}}}, "place_id": "ChIJRb1DHcmtGYgRqOuIFjirU3M", "types": ["establishment", "point_of_interest"]}, {"address_components": [{"long_name": "216", "short_name": "216", "types": ["street_number"]}, {"long_name": "Division Avenue North", "short_name": "Division Ave N", "types": ["route"]}, {"long_name": "Medical Mile", "short_name": "Medical Mile", "types": ["neighborhood", "political"]}, {"long_name": "Grand Rapids", "short_name": "Grand Rapids", "types": ["locality", "political"]}, {"long_name": "Kent County", "short_name": "Kent County", "types": ["administrative_area_level_2", "political"]}, {"long_name": "Michigan", "short_name": "MI", "types": ["administrative_area_level_1", "political"]}, {"long_name": "United States", "short_name": "US", "types": ["country", "political"]}, {"long_name": "49503", "short_name": "49503", "types": ["postal_code"]}], "formatted_address": "216 Division Ave N, Grand Rapids, MI 49503, USA", "geometry": {"location": {"lat": 42.9677941, "lng": -85.66780729999999}, "location_type": "ROOFTOP", "viewport": {"northeast": {"lat": 42.9691430802915, "lng": -85.66645831970848}, "southwest": {"lat": 42.9664451197085, "lng": -85.66915628029149}}}, "place_id": "ChIJkfTdlcitGYgReyzPfc9Zyos", "types": ["establishment", "point_of_interest"]}]}, "141074466": {"AfN": "vancouver coastal health", "Location": [{"address_components": [{"long_name": "3425", "short_name": "3425", "types": ["street_number"]}, {"long_name": "Crowley Drive", "short_name": "Crowley Dr", "types": ["route"]}, {"long_name": "East Side", "short_name": "East Side", "types": ["neighborhood", "political"]}, {"long_name": "Vancouver", "short_name": "Vancouver", "types": ["locality", "political"]}, {"long_name": "Greater Vancouver", "short_name": "Greater Vancouver", "types": ["administrative_area_level_2", "political"]}, {"long_name": "British Columbia", "short_name": "BC", "types": ["administrative_area_level_1", "political"]}, {"long_name": "Canada", "short_name": "CA", "types": ["country", "political"]}, {"long_name": "V5R 6G3", "short_name": "V5R 6G3", "types": ["postal_code"]}], "formatted_address": "3425 Crowley Dr, Vancouver, BC V5R 6G3, Canada", "geometry": {"location": {"lat": 49.2375281, "lng": -123.0321469}, "location_type": "ROOFTOP", "viewport": {"northeast": {"lat": 49.23887708029149, "lng": -123.0307979197085}, "southwest": {"lat": 49.2361791197085, "lng": -123.0334958802915}}}, "place_id": "ChIJV_g1iZN2hlQR4LsR6Lxqato", "types": ["establishment", "health", "point_of_interest"]}]}, "135198339": {"AfN": "vancouver prostate centre", "Location": [{"address_components": [{"long_name": "2660", "short_name": "2660", "types": ["street_number"]}, {"long_name": "Oak Street", "short_name": "Oak St", "types": ["route"]}, {"long_name": "Fairview", "short_name": "Fairview", "types": ["neighborhood", "political"]}, {"long_name": "Vancouver", "short_name": "Vancouver", "types": ["locality", "political"]}, {"long_name": "Greater Vancouver", "short_name": "Greater Vancouver", "types": ["administrative_area_level_2", "political"]}, {"long_name": "British Columbia", "short_name": "BC", "types": ["administrative_area_level_1", "political"]}, {"long_name": "Canada", "short_name": "CA", "types": ["country", "political"]}, {"long_name": "V6H 3Z6", "short_name": "V6H 3Z6", "types": ["postal_code"]}], "formatted_address": "2660 Oak St, Vancouver, BC V6H 3Z6, Canada", "geometry": {"location": {"lat": 49.261793, "lng": -123.1259096}, "location_type": "ROOFTOP", "viewport": {"northeast": {"lat": 49.2631419802915, "lng": -123.1245606197085}, "southwest": {"lat": 49.2604440197085, "lng": -123.1272585802915}}}, "place_id": "ChIJJypAzsNzhlQR46uqhGeqbS8", "types": ["establishment", "health", "point_of_interest"]}]}, "200719446": {"AfN": "vanderbilt university", "Location": [{"address_components": [{"long_name": "2201", "short_name": "2201", "types": ["street_number"]}, {"long_name": "West End Avenue", "short_name": "West End Ave", "types": ["route"]}, {"long_name": "Nashville", "short_name": "Nashville", "types": ["locality", "political"]}, {"long_name": "Davidson County", "short_name": "Davidson County", "types": ["administrative_area_level_2", "political"]}, {"long_name": "Tennessee", "short_name": "TN", "types": ["administrative_area_level_1", "political"]}, {"long_name": "United States", "short_name": "US", "types": ["country", "political"]}, {"long_name": "37235", "short_name": "37235", "types": ["postal_code"]}], "formatted_address": "2201 West End Ave, Nashville, TN 37235, USA", "geometry": {"location": {"lat": 36.1447034, "lng": -86.8026551}, "location_type": "ROOFTOP", "viewport": {"northeast": {"lat": 36.14605238029149, "lng": -86.80130611970849}, "southwest": {"lat": 36.1433544197085, "lng": -86.8040040802915}}}, "place_id": "ChIJR4DvpqRmZIgR1hU5F1UUUeo", "types": ["establishment", "point_of_interest", "university"]}]}, "901861585": {"AfN": "vanderbilt university medical center", "Location": [{"address_components": [{"long_name": "1211", "short_name": "1211", "types": ["street_number"]}, {"long_name": "Medical Center Drive", "short_name": "Medical Center Dr", "types": ["route"]}, {"long_name": "Midtown", "short_name": "Midtown", "types": ["neighborhood", "political"]}, {"long_name": "Nashville", "short_name": "Nashville", "types": ["locality", "political"]}, {"long_name": "Davidson County", "short_name": "Davidson County", "types": ["administrative_area_level_2", "political"]}, {"long_name": "Tennessee", "short_name": "TN", "types": ["administrative_area_level_1", "political"]}, {"long_name": "United States", "short_name": "US", "types": ["country", "political"]}, {"long_name": "37232", "short_name": "37232", "types": ["postal_code"]}], "formatted_address": "1211 Medical Center Dr, Nashville, TN 37232, USA", "geometry": {"location": {"lat": 36.1417373, "lng": -86.8021306}, "location_type": "ROOFTOP", "viewport": {"northeast": {"lat": 36.14308628029149, "lng": -86.80078161970849}, "southwest": {"lat": 36.1403883197085, "lng": -86.8034795802915}}}, "place_id": "ChIJK1GqhZhmZIgRWn3D07flb_o", "types": ["establishment", "health", "hospital", "point_of_interest"]}]}, "1279672703": {"AfN": "variable energy cyclotron centre", "Location": [{"address_components": [{"long_name": "Kolkata", "short_name": "Kolkata", "types": ["locality", "political"]}, {"long_name": "West Bengal", "short_name": "WB", "types": ["administrative_area_level_1", "political"]}, {"long_name": "India", "short_name": "IN", "types": ["country", "political"]}, {"long_name": "700064", "short_name": "700064", "types": ["postal_code"]}], "formatted_address": "1/AF, Bidhannagar, Kolkata, West Bengal 700064, India", "geometry": {"location": {"lat": 22.6009515, "lng": 88.41918249999999}, "location_type": "GEOMETRIC_CENTER", "viewport": {"northeast": {"lat": 22.6023004802915, "lng": 88.4205314802915}, "southwest": {"lat": 22.5996025197085, "lng": 88.4178335197085}}}, "place_id": "ChIJP_dpavJ1AjoRAIslS1We2-g", "types": ["establishment", "point_of_interest"]}]}, "118121848": {"AfN": "varian associates", "Location": [{"address_components": [{"long_name": "# 100", "short_name": "# 100", "types": ["subpremise"]}, {"long_name": "2000", "short_name": "2000", "types": ["street_number"]}, {"long_name": "North Dixie Highway", "short_name": "N Dixie Hwy", "types": ["route"]}, {"long_name": "Boca Raton", "short_name": "Boca Raton", "types": ["locality", "political"]}, {"long_name": "Palm Beach County", "short_name": "Palm Beach County", "types": ["administrative_area_level_2", "political"]}, {"long_name": "Florida", "short_name": "FL", "types": ["administrative_area_level_1", "political"]}, {"long_name": "United States", "short_name": "US", "types": ["country", "political"]}, {"long_name": "33431", "short_name": "33431", "types": ["postal_code"]}, {"long_name": "8000", "short_name": "8000", "types": ["postal_code_suffix"]}], "formatted_address": "2000 N Dixie Hwy # 100, Boca Raton, FL 33431, USA", "geometry": {"location": {"lat": 26.367924, "lng": -80.08453999999999}, "location_type": "ROOFTOP", "viewport": {"northeast": {"lat": 26.3692729802915, "lng": -80.0831910197085}, "southwest": {"lat": 26.3665750197085, "lng": -80.0858889802915}}}, "place_id": "ChIJp6XTS_Dh2IgRqv2Q0BYXoos", "types": ["establishment", "point_of_interest"]}, {"address_components": [{"long_name": "405", "short_name": "405", "types": ["street_number"]}, {"long_name": "International Parkway", "short_name": "International Pkwy", "types": ["route"]}, {"long_name": "Richardson", "short_name": "Richardson", "types": ["locality", "political"]}, {"long_name": "Dallas County", "short_name": "Dallas County", "types": ["administrative_area_level_2", "political"]}, {"long_name": "Texas", "short_name": "TX", "types": ["administrative_area_level_1", "political"]}, {"long_name": "United States", "short_name": "US", "types": ["country", "political"]}, {"long_name": "75081", "short_name": "75081", "types": ["postal_code"]}, {"long_name": "2854", "short_name": "2854", "types": ["postal_code_suffix"]}], "formatted_address": "405 International Pkwy, Richardson, TX 75081, USA", "geometry": {"location": {"lat": 32.9544671, "lng": -96.7091092}, "location_type": "ROOFTOP", "viewport": {"northeast": {"lat": 32.95581608029149, "lng": -96.70776021970849}, "southwest": {"lat": 32.95311811970849, "lng": -96.71045818029151}}}, "place_id": "ChIJaaP4lOQeTIYR4X5Ljm1WYWQ", "types": ["establishment", "health", "point_of_interest", "store"]}]}, "46603895": {"AfN": "varian medical systems", "Location": [{"address_components": [{"long_name": "3100", "short_name": "3100", "types": ["street_number"]}, {"long_name": "Hansen Way", "short_name": "Hansen Way", "types": ["route"]}, {"long_name": "Palo Alto", "short_name": "Palo Alto", "types": ["locality", "political"]}, {"long_name": "Santa Clara County", "short_name": "Santa Clara County", "types": ["administrative_area_level_2", "political"]}, {"long_name": "California", "short_name": "CA", "types": ["administrative_area_level_1", "political"]}, {"long_name": "United States", "short_name": "US", "types": ["country", "political"]}, {"long_name": "94304", "short_name": "94304", "types": ["postal_code"]}, {"long_name": "1030", "short_name": "1030", "types": ["postal_code_suffix"]}], "formatted_address": "3100 Hansen Way, Palo Alto, CA 94304, USA", "geometry": {"location": {"lat": 37.4159317, "lng": -122.1431202}, "location_type": "ROOFTOP", "viewport": {"northeast": {"lat": 37.4172806802915, "lng": -122.1417712197085}, "southwest": {"lat": 37.41458271970851, "lng": -122.1444691802915}}}, "place_id": "ChIJWYvMK-26j4ARw1j5foEKyzE", "types": ["establishment", "point_of_interest"]}]}, "189987365": {"AfN": "varian semiconductor", "Location": [{"address_components": [{"long_name": "35", "short_name": "35", "types": ["street_number"]}, {"long_name": "Dory Road", "short_name": "Dory Rd", "types": ["route"]}, {"long_name": "Gloucester", "short_name": "Gloucester", "types": ["locality", "political"]}, {"long_name": "Essex County", "short_name": "Essex County", "types": ["administrative_area_level_2", "political"]}, {"long_name": "Massachusetts", "short_name": "MA", "types": ["administrative_area_level_1", "political"]}, {"long_name": "United States", "short_name": "US", "types": ["country", "political"]}, {"long_name": "01930", "short_name": "01930", "types": ["postal_code"]}, {"long_name": "2236", "short_name": "2236", "types": ["postal_code_suffix"]}], "formatted_address": "35 Dory Rd, Gloucester, MA 01930, USA", "geometry": {"location": {"lat": 42.628001, "lng": -70.651161}, "location_type": "ROOFTOP", "viewport": {"northeast": {"lat": 42.62934998029149, "lng": -70.6498120197085}, "southwest": {"lat": 42.6266520197085, "lng": -70.65250998029151}}}, "place_id": "ChIJ6wsU-aMl44kR4UcDzbu1G1E", "types": ["establishment", "point_of_interest"]}]}, "126820664": {"AfN": "vassar college", "Location": [{"address_components": [{"long_name": "124", "short_name": "124", "types": ["street_number"]}, {"long_name": "Raymond Avenue", "short_name": "Raymond Ave", "types": ["route"]}, {"long_name": "Poughkeepsie", "short_name": "Poughkeepsie", "types": ["locality", "political"]}, {"long_name": "Dutchess County", "short_name": "Dutchess County", "types": ["administrative_area_level_2", "political"]}, {"long_name": "New York", "short_name": "NY", "types": ["administrative_area_level_1", "political"]}, {"long_name": "United States", "short_name": "US", "types": ["country", "political"]}, {"long_name": "12604", "short_name": "12604", "types": ["postal_code"]}], "formatted_address": "124 Raymond Ave, Poughkeepsie, NY 12604, USA", "geometry": {"location": {"lat": 41.6867992, "lng": -73.8957002}, "location_type": "ROOFTOP", "viewport": {"northeast": {"lat": 41.68814818029151, "lng": -73.8943512197085}, "southwest": {"lat": 41.68545021970851, "lng": -73.8970491802915}}}, "place_id": "ChIJTUtnglY-3YkRTNWCCGR9yOM", "types": ["establishment", "point_of_interest", "university"]}]}, "181373929": {"AfN": "vattikuti urology institute", "Location": [{"address_components": [{"long_name": "2799", "short_name": "2799", "types": ["street_number"]}, {"long_name": "West Grand Boulevard", "short_name": "W Grand Blvd", "types": ["route"]}, {"long_name": "New Center", "short_name": "New Center", "types": ["neighborhood", "political"]}, {"long_name": "Detroit", "short_name": "Detroit", "types": ["locality", "political"]}, {"long_name": "Wayne County", "short_name": "Wayne County", "types": ["administrative_area_level_2", "political"]}, {"long_name": "Michigan", "short_name": "MI", "types": ["administrative_area_level_1", "political"]}, {"long_name": "United States", "short_name": "US", "types": ["country", "political"]}, {"long_name": "48202", "short_name": "48202", "types": ["postal_code"]}, {"long_name": "2608", "short_name": "2608", "types": ["postal_code_suffix"]}], "formatted_address": "2799 W Grand Blvd, Detroit, MI 48202, USA", "geometry": {"location": {"lat": 42.3673317, "lng": -83.08518980000001}, "location_type": "ROOFTOP", "viewport": {"northeast": {"lat": 42.3686806802915, "lng": -83.08384081970851}, "southwest": {"lat": 42.36598271970851, "lng": -83.08653878029152}}}, "place_id": "ChIJ-aWzB2TNJIgRdZ7yCNAK9jc", "types": ["doctor", "establishment", "health", "hospital", "point_of_interest"]}]}, "13805885": {"AfN": "vaughn college of aeronautics and technology", "Location": [{"address_components": [{"long_name": "8601", "short_name": "8601", "types": ["street_number"]}, {"long_name": "23rd Avenue", "short_name": "23rd Ave", "types": ["route"]}, {"long_name": "East Elmhurst", "short_name": "East Elmhurst", "types": ["neighborhood", "political"]}, {"long_name": "Queens", "short_name": "Queens", "types": ["political", "sublocality", "sublocality_level_1"]}, {"long_name": "Queens County", "short_name": "Queens County", "types": ["administrative_area_level_2", "political"]}, {"long_name": "New York", "short_name": "NY", "types": ["administrative_area_level_1", "political"]}, {"long_name": "United States", "short_name": "US", "types": ["country", "political"]}, {"long_name": "11369", "short_name": "11369", "types": ["postal_code"]}, {"long_name": "1037", "short_name": "1037", "types": ["postal_code_suffix"]}], "formatted_address": "8601 23rd Ave, East Elmhurst, NY 11369, USA", "geometry": {"location": {"lat": 40.768034, "lng": -73.88192099999999}, "location_type": "ROOFTOP", "viewport": {"northeast": {"lat": 40.7693829802915, "lng": -73.8805720197085}, "southwest": {"lat": 40.7666850197085, "lng": -73.8832699802915}}}, "place_id": "ChIJzeHFgptfwokRekJtGbDjJ_A", "types": ["establishment", "point_of_interest", "university"]}]}, "96845813": {"AfN": "vavilov state optical institute", "Location": []}, "72019824": {"AfN": "vcu medical center", "Location": [{"address_components": [{"long_name": "57", "short_name": "57", "types": ["street_number"]}, {"long_name": "North 11th Street", "short_name": "N 11th St", "types": ["route"]}, {"long_name": "Biotech and MCV District", "short_name": "Biotech and MCV District", "types": ["neighborhood", "political"]}, {"long_name": "Richmond", "short_name": "Richmond", "types": ["locality", "political"]}, {"long_name": "Virginia", "short_name": "VA", "types": ["administrative_area_level_1", "political"]}, {"long_name": "United States", "short_name": "US", "types": ["country", "political"]}, {"long_name": "23298", "short_name": "23298", "types": ["postal_code"]}], "formatted_address": "57 N 11th St, Richmond, VA 23298, USA", "geometry": {"location": {"lat": 37.5407141, "lng": -77.4307978}, "location_type": "ROOFTOP", "viewport": {"northeast": {"lat": 37.5420630802915, "lng": -77.4294488197085}, "southwest": {"lat": 37.5393651197085, "lng": -77.4321467802915}}}, "place_id": "ChIJtyyDySMRsYkR1sCMRkcRhME", "types": ["establishment", "point_of_interest", "university"]}]}, "191242182": {"AfN": "venezuelan institute for scientific research", "Location": [{"address_components": [{"long_name": "Avenida 8 Santa Rita", "short_name": "Av 8 Sta Rita", "types": ["route"]}, {"long_name": "Maracaibo", "short_name": "Maracaibo", "types": ["locality", "political"]}, {"long_name": "Zulia", "short_name": "Zulia", "types": ["administrative_area_level_1", "political"]}, {"long_name": "Venezuela", "short_name": "VE", "types": ["country", "political"]}, {"long_name": "4001", "short_name": "4001", "types": ["postal_code"]}], "formatted_address": "Av. 8 (Santa Rita) entre calles 79 y 80 frente al Colegio Los Maristas., Av 8 Sta Rita, Maracaibo 4001, Zulia, Venezuela", "geometry": {"location": {"lat": 10.6631279, "lng": -71.6079855}, "location_type": "GEOMETRIC_CENTER", "viewport": {"northeast": {"lat": 10.6644768802915, "lng": -71.60663651970849}, "southwest": {"lat": 10.6617789197085, "lng": -71.60933448029151}}}, "place_id": "ChIJnVMbtuGYiY4Rpyz4ho6TtDI", "types": ["establishment", "point_of_interest"]}]}, "1302485747": {"AfN": "verizon communications", "Location": [{"address_components": [{"long_name": "700", "short_name": "700", "types": ["street_number"]}, {"long_name": "Hidden Ridge", "short_name": "Hidden Ridge", "types": ["route"]}, {"long_name": "Las Colinas", "short_name": "Las Colinas", "types": ["neighborhood", "political"]}, {"long_name": "Irving", "short_name": "Irving", "types": ["locality", "political"]}, {"long_name": "Dallas County", "short_name": "Dallas County", "types": ["administrative_area_level_2", "political"]}, {"long_name": "Texas", "short_name": "TX", "types": ["administrative_area_level_1", "political"]}, {"long_name": "United States", "short_name": "US", "types": ["country", "political"]}, {"long_name": "75038", "short_name": "75038", "types": ["postal_code"]}, {"long_name": "3896", "short_name": "3896", "types": ["postal_code_suffix"]}], "formatted_address": "700 Hidden Ridge, Irving, TX 75038, USA", "geometry": {"location": {"lat": 32.8765177, "lng": -96.9537285}, "location_type": "ROOFTOP", "viewport": {"northeast": {"lat": 32.8778666802915, "lng": -96.95237951970849}, "southwest": {"lat": 32.8751687197085, "lng": -96.95507748029151}}}, "place_id": "ChIJO82i44SCToYRsQkHWPzhlbI", "types": ["establishment", "point_of_interest"]}]}, "61937300": {"AfN": "vermont technical college", "Location": [{"address_components": [{"long_name": "124", "short_name": "124", "types": ["street_number"]}, {"long_name": "Admin Drive", "short_name": "Admin Drive", "types": ["route"]}, {"long_name": "Randolph Center", "short_name": "Randolph Center", "types": ["neighborhood", "political"]}, {"long_name": "Randolph", "short_name": "Randolph", "types": ["locality", "political"]}, {"long_name": "Orange County", "short_name": "Orange County", "types": ["administrative_area_level_2", "political"]}, {"long_name": "Vermont", "short_name": "VT", "types": ["administrative_area_level_1", "political"]}, {"long_name": "United States", "short_name": "US", "types": ["country", "political"]}, {"long_name": "05061", "short_name": "05061", "types": ["postal_code"]}], "formatted_address": "124 Admin Drive, Randolph Center, VT 05061, USA", "geometry": {"location": {"lat": 43.938717, "lng": -72.604721}, "location_type": "ROOFTOP", "viewport": {"northeast": {"lat": 43.9400659802915, "lng": -72.6033720197085}, "southwest": {"lat": 43.9373680197085, "lng": -72.60606998029151}}}, "place_id": "ChIJVVVVVRUgtUwRuBa8uAf3Dks", "types": ["establishment", "point_of_interest", "university"]}, {"address_components": [{"long_name": "201", "short_name": "201", "types": ["street_number"]}, {"long_name": "Lawrence Place", "short_name": "Lawrence Pl", "types": ["route"]}, {"long_name": "Williston North", "short_name": "Williston North", "types": ["neighborhood", "political"]}, {"long_name": "Williston", "short_name": "Williston", "types": ["locality", "political"]}, {"long_name": "Chittenden County", "short_name": "Chittenden County", "types": ["administrative_area_level_2", "political"]}, {"long_name": "Vermont", "short_name": "VT", "types": ["administrative_area_level_1", "political"]}, {"long_name": "United States", "short_name": "US", "types": ["country", "political"]}, {"long_name": "05495", "short_name": "05495", "types": ["postal_code"]}], "formatted_address": "201 Lawrence Pl, Williston, VT 05495, USA", "geometry": {"location": {"lat": 44.4519875, "lng": -73.1126822}, "location_type": "ROOFTOP", "viewport": {"northeast": {"lat": 44.4533364802915, "lng": -73.1113332197085}, "southwest": {"lat": 44.45063851970851, "lng": -73.1140311802915}}}, "place_id": "ChIJ0T87Wid4ykwRFuUwDFZX1kY", "types": ["establishment", "point_of_interest", "university"]}]}, "6048146": {"AfN": "versar", "Location": [{"address_components": [{"long_name": "3000", "short_name": "3000", "types": ["street_number"]}, {"long_name": "South Douglas Boulevard", "short_name": "S Douglas Blvd", "types": ["route"]}, {"long_name": "Oklahoma City", "short_name": "Oklahoma City", "types": ["locality", "political"]}, {"long_name": "Oklahoma County", "short_name": "Oklahoma County", "types": ["administrative_area_level_2", "political"]}, {"long_name": "Oklahoma", "short_name": "OK", "types": ["administrative_area_level_1", "political"]}, {"long_name": "United States", "short_name": "US", "types": ["country", "political"]}, {"long_name": "73150", "short_name": "73150", "types": ["postal_code"]}, {"long_name": "1003", "short_name": "1003", "types": ["postal_code_suffix"]}], "formatted_address": "3000 S Douglas Blvd, Oklahoma City, OK 73150, USA", "geometry": {"location": {"lat": 35.4352133, "lng": -97.37066589999999}, "location_type": "ROOFTOP", "viewport": {"northeast": {"lat": 35.4365622802915, "lng": -97.36931691970848}, "southwest": {"lat": 35.4338643197085, "lng": -97.37201488029149}}}, "place_id": "ChIJ0Ugp3hg8socRvnlqzSYAptM", "types": ["establishment", "point_of_interest"]}]}, "61970326": {"AfN": "vertex pharmaceuticals", "Location": [{"address_components": [{"long_name": "50", "short_name": "50", "types": ["street_number"]}, {"long_name": "Northern Avenue", "short_name": "Northern Ave", "types": ["route"]}, {"long_name": "D Street / West Broadway", "short_name": "D Street / West Broadway", "types": ["neighborhood", "political"]}, {"long_name": "Boston", "short_name": "Boston", "types": ["locality", "political"]}, {"long_name": "Suffolk County", "short_name": "Suffolk County", "types": ["administrative_area_level_2", "political"]}, {"long_name": "Massachusetts", "short_name": "MA", "types": ["administrative_area_level_1", "political"]}, {"long_name": "United States", "short_name": "US", "types": ["country", "political"]}, {"long_name": "02210", "short_name": "02210", "types": ["postal_code"]}, {"long_name": "1862", "short_name": "1862", "types": ["postal_code_suffix"]}], "formatted_address": "50 Northern Ave, Boston, MA 02210, USA", "geometry": {"location": {"lat": 42.3533985, "lng": -71.04638240000001}, "location_type": "ROOFTOP", "viewport": {"northeast": {"lat": 42.35474748029149, "lng": -71.04503341970852}, "southwest": {"lat": 42.35204951970849, "lng": -71.04773138029152}}}, "place_id": "ChIJ6a5y8n5w44kR-Uhe0S1nVrg", "types": ["establishment", "health", "point_of_interest"]}]}, "158874118": {"AfN": "veterinary college mathura", "Location": [{"address_components": [{"long_name": "Uttar Pradesh Pandit Deen Dayal Upadhyaya Pashu Chikitsha", "short_name": "Uttar Pradesh Pandit Deen Dayal Upadhyaya Pashu Chikitsha", "types": ["political", "sublocality", "sublocality_level_1"]}, {"long_name": "Mathura", "short_name": "Mathura", "types": ["locality", "political"]}, {"long_name": "Mathura", "short_name": "Mathura", "types": ["administrative_area_level_2", "political"]}, {"long_name": "Uttar Pradesh", "short_name": "UP", "types": ["administrative_area_level_1", "political"]}, {"long_name": "India", "short_name": "IN", "types": ["country", "political"]}, {"long_name": "281001", "short_name": "281001", "types": ["postal_code"]}], "formatted_address": "Uttar Pradesh Pandit Deen Dayal Upadhyaya Pashu Chikitsha, Mathura, Uttar Pradesh 281001, India", "geometry": {"location": {"lat": 27.4606157, "lng": 77.7009535}, "location_type": "GEOMETRIC_CENTER", "viewport": {"northeast": {"lat": 27.4619646802915, "lng": 77.7023024802915}, "southwest": {"lat": 27.4592667197085, "lng": 77.69960451970849}}}, "place_id": "ChIJ0cTI9id3czkRBMBdvtOG-rs", "types": ["establishment", "point_of_interest", "university"]}, {"address_components": [{"long_name": "Mathura", "short_name": "Mathura", "types": ["locality", "political"]}, {"long_name": "Uttar Pradesh", "short_name": "UP", "types": ["administrative_area_level_1", "political"]}, {"long_name": "India", "short_name": "IN", "types": ["country", "political"]}, {"long_name": "281001", "short_name": "281001", "types": ["postal_code"]}], "formatted_address": "Near Kachehri, Civil Lines, Mathura Cantonment, Mathura, Uttar Pradesh 281001, India", "geometry": {"location": {"lat": 27.4735312, "lng": 77.70228200000001}, "location_type": "GEOMETRIC_CENTER", "viewport": {"northeast": {"lat": 27.4748801802915, "lng": 77.70363098029152}, "southwest": {"lat": 27.4721822197085, "lng": 77.70093301970851}}}, "place_id": "ChIJAQAAANVwczkRONjXaqC17Hs", "types": ["establishment", "point_of_interest", "university"]}]}, "1327474241": {"AfN": "veterinary laboratories agency", "Location": [{"address_components": [{"long_name": "701", "short_name": "701", "types": ["street_number"]}, {"long_name": "North Miller Avenue", "short_name": "N Miller Ave", "types": ["route"]}, {"long_name": "Springfield", "short_name": "Springfield", "types": ["locality", "political"]}, {"long_name": "Springfield Township", "short_name": "Springfield Township", "types": ["administrative_area_level_3", "political"]}, {"long_name": "Greene County", "short_name": "Greene County", "types": ["administrative_area_level_2", "political"]}, {"long_name": "Missouri", "short_name": "MO", "types": ["administrative_area_level_1", "political"]}, {"long_name": "United States", "short_name": "US", "types": ["country", "political"]}, {"long_name": "65802", "short_name": "65802", "types": ["postal_code"]}, {"long_name": "6460", "short_name": "6460", "types": ["postal_code_suffix"]}], "formatted_address": "701 N Miller Ave, Springfield, MO 65802, USA", "geometry": {"location": {"lat": 37.217522, "lng": -93.3739669}, "location_type": "ROOFTOP", "viewport": {"northeast": {"lat": 37.2188709802915, "lng": -93.37261791970849}, "southwest": {"lat": 37.2161730197085, "lng": -93.3753158802915}}}, "place_id": "ChIJldbP_rFhz4cRrUEWwUWLbew", "types": ["establishment", "health", "point_of_interest", "veterinary_care"]}, {"address_components": [{"long_name": "1800", "short_name": "1800", "types": ["street_number"]}, {"long_name": "Denison Avenue", "short_name": "Denison Ave", "types": ["route"]}, {"long_name": "Manhattan", "short_name": "Manhattan", "types": ["locality", "political"]}, {"long_name": "Riley County", "short_name": "Riley County", "types": ["administrative_area_level_2", "political"]}, {"long_name": "Kansas", "short_name": "KS", "types": ["administrative_area_level_1", "political"]}, {"long_name": "United States", "short_name": "US", "types": ["country", "political"]}, {"long_name": "66506", "short_name": "66506", "types": ["postal_code"]}, {"long_name": "5660", "short_name": "5660", "types": ["postal_code_suffix"]}], "formatted_address": "1800 Denison Ave, Manhattan, KS 66506, USA", "geometry": {"location": {"lat": 39.199967, "lng": -96.584237}, "location_type": "ROOFTOP", "viewport": {"northeast": {"lat": 39.2013159802915, "lng": -96.5828880197085}, "southwest": {"lat": 39.1986180197085, "lng": -96.58558598029151}}}, "place_id": "ChIJNZ2-hfTNvYcR5xSea9UX4QY", "types": ["establishment", "point_of_interest", "university"]}]}, "183452621": {"AfN": "viasat", "Location": [{"address_components": [{"long_name": "6155", "short_name": "6155", "types": ["street_number"]}, {"long_name": "El Camino Real", "short_name": "El Camino Real", "types": ["route"]}, {"long_name": "Carlsbad", "short_name": "Carlsbad", "types": ["locality", "political"]}, {"long_name": "San Diego County", "short_name": "San Diego County", "types": ["administrative_area_level_2", "political"]}, {"long_name": "California", "short_name": "CA", "types": ["administrative_area_level_1", "political"]}, {"long_name": "United States", "short_name": "US", "types": ["country", "political"]}, {"long_name": "92009", "short_name": "92009", "types": ["postal_code"]}], "formatted_address": "6155 El Camino Real, Carlsbad, CA 92009, USA", "geometry": {"location": {"lat": 33.1268562, "lng": -117.2671383}, "location_type": "ROOFTOP", "viewport": {"northeast": {"lat": 33.1282051802915, "lng": -117.2657893197085}, "southwest": {"lat": 33.1255072197085, "lng": -117.2684872802915}}}, "place_id": "ChIJh5eo619z3IARSo-4hMyEM8c", "types": ["establishment", "point_of_interest"]}]}, "19514445": {"AfN": "victor chang cardiac research institute", "Location": [{"address_components": [{"long_name": "Darlinghurst", "short_name": "Darlinghurst", "types": ["locality", "political"]}, {"long_name": "New South Wales", "short_name": "NSW", "types": ["administrative_area_level_1", "political"]}, {"long_name": "Australia", "short_name": "AU", "types": ["country", "political"]}, {"long_name": "2010", "short_name": "2010", "types": ["postal_code"]}], "formatted_address": "Lowy Packer Building 405 Liverpool Street, Darlinghurst NSW 2010, Australia", "geometry": {"location": {"lat": -33.878603, "lng": 151.222111}, "location_type": "GEOMETRIC_CENTER", "viewport": {"northeast": {"lat": -33.8772540197085, "lng": 151.2234599802915}, "southwest": {"lat": -33.87995198029149, "lng": 151.2207620197085}}}, "place_id": "ChIJ5e271xGuEmsR-Z_Cj6M_iyI", "types": ["establishment", "point_of_interest"]}]}, "1305941100": {"AfN": "victoria police", "Location": [{"address_components": [{"long_name": "850", "short_name": "850", "types": ["street_number"]}, {"long_name": "Caledonia Avenue", "short_name": "Caledonia Ave", "types": ["route"]}, {"long_name": "North Park", "short_name": "North Park", "types": ["neighborhood", "political"]}, {"long_name": "Victoria", "short_name": "Victoria", "types": ["locality", "political"]}, {"long_name": "Capital", "short_name": "Capital", "types": ["administrative_area_level_2", "political"]}, {"long_name": "British Columbia", "short_name": "BC", "types": ["administrative_area_level_1", "political"]}, {"long_name": "Canada", "short_name": "CA", "types": ["country", "political"]}, {"long_name": "V8T 5J8", "short_name": "V8T 5J8", "types": ["postal_code"]}], "formatted_address": "850 Caledonia Ave, Victoria, BC V8T 5J8, Canada", "geometry": {"location": {"lat": 48.4311352, "lng": -123.3591966}, "location_type": "ROOFTOP", "viewport": {"northeast": {"lat": 48.4324841802915, "lng": -123.3578476197085}, "southwest": {"lat": 48.4297862197085, "lng": -123.3605455802915}}}, "place_id": "ChIJPe_2B5B0j1QRxnMMKyX0Ztw", "types": ["establishment", "point_of_interest", "police"]}]}, "885919291": {"AfN": "victoria s secret", "Location": [{"address_components": [{"long_name": "101", "short_name": "101", "types": ["street_number"]}, {"long_name": "North Rangeline Road", "short_name": "N Rangeline Rd", "types": ["route"]}, {"long_name": "Joplin", "short_name": "Joplin", "types": ["locality", "political"]}, {"long_name": "Joplin Township", "short_name": "Joplin Township", "types": ["administrative_area_level_3", "political"]}, {"long_name": "Jasper County", "short_name": "Jasper County", "types": ["administrative_area_level_2", "political"]}, {"long_name": "Missouri", "short_name": "MO", "types": ["administrative_area_level_1", "political"]}, {"long_name": "United States", "short_name": "US", "types": ["country", "political"]}, {"long_name": "64801", "short_name": "64801", "types": ["postal_code"]}], "formatted_address": "101 N Rangeline Rd, Joplin, MO 64801, USA", "geometry": {"location": {"lat": 37.0895696, "lng": -94.4746816}, "location_type": "ROOFTOP", "viewport": {"northeast": {"lat": 37.09091858029149, "lng": -94.4733326197085}, "southwest": {"lat": 37.08822061970849, "lng": -94.4760305802915}}}, "partial_match": true, "place_id": "ChIJ7-oMl3Z8yIcRFOyDWi7wdiU", "types": ["clothing_store", "establishment", "point_of_interest", "store"]}]}, "71270174": {"AfN": "victoria university australia", "Location": [{"address_components": [{"long_name": "Ballarat Road", "short_name": "Ballarat Rd", "types": ["route"]}, {"long_name": "Footscray", "short_name": "Footscray", "types": ["locality", "political"]}, {"long_name": "Maribyrnong City", "short_name": "Maribyrnong", "types": ["administrative_area_level_2", "political"]}, {"long_name": "Victoria", "short_name": "VIC", "types": ["administrative_area_level_1", "political"]}, {"long_name": "Australia", "short_name": "AU", "types": ["country", "political"]}, {"long_name": "3011", "short_name": "3011", "types": ["postal_code"]}], "formatted_address": "Ballarat Rd, Footscray VIC 3011, Australia", "geometry": {"location": {"lat": -37.793693, "lng": 144.898734}, "location_type": "GEOMETRIC_CENTER", "viewport": {"northeast": {"lat": -37.7923440197085, "lng": 144.9000829802915}, "southwest": {"lat": -37.7950419802915, "lng": 144.8973850197085}}}, "place_id": "ChIJ8Rd_W5Rd1moRHdlU9FU7L8s", "types": ["establishment", "point_of_interest", "university"]}]}, "41156924": {"AfN": "victoria university of wellington", "Location": [{"address_components": [{"long_name": "Wellington", "short_name": "Wellington", "types": ["locality", "political"]}, {"long_name": "Kelburn", "short_name": "Kelburn", "types": ["political", "sublocality", "sublocality_level_1"]}, {"long_name": "Wellington", "short_name": "Wellington", "types": ["administrative_area_level_1", "political"]}, {"long_name": "New Zealand", "short_name": "NZ", "types": ["country", "political"]}, {"long_name": "6012", "short_name": "6012", "types": ["postal_code"]}], "formatted_address": "Kelburn, Wellington 6012, New Zealand", "geometry": {"location": {"lat": -41.2904017, "lng": 174.7686615}, "location_type": "GEOMETRIC_CENTER", "viewport": {"northeast": {"lat": -41.28905271970849, "lng": 174.7700104802915}, "southwest": {"lat": -41.29175068029149, "lng": 174.7673125197085}}}, "place_id": "ChIJu11XUimwOG0R8BYhYom6860", "types": ["establishment", "point_of_interest", "university"]}]}, "102248843": {"AfN": "vienna university of economics and business", "Location": [{"address_components": [{"long_name": "1", "short_name": "1", "types": ["street_number"]}, {"long_name": "Welthandelsplatz 1", "short_name": "Welthandelsplatz 1", "types": ["route"]}, {"long_name": "Leopoldstadt", "short_name": "Leopoldstadt", "types": ["political", "sublocality", "sublocality_level_1"]}, {"long_name": "Wien", "short_name": "Wien", "types": ["locality", "political"]}, {"long_name": "Wien", "short_name": "Wien", "types": ["administrative_area_level_1", "political"]}, {"long_name": "Austria", "short_name": "AT", "types": ["country", "political"]}, {"long_name": "1020", "short_name": "1020", "types": ["postal_code"]}], "formatted_address": "Welthandelsplatz 1 1, 1020 Wien, Austria", "geometry": {"location": {"lat": 48.214856, "lng": 16.406232}, "location_type": "ROOFTOP", "viewport": {"northeast": {"lat": 48.2162049802915, "lng": 16.4075809802915}, "southwest": {"lat": 48.2135070197085, "lng": 16.4048830197085}}}, "place_id": "ChIJv65jGssHbUcRqn7W5Wcq7VQ", "types": ["establishment", "point_of_interest", "school", "university"]}]}, "145847075": {"AfN": "vienna university of technology", "Location": [{"address_components": [{"long_name": "13", "short_name": "13", "types": ["street_number"]}, {"long_name": "Karlsplatz", "short_name": "Karlsplatz", "types": ["route"]}, {"long_name": "Wieden", "short_name": "Wieden", "types": ["political", "sublocality", "sublocality_level_1"]}, {"long_name": "Wien", "short_name": "Wien", "types": ["locality", "political"]}, {"long_name": "Wien", "short_name": "Wien", "types": ["administrative_area_level_1", "political"]}, {"long_name": "Austria", "short_name": "AT", "types": ["country", "political"]}, {"long_name": "1040", "short_name": "1040", "types": ["postal_code"]}], "formatted_address": "Karlsplatz 13, 1040 Wien, Austria", "geometry": {"location": {"lat": 48.1986546, "lng": 16.3684626}, "location_type": "ROOFTOP", "viewport": {"northeast": {"lat": 48.2000035802915, "lng": 16.3698115802915}, "southwest": {"lat": 48.1973056197085, "lng": 16.3671136197085}}}, "place_id": "ChIJ_d7vP2UHbUcRElip0qAzmR4", "types": ["establishment", "point_of_interest", "university"]}]}, "70349855": {"AfN": "vietnam academy of science and technology", "Location": [{"address_components": [{"long_name": "18", "short_name": "18", "types": ["street_number"]}, {"long_name": "Ho\u00e0ng Qu\u1ed1c Vi\u1ec7t", "short_name": "Ho\u00e0ng Qu\u1ed1c Vi\u1ec7t", "types": ["route"]}, {"long_name": "C\u1ea7u Gi\u1ea5y", "short_name": "C\u1ea7u Gi\u1ea5y", "types": ["administrative_area_level_2", "political"]}, {"long_name": "H\u00e0 N\u1ed9i", "short_name": "H\u00e0 N\u1ed9i", "types": ["administrative_area_level_1", "political"]}, {"long_name": "Vietnam", "short_name": "VN", "types": ["country", "political"]}], "formatted_address": "18 Ho\u00e0ng Qu\u1ed1c Vi\u1ec7t, Ngh\u0129a \u0110\u00f4, C\u1ea7u Gi\u1ea5y, H\u00e0 N\u1ed9i, Vietnam", "geometry": {"location": {"lat": 21.0469527, "lng": 105.8004621}, "location_type": "ROOFTOP", "viewport": {"northeast": {"lat": 21.0483016802915, "lng": 105.8018110802915}, "southwest": {"lat": 21.0456037197085, "lng": 105.7991131197085}}}, "place_id": "ChIJBxrfKT2rNTERlZzo_uBCxsU", "types": ["establishment", "point_of_interest"]}]}, "177233841": {"AfN": "vietnam national university hanoi", "Location": [{"address_components": [{"long_name": "144", "short_name": "144", "types": ["street_number"]}, {"long_name": "Xu\u00e2n Th\u1ee7y", "short_name": "Xu\u00e2n Th\u1ee7y", "types": ["route"]}, {"long_name": "C\u1ea7u Gi\u1ea5y", "short_name": "C\u1ea7u Gi\u1ea5y", "types": ["administrative_area_level_2", "political"]}, {"long_name": "D\u1ecbch V\u1ecdng H\u1eadu C\u1ea7u Gi\u1ea5y H\u00e0 N\u1ed9i", "short_name": "D\u1ecbch V\u1ecdng H\u1eadu C\u1ea7u Gi\u1ea5y H\u00e0 N\u1ed9i", "types": ["administrative_area_level_1", "political"]}, {"long_name": "Vietnam", "short_name": "VN", "types": ["country", "political"]}], "formatted_address": "144 Xu\u00e2n Th\u1ee7y, D\u1ecbch V\u1ecdng H\u1eadu, C\u1ea7u Gi\u1ea5y, D\u1ecbch V\u1ecdng H\u1eadu C\u1ea7u Gi\u1ea5y H\u00e0 N\u1ed9i, Vietnam", "geometry": {"location": {"lat": 21.037649, "lng": 105.7816119}, "location_type": "ROOFTOP", "viewport": {"northeast": {"lat": 21.0389979802915, "lng": 105.7829608802915}, "southwest": {"lat": 21.0363000197085, "lng": 105.7802629197085}}}, "place_id": "ChIJSR4BW7VUNDERYEFgxC3BBpQ", "types": ["establishment", "point_of_interest", "university"]}]}, "123565023": {"AfN": "vietnam national university ho chi minh city", "Location": [{"address_components": [{"long_name": "\u0110\u00f4ng Ho\u00e0", "short_name": "\u0110\u00f4ng Ho\u00e0", "types": ["administrative_area_level_3", "political"]}, {"long_name": "Th\u1ee7 \u0110\u1ee9c", "short_name": "Th\u1ee7 \u0110\u1ee9c", "types": ["administrative_area_level_2", "political"]}, {"long_name": "H\u1ed3 Ch\u00ed Minh", "short_name": "H\u1ed3 Ch\u00ed Minh", "types": ["administrative_area_level_1", "political"]}, {"long_name": "Vietnam", "short_name": "VN", "types": ["country", "political"]}], "formatted_address": "\u0110\u00f4ng Ho\u00e0, Th\u1ee7 \u0110\u1ee9c, H\u1ed3 Ch\u00ed Minh, Vietnam", "geometry": {"location": {"lat": 10.8774839, "lng": 106.7929669}, "location_type": "GEOMETRIC_CENTER", "viewport": {"northeast": {"lat": 10.8788328802915, "lng": 106.7943158802915}, "southwest": {"lat": 10.8761349197085, "lng": 106.7916179197085}}}, "place_id": "ChIJZxqJzl8ndTERQ8RaZD4tDIs", "types": ["establishment", "point_of_interest", "university"]}, {"address_components": [{"long_name": "khu ph\u1ed1 6", "short_name": "khu ph\u1ed1 6", "types": ["neighborhood", "political"]}, {"long_name": "Linh Trung", "short_name": "Linh Trung", "types": ["political", "sublocality", "sublocality_level_1"]}, {"long_name": "Th\u1ee7 \u0110\u1ee9c", "short_name": "Th\u1ee7 \u0110\u1ee9c", "types": ["administrative_area_level_2", "political"]}, {"long_name": "H\u1ed3 Ch\u00ed Minh", "short_name": "H\u1ed3 Ch\u00ed Minh", "types": ["administrative_area_level_1", "political"]}, {"long_name": "Vietnam", "short_name": "VN", "types": ["country", "political"]}], "formatted_address": "khu ph\u1ed1 6, Th\u1ee7 \u0110\u1ee9c, H\u1ed3 Ch\u00ed Minh, Vietnam", "geometry": {"location": {"lat": 10.8777684, "lng": 106.801639}, "location_type": "GEOMETRIC_CENTER", "viewport": {"northeast": {"lat": 10.8791173802915, "lng": 106.8029879802915}, "southwest": {"lat": 10.8764194197085, "lng": 106.8002900197085}}}, "place_id": "ChIJIdKpFaTYdDER-XaTVkErDFU", "types": ["establishment", "point_of_interest", "university"]}]}, "71374576": {"AfN": "vikram sarabhai space centre", "Location": [{"address_components": [{"long_name": "Thiruvananthapuram", "short_name": "TVM", "types": ["locality", "political"]}, {"long_name": "Kerala", "short_name": "KL", "types": ["administrative_area_level_1", "political"]}, {"long_name": "India", "short_name": "IN", "types": ["country", "political"]}, {"long_name": "695022", "short_name": "695022", "types": ["postal_code"]}], "formatted_address": "VSSC Road, Thumba, Thiruvananthapuram, Kerala 695022, India", "geometry": {"location": {"lat": 8.541944599999999, "lng": 76.862374}, "location_type": "GEOMETRIC_CENTER", "viewport": {"northeast": {"lat": 8.5432935802915, "lng": 76.86372298029151}, "southwest": {"lat": 8.540595619708498, "lng": 76.86102501970849}}}, "place_id": "ChIJy0Lzi2K-BTsRlwPQqrGvc9U", "types": ["establishment", "point_of_interest"]}]}, "7863295": {"AfN": "villanova university", "Location": [{"address_components": [{"long_name": "800", "short_name": "800", "types": ["street_number"]}, {"long_name": "E. Lancaster Avenue", "short_name": "E. Lancaster Avenue", "types": ["route"]}, {"long_name": "Villanova", "short_name": "Villanova", "types": ["locality", "political"]}, {"long_name": "Radnor Township", "short_name": "Radnor Township", "types": ["administrative_area_level_3", "political"]},