{"60328206": {"AfN": "ansaldo sts", "Location": [{"address_components": [{"long_name": "1000", "short_name": "1000", "types": ["street_number"]}, {"long_name": "Technology Drive", "short_name": "Technology Dr", "types": ["route"]}, {"long_name": "South Oakland", "short_name": "South Oakland", "types": ["neighborhood", "political"]}, {"long_name": "Pittsburgh", "short_name": "Pittsburgh", "types": ["locality", "political"]}, {"long_name": "Allegheny County", "short_name": "Allegheny County", "types": ["administrative_area_level_2", "political"]}, {"long_name": "Pennsylvania", "short_name": "PA", "types": ["administrative_area_level_1", "political"]}, {"long_name": "United States", "short_name": "US", "types": ["country", "political"]}, {"long_name": "15219", "short_name": "15219", "types": ["postal_code"]}, {"long_name": "3120", "short_name": "3120", "types": ["postal_code_suffix"]}], "formatted_address": "1000 Technology Dr, Pittsburgh, PA 15219, USA", "geometry": {"location": {"lat": 40.433594, "lng": -79.967148}, "location_type": "ROOFTOP", "viewport": {"northeast": {"lat": 40.4349429802915, "lng": -79.96579901970848}, "southwest": {"lat": 40.4322450197085, "lng": -79.9684969802915}}}, "place_id": "ChIJo9L7q3nxNIgRmAdf5JnICxQ", "types": ["establishment", "place_of_worship", "point_of_interest"]}, {"address_components": [{"long_name": "645", "short_name": "645", "types": ["street_number"]}, {"long_name": "Russell Street", "short_name": "Russell St", "types": ["route"]}, {"long_name": "Batesburg", "short_name": "Batesburg", "types": ["political", "sublocality", "sublocality_level_1"]}, {"long_name": "Batesburg-Leesville", "short_name": "Batesburg-Leesville", "types": ["locality", "political"]}, {"long_name": "Lexington County", "short_name": "Lexington County", "types": ["administrative_area_level_2", "political"]}, {"long_name": "South Carolina", "short_name": "SC", "types": ["administrative_area_level_1", "political"]}, {"long_name": "United States", "short_name": "US", "types": ["country", "political"]}, {"long_name": "29006", "short_name": "29006", "types": ["postal_code"]}, {"long_name": "1828", "short_name": "1828", "types": ["postal_code_suffix"]}], "formatted_address": "645 Russell St, Batesburg, SC 29006, USA", "geometry": {"location": {"lat": 33.90177, "lng": -81.556589}, "location_type": "ROOFTOP", "viewport": {"northeast": {"lat": 33.9031189802915, "lng": -81.55524001970849}, "southwest": {"lat": 33.9004210197085, "lng": -81.55793798029151}}}, "place_id": "ChIJudqhlVZg-IgRxotGuByiaO4", "types": ["establishment", "point_of_interest"]}]}, "51713134": {"AfN": "anschutz medical campus", "Location": [{"address_components": [{"long_name": "13001", "short_name": "13001", "types": ["street_number"]}, {"long_name": "East 17th Place", "short_name": "E 17th Pl", "types": ["route"]}, {"long_name": "Fitzsimons", "short_name": "Fitzsimons", "types": ["neighborhood", "political"]}, {"long_name": "Aurora", "short_name": "Aurora", "types": ["locality", "political"]}, {"long_name": "Adams County", "short_name": "Adams County", "types": ["administrative_area_level_2", "political"]}, {"long_name": "Colorado", "short_name": "CO", "types": ["administrative_area_level_1", "political"]}, {"long_name": "United States", "short_name": "US", "types": ["country", "political"]}, {"long_name": "80045", "short_name": "80045", "types": ["postal_code"]}], "formatted_address": "13001 E 17th Pl, Aurora, CO 80045, USA", "geometry": {"location": {"lat": 39.7450574, "lng": -104.8376073}, "location_type": "ROOFTOP", "viewport": {"northeast": {"lat": 39.7464063802915, "lng": -104.8362583197085}, "southwest": {"lat": 39.7437084197085, "lng": -104.8389562802915}}}, "place_id": "ChIJ2Xf98E5jbIcR-R-pnK4QBTY", "types": ["establishment", "point_of_interest", "university"]}]}, "1300204847": {"AfN": "anses", "Location": [{"address_components": [{"long_name": "720", "short_name": "720", "types": ["street_number"]}, {"long_name": "Avenida C\u00f3rdoba", "short_name": "Av. C\u00f3rdoba", "types": ["route"]}, {"long_name": "San Nicolas", "short_name": "San Nicolas", "types": ["political", "sublocality", "sublocality_level_1"]}, {"long_name": "Comuna 1", "short_name": "Comuna 1", "types": ["administrative_area_level_2", "political"]}, {"long_name": "Buenos Aires", "short_name": "CABA", "types": ["administrative_area_level_1", "political"]}, {"long_name": "Argentina", "short_name": "AR", "types": ["country", "political"]}, {"long_name": "C1054", "short_name": "C1054", "types": ["postal_code"]}, {"long_name": "AAT", "short_name": "AAT", "types": ["postal_code_suffix"]}], "formatted_address": "Av. C\u00f3rdoba 720, C1054AAT CABA, Argentina", "geometry": {"location": {"lat": -34.5989806, "lng": -58.377259}, "location_type": "ROOFTOP", "viewport": {"northeast": {"lat": -34.5976316197085, "lng": -58.37591001970849}, "southwest": {"lat": -34.60032958029149, "lng": -58.3786079802915}}}, "place_id": "ChIJLw0C1MvKvJURIUpyDZkw0cc", "types": ["establishment", "local_government_office", "point_of_interest"]}]}, "21160419": {"AfN": "ansys", "Location": [{"address_components": [{"long_name": "2600", "short_name": "2600", "types": ["street_number"]}, {"long_name": "Ansys Drive", "short_name": "Ansys Dr", "types": ["route"]}, {"long_name": "Canonsburg", "short_name": "Canonsburg", "types": ["locality", "political"]}, {"long_name": "Cecil Township", "short_name": "Cecil Township", "types": ["administrative_area_level_3", "political"]}, {"long_name": "Washington County", "short_name": "Washington County", "types": ["administrative_area_level_2", "political"]}, {"long_name": "Pennsylvania", "short_name": "PA", "types": ["administrative_area_level_1", "political"]}, {"long_name": "United States", "short_name": "US", "types": ["country", "political"]}, {"long_name": "15317", "short_name": "15317", "types": ["postal_code"]}], "formatted_address": "2600 Ansys Dr, Canonsburg, PA 15317, USA", "geometry": {"location": {"lat": 40.27179539999999, "lng": -80.1663374}, "location_type": "ROOFTOP", "viewport": {"northeast": {"lat": 40.2731443802915, "lng": -80.1649884197085}, "southwest": {"lat": 40.2704464197085, "lng": -80.1676863802915}}}, "place_id": "ChIJw4l8EBNUNIgRb8wRszzhBbo", "types": ["establishment", "point_of_interest"]}]}, "181149056": {"AfN": "antelope valley college", "Location": [{"address_components": [{"long_name": "3041", "short_name": "3041", "types": ["street_number"]}, {"long_name": "W Ave K", "short_name": "W Ave K", "types": ["route"]}, {"long_name": "Lancaster", "short_name": "Lancaster", "types": ["locality", "political"]}, {"long_name": "Los Angeles County", "short_name": "Los Angeles County", "types": ["administrative_area_level_2", "political"]}, {"long_name": "California", "short_name": "CA", "types": ["administrative_area_level_1", "political"]}, {"long_name": "United States", "short_name": "US", "types": ["country", "political"]}, {"long_name": "93536", "short_name": "93536", "types": ["postal_code"]}], "formatted_address": "3041 W Ave K, Lancaster, CA 93536, USA", "geometry": {"location": {"lat": 34.6769819, "lng": -118.1862581}, "location_type": "ROOFTOP", "viewport": {"northeast": {"lat": 34.6783308802915, "lng": -118.1849091197085}, "southwest": {"lat": 34.67563291970851, "lng": -118.1876070802915}}}, "place_id": "ChIJ82kFnGpbwoARFS7EvJvC8t0", "types": ["establishment", "point_of_interest", "university"]}]}, "131209590": {"AfN": "antioch university new england", "Location": [{"address_components": [{"long_name": "40", "short_name": "40", "types": ["street_number"]}, {"long_name": "Avon Street", "short_name": "Avon St", "types": ["route"]}, {"long_name": "Keene", "short_name": "Keene", "types": ["locality", "political"]}, {"long_name": "Cheshire County", "short_name": "Cheshire County", "types": ["administrative_area_level_2", "political"]}, {"long_name": "New Hampshire", "short_name": "NH", "types": ["administrative_area_level_1", "political"]}, {"long_name": "United States", "short_name": "US", "types": ["country", "political"]}, {"long_name": "03431", "short_name": "03431", "types": ["postal_code"]}, {"long_name": "3516", "short_name": "3516", "types": ["postal_code_suffix"]}], "formatted_address": "40 Avon St, Keene, NH 03431, USA", "geometry": {"location": {"lat": 42.9317822, "lng": -72.2938339}, "location_type": "ROOFTOP", "viewport": {"northeast": {"lat": 42.9331311802915, "lng": -72.29248491970849}, "southwest": {"lat": 42.9304332197085, "lng": -72.29518288029149}}}, "place_id": "ChIJJVhW4Hxz4YkR39t1YPz73qI", "types": ["establishment", "library", "point_of_interest", "university"]}]}, "93906172": {"AfN": "anyang university", "Location": [{"address_components": [{"long_name": "22", "short_name": "22", "types": ["political", "premise"]}, {"long_name": "Samdeok-ro 37beon-gil", "short_name": "Samdeok-ro 37beon-gil", "types": ["political", "sublocality", "sublocality_level_4"]}, {"long_name": "Anyang 5(o)-dong", "short_name": "Anyang 5(o)-dong", "types": ["political", "sublocality", "sublocality_level_2"]}, {"long_name": "Manan-gu", "short_name": "Manan-gu", "types": ["political", "sublocality", "sublocality_level_1"]}, {"long_name": "Anyang", "short_name": "Anyang", "types": ["locality", "political"]}, {"long_name": "Gyeonggi-do", "short_name": "Gyeonggi-do", "types": ["administrative_area_level_1", "political"]}, {"long_name": "South Korea", "short_name": "KR", "types": ["country", "political"]}, {"long_name": "430-010", "short_name": "430-010", "types": ["postal_code"]}], "formatted_address": "22 Samdeok-ro 37beon-gil, Anyang 5(o)-dong, Manan-gu, Anyang, Gyeonggi-do, South Korea", "geometry": {"location": {"lat": 37.3917773, "lng": 126.9197857}, "location_type": "ROOFTOP", "viewport": {"northeast": {"lat": 37.3931262802915, "lng": 126.9211346802915}, "southwest": {"lat": 37.3904283197085, "lng": 126.9184367197085}}}, "place_id": "ChIJAzUVDS1nezURlTfLB0JbHfE", "types": ["establishment", "point_of_interest", "university"]}]}, "1307721752": {"AfN": "aol", "Location": [{"address_components": [{"long_name": "1817", "short_name": "1817", "types": ["street_number"]}, {"long_name": "Sharon Court", "short_name": "Sharon Ct", "types": ["route"]}, {"long_name": "Winfield", "short_name": "Winfield", "types": ["locality", "political"]}, {"long_name": "Cowley County", "short_name": "Cowley County", "types": ["administrative_area_level_2", "political"]}, {"long_name": "Kansas", "short_name": "KS", "types": ["administrative_area_level_1", "political"]}, {"long_name": "United States", "short_name": "US", "types": ["country", "political"]}, {"long_name": "67156", "short_name": "67156", "types": ["postal_code"]}, {"long_name": "6319", "short_name": "6319", "types": ["postal_code_suffix"]}], "formatted_address": "1817 Sharon Ct, Winfield, KS 67156, USA", "geometry": {"location": {"lat": 37.238293, "lng": -97.016482}, "location_type": "ROOFTOP", "viewport": {"northeast": {"lat": 37.23964198029149, "lng": -97.0151330197085}, "southwest": {"lat": 37.2369440197085, "lng": -97.0178309802915}}}, "place_id": "ChIJF-RIEph8uocRrn5CC-69NjI", "types": ["establishment", "point_of_interest"]}]}, "42144348": {"AfN": "aomori university", "Location": [{"address_components": [{"long_name": "1", "short_name": "1", "types": ["premise"]}, {"long_name": "3", "short_name": "3", "types": ["political", "sublocality", "sublocality_level_4"]}, {"long_name": "2 Chome", "short_name": "2 Chome", "types": ["political", "sublocality", "sublocality_level_3"]}, {"long_name": "Kobata", "short_name": "Kobata", "types": ["political", "sublocality", "sublocality_level_2"]}, {"long_name": "Aomori", "short_name": "Aomori", "types": ["locality", "political"]}, {"long_name": "Aomori Prefecture", "short_name": "Aomori Prefecture", "types": ["administrative_area_level_1", "political"]}, {"long_name": "Japan", "short_name": "JP", "types": ["country", "political"]}, {"long_name": "030-0943", "short_name": "030-0943", "types": ["postal_code"]}], "formatted_address": "2 Chome-3-1 Kobata, Aomori, Aomori Prefecture 030-0943, Japan", "geometry": {"location": {"lat": 40.784068, "lng": 140.781174}, "location_type": "ROOFTOP", "viewport": {"northeast": {"lat": 40.7854169802915, "lng": 140.7825229802915}, "southwest": {"lat": 40.7827190197085, "lng": 140.7798250197085}}}, "place_id": "ChIJL5aV2WZ1m18RFu-xkJRJbD8", "types": ["establishment", "point_of_interest", "university"]}]}, "131231118": {"AfN": "aoyama gakuin university", "Location": [{"address_components": [{"long_name": "Tokyo", "short_name": "Tokyo", "types": ["administrative_area_level_1", "political"]}, {"long_name": "Japan", "short_name": "JP", "types": ["country", "political"]}, {"long_name": "150-8366", "short_name": "150-8366", "types": ["postal_code"]}], "formatted_address": "Japan, \u3012150-8366 Tokyo, \u6e0b\u8c37\u533a\u6e0b\u8c37\uff14\u4e01\u76ee\uff14\u2212\uff12\uff15", "geometry": {"location": {"lat": 35.6603742, "lng": 139.7095579}, "location_type": "GEOMETRIC_CENTER", "viewport": {"northeast": {"lat": 35.6617231802915, "lng": 139.7109068802915}, "southwest": {"lat": 35.6590252197085, "lng": 139.7082089197085}}}, "place_id": "ChIJedBg_Hr9GGARPluU2pCmPi8", "types": ["establishment", "point_of_interest", "school", "university"]}]}, "144536108": {"AfN": "apache corporation", "Location": [{"address_components": [{"long_name": "5010", "short_name": "5010", "types": ["street_number"]}, {"long_name": "South Vandalia Avenue", "short_name": "S Vandalia Ave", "types": ["route"]}, {"long_name": "Patrick Henry", "short_name": "Patrick Henry", "types": ["neighborhood", "political"]}, {"long_name": "Tulsa", "short_name": "Tulsa", "types": ["locality", "political"]}, {"long_name": "Tulsa County", "short_name": "Tulsa County", "types": ["administrative_area_level_2", "political"]}, {"long_name": "Oklahoma", "short_name": "OK", "types": ["administrative_area_level_1", "political"]}, {"long_name": "United States", "short_name": "US", "types": ["country", "political"]}, {"long_name": "74135", "short_name": "74135", "types": ["postal_code"]}], "formatted_address": "5010 S Vandalia Ave, Tulsa, OK 74135, USA", "geometry": {"location": {"lat": 36.089804, "lng": -95.9244542}, "location_type": "ROOFTOP", "viewport": {"northeast": {"lat": 36.0911529802915, "lng": -95.92310521970849}, "southwest": {"lat": 36.0884550197085, "lng": -95.92580318029151}}}, "place_id": "ChIJhcz49-uStocRoQxdc1d246o", "types": ["establishment", "point_of_interest"]}]}, "859450330": {"AfN": "apc by schneider electric", "Location": [{"address_components": [{"long_name": "132", "short_name": "132", "types": ["street_number"]}, {"long_name": "Fairgrounds Road", "short_name": "Fairgrounds Rd", "types": ["route"]}, {"long_name": "West Kingston", "short_name": "West Kingston", "types": ["neighborhood", "political"]}, {"long_name": "South Kingstown", "short_name": "South Kingstown", "types": ["locality", "political"]}, {"long_name": "Washington County", "short_name": "Washington County", "types": ["administrative_area_level_2", "political"]}, {"long_name": "Rhode Island", "short_name": "RI", "types": ["administrative_area_level_1", "political"]}, {"long_name": "United States", "short_name": "US", "types": ["country", "political"]}, {"long_name": "02892", "short_name": "02892", "types": ["postal_code"]}, {"long_name": "1517", "short_name": "1517", "types": ["postal_code_suffix"]}], "formatted_address": "132 Fairgrounds Rd, West Kingston, RI 02892, USA", "geometry": {"location": {"lat": 41.4833044, "lng": -71.5666461}, "location_type": "ROOFTOP", "viewport": {"northeast": {"lat": 41.4846533802915, "lng": -71.5652971197085}, "southwest": {"lat": 41.48195541970851, "lng": -71.56799508029151}}}, "place_id": "ChIJeULoqH645YkRl1PLQgdlx3E", "types": ["establishment", "point_of_interest"]}]}, "921756453": {"AfN": "apollo global management", "Location": [{"address_components": [{"long_name": "#1601", "short_name": "#1601", "types": ["subpremise"]}, {"long_name": "730", "short_name": "730", "types": ["street_number"]}, {"long_name": "5th Avenue", "short_name": "5th Ave", "types": ["route"]}, {"long_name": "New York", "short_name": "New York", "types": ["locality", "political"]}, {"long_name": "New York", "short_name": "NY", "types": ["administrative_area_level_1", "political"]}, {"long_name": "United States", "short_name": "US", "types": ["country", "political"]}, {"long_name": "10019", "short_name": "10019", "types": ["postal_code"]}], "formatted_address": "4115, 730 5th Ave #1601, New York, NY 10019, United States", "geometry": {"location": {"lat": 40.763829, "lng": -73.974955}, "location_type": "ROOFTOP", "viewport": {"northeast": {"lat": 40.7651779802915, "lng": -73.97360601970848}, "southwest": {"lat": 40.76248001970851, "lng": -73.97630398029149}}}, "place_id": "ChIJIWG0ZfpYwokRwgMm4l_4Vhw", "types": ["establishment", "finance", "point_of_interest"]}]}, "1302839792": {"AfN": "apollo hospital indraprastha", "Location": [{"address_components": [{"long_name": "Mathura Road", "short_name": "Mathura Rd", "types": ["route"]}, {"long_name": "Sarita Vihar", "short_name": "Sarita Vihar", "types": ["political", "sublocality", "sublocality_level_1"]}, {"long_name": "New Delhi", "short_name": "New Delhi", "types": ["locality", "political"]}, {"long_name": "South East Delhi", "short_name": "South East Delhi", "types": ["administrative_area_level_2", "political"]}, {"long_name": "Delhi", "short_name": "DL", "types": ["administrative_area_level_1", "political"]}, {"long_name": "India", "short_name": "IN", "types": ["country", "political"]}, {"long_name": "110076", "short_name": "110076", "types": ["postal_code"]}], "formatted_address": "Mathura Rd, Sarita Vihar, New Delhi, Delhi 110076, India", "geometry": {"location": {"lat": 28.5410991, "lng": 77.28354379999999}, "location_type": "GEOMETRIC_CENTER", "viewport": {"northeast": {"lat": 28.5424480802915, "lng": 77.28489278029149}, "southwest": {"lat": 28.5397501197085, "lng": 77.28219481970848}}}, "place_id": "ChIJmarqE63mDDkRd228dtR6wDs", "types": ["establishment", "hospital", "point_of_interest"]}]}, "1327930874": {"AfN": "apollo hospitals", "Location": [{"address_components": [{"long_name": "7414", "short_name": "7414", "types": ["street_number"]}, {"long_name": "Sumrall Drive", "short_name": "Sumrall Dr", "types": ["route"]}, {"long_name": "Baton Rouge", "short_name": "Baton Rouge", "types": ["locality", "political"]}, {"long_name": "5", "short_name": "5", "types": ["administrative_area_level_3", "political"]}, {"long_name": "East Baton Rouge Parish", "short_name": "East Baton Rouge Parish", "types": ["administrative_area_level_2", "political"]}, {"long_name": "Louisiana", "short_name": "LA", "types": ["administrative_area_level_1", "political"]}, {"long_name": "United States", "short_name": "US", "types": ["country", "political"]}, {"long_name": "70812", "short_name": "70812", "types": ["postal_code"]}, {"long_name": "1240", "short_name": "1240", "types": ["postal_code_suffix"]}], "formatted_address": "7414 Sumrall Dr, Baton Rouge, LA 70812, USA", "geometry": {"location": {"lat": 30.5153217, "lng": -91.11679099999999}, "location_type": "ROOFTOP", "viewport": {"northeast": {"lat": 30.5166706802915, "lng": -91.11544201970848}, "southwest": {"lat": 30.5139727197085, "lng": -91.11813998029149}}}, "place_id": "ChIJ_S-ILw2iJoYRdosL5a6_3mA", "types": ["establishment", "health", "hospital", "point_of_interest"]}]}, "430192": {"AfN": "appalachian state university", "Location": [{"address_components": [{"long_name": "287", "short_name": "287", "types": ["street_number"]}, {"long_name": "Rivers Street", "short_name": "Rivers St", "types": ["route"]}, {"long_name": "Boone", "short_name": "Boone", "types": ["locality", "political"]}, {"long_name": "Watauga County", "short_name": "Watauga County", "types": ["administrative_area_level_2", "political"]}, {"long_name": "North Carolina", "short_name": "NC", "types": ["administrative_area_level_1", "political"]}, {"long_name": "United States", "short_name": "US", "types": ["country", "political"]}, {"long_name": "28608", "short_name": "28608", "types": ["postal_code"]}], "formatted_address": "287 Rivers St, Boone, NC 28608, USA", "geometry": {"location": {"lat": 36.2134842, "lng": -81.6841448}, "location_type": "ROOFTOP", "viewport": {"northeast": {"lat": 36.2148331802915, "lng": -81.6827958197085}, "southwest": {"lat": 36.2121352197085, "lng": -81.68549378029151}}}, "place_id": "ChIJISOb8k76UIgRPHSnzge3TRw", "types": ["establishment", "point_of_interest", "university"]}]}, "1311269955": {"AfN": "apple inc", "Location": [{"address_components": [{"long_name": "2511", "short_name": "2511", "types": ["street_number"]}, {"long_name": "Laguna Boulevard", "short_name": "Laguna Blvd", "types": ["route"]}, {"long_name": "Elk Grove", "short_name": "Elk Grove", "types": ["locality", "political"]}, {"long_name": "Sacramento County", "short_name": "Sacramento County", "types": ["administrative_area_level_2", "political"]}, {"long_name": "California", "short_name": "CA", "types": ["administrative_area_level_1", "political"]}, {"long_name": "United States", "short_name": "US", "types": ["country", "political"]}, {"long_name": "95758", "short_name": "95758", "types": ["postal_code"]}, {"long_name": "7421", "short_name": "7421", "types": ["postal_code_suffix"]}], "formatted_address": "2511 Laguna Blvd, Elk Grove, CA 95758, USA", "geometry": {"location": {"lat": 38.4293061, "lng": -121.4791781}, "location_type": "ROOFTOP", "viewport": {"northeast": {"lat": 38.43065508029149, "lng": -121.4778291197085}, "southwest": {"lat": 38.42795711970849, "lng": -121.4805270802915}}}, "place_id": "ChIJV_rtws_ImoARkqHzgQoy3So", "types": ["establishment", "point_of_interest"]}]}, "200522546": {"AfN": "applied biosystems", "Location": [{"address_components": [{"long_name": "5791", "short_name": "5791", "types": ["street_number"]}, {"long_name": "Van Allen Way", "short_name": "Van Allen Way", "types": ["route"]}, {"long_name": "Carlsbad", "short_name": "Carlsbad", "types": ["locality", "political"]}, {"long_name": "San Diego County", "short_name": "San Diego County", "types": ["administrative_area_level_2", "political"]}, {"long_name": "California", "short_name": "CA", "types": ["administrative_area_level_1", "political"]}, {"long_name": "United States", "short_name": "US", "types": ["country", "political"]}, {"long_name": "92008", "short_name": "92008", "types": ["postal_code"]}, {"long_name": "7321", "short_name": "7321", "types": ["postal_code_suffix"]}], "formatted_address": "5791 Van Allen Way, Carlsbad, CA 92008, USA", "geometry": {"location": {"lat": 33.1372913, "lng": -117.2879746}, "location_type": "ROOFTOP", "viewport": {"northeast": {"lat": 33.1386402802915, "lng": -117.2866256197085}, "southwest": {"lat": 33.1359423197085, "lng": -117.2893235802915}}}, "place_id": "ChIJoXurvnNz3IAR8tDmfwi63so", "types": ["establishment", "point_of_interest"]}, {"address_components": [{"long_name": "500", "short_name": "500", "types": ["street_number"]}, {"long_name": "Cummings Center", "short_name": "Cummings Center", "types": ["route"]}, {"long_name": "Beverly", "short_name": "Beverly", "types": ["locality", "political"]}, {"long_name": "Essex County", "short_name": "Essex County", "types": ["administrative_area_level_2", "political"]}, {"long_name": "Massachusetts", "short_name": "MA", "types": ["administrative_area_level_1", "political"]}, {"long_name": "United States", "short_name": "US", "types": ["country", "political"]}, {"long_name": "01915", "short_name": "01915", "types": ["postal_code"]}, {"long_name": "6142", "short_name": "6142", "types": ["postal_code_suffix"]}], "formatted_address": "500 Cummings Center, Beverly, MA 01915, USA", "geometry": {"location": {"lat": 42.5621792, "lng": -70.8895871}, "location_type": "ROOFTOP", "viewport": {"northeast": {"lat": 42.5635281802915, "lng": -70.88823811970849}, "southwest": {"lat": 42.5608302197085, "lng": -70.89093608029151}}}, "place_id": "ChIJI65w3bwW44kRZzue3JzJXXQ", "types": ["establishment", "point_of_interest"]}]}, "73494815": {"AfN": "applied communication sciences", "Location": [{"address_components": [{"long_name": "331", "short_name": "331", "types": ["street_number"]}, {"long_name": "Newman Springs Road", "short_name": "Newman Springs Rd", "types": ["route"]}, {"long_name": "Red Bank", "short_name": "Red Bank", "types": ["locality", "political"]}, {"long_name": "Monmouth County", "short_name": "Monmouth County", "types": ["administrative_area_level_2", "political"]}, {"long_name": "New Jersey", "short_name": "NJ", "types": ["administrative_area_level_1", "political"]}, {"long_name": "United States", "short_name": "US", "types": ["country", "political"]}, {"long_name": "07701", "short_name": "07701", "types": ["postal_code"]}], "formatted_address": "331 Newman Springs Rd, Red Bank, NJ 07701, USA", "geometry": {"location": {"lat": 40.3340925, "lng": -74.0960892}, "location_type": "ROOFTOP", "viewport": {"northeast": {"lat": 40.33544148029149, "lng": -74.0947402197085}, "southwest": {"lat": 40.3327435197085, "lng": -74.0974381802915}}}, "place_id": "ChIJwUVozdgxwokRUYEC9VY_g6U", "types": ["establishment", "point_of_interest"]}, {"address_components": [{"long_name": "150", "short_name": "150", "types": ["street_number"]}, {"long_name": "Mount Airy Road", "short_name": "Mt Airy Rd", "types": ["route"]}, {"long_name": "Basking Ridge", "short_name": "Basking Ridge", "types": ["neighborhood", "political"]}, {"long_name": "Bernards", "short_name": "Bernards", "types": ["locality", "political"]}, {"long_name": "Somerset County", "short_name": "Somerset County", "types": ["administrative_area_level_2", "political"]}, {"long_name": "New Jersey", "short_name": "NJ", "types": ["administrative_area_level_1", "political"]}, {"long_name": "United States", "short_name": "US", "types": ["country", "political"]}, {"long_name": "07920", "short_name": "07920", "types": ["postal_code"]}], "formatted_address": "150 Mt Airy Rd, Basking Ridge, NJ 07920, USA", "geometry": {"location": {"lat": 40.6950651, "lng": -74.5728188}, "location_type": "ROOFTOP", "viewport": {"northeast": {"lat": 40.6964140802915, "lng": -74.5714698197085}, "southwest": {"lat": 40.6937161197085, "lng": -74.5741677802915}}}, "place_id": "ChIJF4hAxGu9w4kREr1SBhLcaQU", "types": ["establishment", "point_of_interest"]}]}, "193427800": {"AfN": "applied materials", "Location": [{"address_components": [{"long_name": "10000", "short_name": "10000", "types": ["street_number"]}, {"long_name": "Spectrum Drive", "short_name": "Spectrum Dr", "types": ["route"]}, {"long_name": "Davis Spring Commercial", "short_name": "Davis Spring Commercial", "types": ["neighborhood", "political"]}, {"long_name": "Austin", "short_name": "Austin", "types": ["locality", "political"]}, {"long_name": "Williamson County", "short_name": "Williamson County", "types": ["administrative_area_level_2", "political"]}, {"long_name": "Texas", "short_name": "TX", "types": ["administrative_area_level_1", "political"]}, {"long_name": "United States", "short_name": "US", "types": ["country", "political"]}, {"long_name": "78717", "short_name": "78717", "types": ["postal_code"]}, {"long_name": "4557", "short_name": "4557", "types": ["postal_code_suffix"]}], "formatted_address": "10000 Spectrum Dr, Austin, TX 78717, USA", "geometry": {"location": {"lat": 30.4818657, "lng": -97.77897469999999}, "location_type": "ROOFTOP", "viewport": {"northeast": {"lat": 30.4832146802915, "lng": -97.7776257197085}, "southwest": {"lat": 30.4805167197085, "lng": -97.7803236802915}}}, "place_id": "ChIJc_EQw6nSRIYRVziXgkyyrks", "types": ["establishment", "point_of_interest"]}]}, "146367977": {"AfN": "applied science private university", "Location": [{"address_components": [{"long_name": "Amman", "short_name": "Amman", "types": ["locality", "political"]}, {"long_name": "Amman Governorate", "short_name": "Amman Governorate", "types": ["administrative_area_level_1", "political"]}, {"long_name": "Jordan", "short_name": "JO", "types": ["country", "political"]}], "formatted_address": "Al Arab St 21\u060c Amman, Jordan", "geometry": {"location": {"lat": 32.0400076, "lng": 35.9003989}, "location_type": "GEOMETRIC_CENTER", "viewport": {"northeast": {"lat": 32.04135658029149, "lng": 35.9017478802915}, "southwest": {"lat": 32.03865861970849, "lng": 35.8990499197085}}}, "place_id": "ChIJ7_H6QjqeHBURRyJte_2Qunw", "types": ["establishment", "point_of_interest", "university"]}]}, "858672849": {"AfN": "applied signal technology inc", "Location": [{"address_components": [{"long_name": "20101", "short_name": "20101", "types": ["street_number"]}, {"long_name": "Hamilton Avenue", "short_name": "Hamilton Ave", "types": ["route"]}, {"long_name": "Harbor", "short_name": "Harbor", "types": ["neighborhood", "political"]}, {"long_name": "Torrance", "short_name": "Torrance", "types": ["locality", "political"]}, {"long_name": "Los Angeles County", "short_name": "Los Angeles County", "types": ["administrative_area_level_2", "political"]}, {"long_name": "California", "short_name": "CA", "types": ["administrative_area_level_1", "political"]}, {"long_name": "United States", "short_name": "US", "types": ["country", "political"]}, {"long_name": "90502", "short_name": "90502", "types": ["postal_code"]}, {"long_name": "1351", "short_name": "1351", "types": ["postal_code_suffix"]}], "formatted_address": "20101 Hamilton Ave, Torrance, CA 90502, USA", "geometry": {"location": {"lat": 33.8484701, "lng": -118.2869055}, "location_type": "ROOFTOP", "viewport": {"northeast": {"lat": 33.8498190802915, "lng": -118.2855565197085}, "southwest": {"lat": 33.8471211197085, "lng": -118.2882544802915}}}, "place_id": "ChIJkyH7jE013YARiEY36GZRqjY", "types": ["establishment", "point_of_interest"]}]}, "868039980": {"AfN": "april", "Location": [{"address_components": [{"long_name": "1601", "short_name": "1601", "types": ["street_number"]}, {"long_name": "West 4th Street", "short_name": "W 4th St", "types": ["route"]}, {"long_name": "Coffeyville", "short_name": "Coffeyville", "types": ["locality", "political"]}, {"long_name": "Montgomery County", "short_name": "Montgomery County", "types": ["administrative_area_level_2", "political"]}, {"long_name": "Kansas", "short_name": "KS", "types": ["administrative_area_level_1", "political"]}, {"long_name": "United States", "short_name": "US", "types": ["country", "political"]}, {"long_name": "67337", "short_name": "67337", "types": ["postal_code"]}, {"long_name": "3333", "short_name": "3333", "types": ["postal_code_suffix"]}], "formatted_address": "1601 W 4th St, Coffeyville, KS 67337, USA", "geometry": {"location": {"lat": 37.0404156, "lng": -95.64147450000002}, "location_type": "ROOFTOP", "viewport": {"northeast": {"lat": 37.0417645802915, "lng": -95.64012551970852}, "southwest": {"lat": 37.0390666197085, "lng": -95.64282348029153}}}, "place_id": "ChIJ55FiTHmEt4cRRKw0YtR559k", "types": ["establishment", "health", "point_of_interest"]}]}, "59272784": {"AfN": "arab academy for science technology maritime transport", "Location": [{"address_components": [{"long_name": "Alexandria Desert Road", "short_name": "Alexandria Desert Rd", "types": ["route"]}, {"long_name": "Giza Governorate", "short_name": "Giza Governorate", "types": ["administrative_area_level_1", "political"]}, {"long_name": "Egypt", "short_name": "EG", "types": ["country", "political"]}], "formatted_address": "Alexandria Desert Rd, Giza Governorate, Egypt", "geometry": {"location": {"lat": 30.1539719, "lng": 30.8376316}, "location_type": "GEOMETRIC_CENTER", "viewport": {"northeast": {"lat": 30.15532088029149, "lng": 30.8389805802915}, "southwest": {"lat": 30.1526229197085, "lng": 30.8362826197085}}}, "place_id": "ChIJwySO6Dn0WBQRYvONJ2skStQ", "types": ["establishment", "point_of_interest"]}]}, "42869670": {"AfN": "arba minch university", "Location": [{"address_components": [{"long_name": "Arba Minch", "short_name": "Arba Minch", "types": ["locality", "political"]}, {"long_name": "Gamo Gofa", "short_name": "Gamo Gofa", "types": ["administrative_area_level_2", "political"]}, {"long_name": "Southern Nations, Nationalities, and People's Region", "short_name": "SNNPR", "types": ["administrative_area_level_1", "political"]}, {"long_name": "Ethiopia", "short_name": "ET", "types": ["country", "political"]}, {"long_name": "21", "short_name": "21", "types": ["postal_code"]}], "formatted_address": "Arba Minch 21, Ethiopia", "geometry": {"location": {"lat": 6.0652669, "lng": 37.5601134}, "location_type": "GEOMETRIC_CENTER", "viewport": {"northeast": {"lat": 6.066615880291502, "lng": 37.56146238029149}, "southwest": {"lat": 6.063917919708498, "lng": 37.5587644197085}}}, "place_id": "ChIJzY6XDWejuhcRdfaN0jhgpIs", "types": ["establishment", "point_of_interest", "university"]}]}, "51204116": {"AfN": "arcadia university", "Location": [{"address_components": [{"long_name": "450", "short_name": "450", "types": ["street_number"]}, {"long_name": "South Easton Road", "short_name": "S Easton Rd", "types": ["route"]}, {"long_name": "Glenside", "short_name": "Glenside", "types": ["locality", "political"]}, {"long_name": "Cheltenham Township", "short_name": "Cheltenham Township", "types": ["administrative_area_level_3", "political"]}, {"long_name": "Montgomery County", "short_name": "Montgomery County", "types": ["administrative_area_level_2", "political"]}, {"long_name": "Pennsylvania", "short_name": "PA", "types": ["administrative_area_level_1", "political"]}, {"long_name": "United States", "short_name": "US", "types": ["country", "political"]}, {"long_name": "19038", "short_name": "19038", "types": ["postal_code"]}], "formatted_address": "450 S Easton Rd, Glenside, PA 19038, USA", "geometry": {"location": {"lat": 40.0914406, "lng": -75.1648845}, "location_type": "ROOFTOP", "viewport": {"northeast": {"lat": 40.0927895802915, "lng": -75.16353551970849}, "southwest": {"lat": 40.0900916197085, "lng": -75.1662334802915}}}, "place_id": "ChIJsUxWxA-6xokRgpjynwxr27o", "types": ["establishment", "point_of_interest", "university"]}]}, "884722130": {"AfN": "arcadis nv", "Location": [{"address_components": [{"long_name": "# 350", "short_name": "# 350", "types": ["subpremise"]}, {"long_name": "8725", "short_name": "8725", "types": ["street_number"]}, {"long_name": "Rosehill Road", "short_name": "Rosehill Rd", "types": ["route"]}, {"long_name": "Lenexa Center", "short_name": "Lenexa Center", "types": ["neighborhood", "political"]}, {"long_name": "Lenexa", "short_name": "Lenexa", "types": ["locality", "political"]}, {"long_name": "Johnson County", "short_name": "Johnson County", "types": ["administrative_area_level_2", "political"]}, {"long_name": "Kansas", "short_name": "KS", "types": ["administrative_area_level_1", "political"]}, {"long_name": "United States", "short_name": "US", "types": ["country", "political"]}, {"long_name": "66215", "short_name": "66215", "types": ["postal_code"]}, {"long_name": "4611", "short_name": "4611", "types": ["postal_code_suffix"]}], "formatted_address": "8725 Rosehill Rd # 350, Lenexa, KS 66215, USA", "geometry": {"location": {"lat": 38.9703585, "lng": -94.73232259999999}, "location_type": "ROOFTOP", "viewport": {"northeast": {"lat": 38.9717074802915, "lng": -94.7309736197085}, "southwest": {"lat": 38.9690095197085, "lng": -94.7336715802915}}}, "place_id": "ChIJOTGSBayUwIcRrKOTaRuWn0I", "types": ["establishment", "point_of_interest"]}, {"address_components": [{"long_name": "# 100", "short_name": "# 100", "types": ["subpremise"]}, {"long_name": "630", "short_name": "630", "types": ["street_number"]}, {"long_name": "Plaza Drive", "short_name": "Plaza Dr", "types": ["route"]}, {"long_name": "Westridge", "short_name": "Westridge", "types": ["neighborhood", "political"]}, {"long_name": "Highlands Ranch", "short_name": "Highlands Ranch", "types": ["locality", "political"]}, {"long_name": "Douglas County", "short_name": "Douglas County", "types": ["administrative_area_level_2", "political"]}, {"long_name": "Colorado", "short_name": "CO", "types": ["administrative_area_level_1", "political"]}, {"long_name": "United States", "short_name": "US", "types": ["country", "political"]}, {"long_name": "80129", "short_name": "80129", "types": ["postal_code"]}, {"long_name": "2379", "short_name": "2379", "types": ["postal_code_suffix"]}], "formatted_address": "630 Plaza Dr # 100, Highlands Ranch, CO 80129, USA", "geometry": {"location": {"lat": 39.5572609, "lng": -104.9952261}, "location_type": "ROOFTOP", "viewport": {"northeast": {"lat": 39.55860988029149, "lng": -104.9938771197085}, "southwest": {"lat": 39.55591191970849, "lng": -104.9965750802915}}}, "place_id": "ChIJM4obozeCbIcR6ecBAK8z1Q8", "types": ["establishment", "point_of_interest"]}]}, "50754188": {"AfN": "arcelormittal", "Location": [{"address_components": [{"long_name": "5002", "short_name": "5002", "types": ["street_number"]}, {"long_name": "Bird Creek Avenue", "short_name": "Bird Creek Ave", "types": ["route"]}, {"long_name": "Catoosa", "short_name": "Catoosa", "types": ["locality", "political"]}, {"long_name": "Rogers County", "short_name": "Rogers County", "types": ["administrative_area_level_2", "political"]}, {"long_name": "Oklahoma", "short_name": "OK", "types": ["administrative_area_level_1", "political"]}, {"long_name": "United States", "short_name": "US", "types": ["country", "political"]}, {"long_name": "74015", "short_name": "74015", "types": ["postal_code"]}], "formatted_address": "5002 Bird Creek Ave, Catoosa, OK 74015, USA", "geometry": {"location": {"lat": 36.2236037, "lng": -95.7313992}, "location_type": "ROOFTOP", "viewport": {"northeast": {"lat": 36.2249526802915, "lng": -95.7300502197085}, "southwest": {"lat": 36.2222547197085, "lng": -95.73274818029151}}}, "place_id": "ChIJbXvGygL2tocRSaTrqenM-PE", "types": ["establishment", "point_of_interest"]}]}, "135428043": {"AfN": "archer", "Location": [{"address_components": [{"long_name": "910", "short_name": "910", "types": ["street_number"]}, {"long_name": "South Madison Boulevard", "short_name": "S Madison Blvd", "types": ["route"]}, {"long_name": "Bartlesville", "short_name": "Bartlesville", "types": ["locality", "political"]}, {"long_name": "Washington County", "short_name": "Washington County", "types": ["administrative_area_level_2", "political"]}, {"long_name": "Oklahoma", "short_name": "OK", "types": ["administrative_area_level_1", "political"]}, {"long_name": "United States", "short_name": "US", "types": ["country", "political"]}, {"long_name": "74006", "short_name": "74006", "types": ["postal_code"]}, {"long_name": "7713", "short_name": "7713", "types": ["postal_code_suffix"]}], "formatted_address": "910 S Madison Blvd, Bartlesville, OK 74006, USA", "geometry": {"location": {"lat": 36.7416492, "lng": -95.9168167}, "location_type": "ROOFTOP", "viewport": {"northeast": {"lat": 36.7429981802915, "lng": -95.9154677197085}, "southwest": {"lat": 36.7403002197085, "lng": -95.91816568029151}}}, "place_id": "ChIJu_oS3BQSt4cRjyFvxJdhK00", "types": ["establishment", "laundry", "point_of_interest"]}]}, "74994324": {"AfN": "archer daniels midland", "Location": [{"address_components": [{"long_name": "Mill Road", "short_name": "Mill Road", "types": ["route"]}, {"long_name": "Arkansas City", "short_name": "Arkansas City", "types": ["locality", "political"]}, {"long_name": "Kansas", "short_name": "KS", "types": ["administrative_area_level_1", "political"]}, {"long_name": "United States", "short_name": "US", "types": ["country", "political"]}, {"long_name": "67005", "short_name": "67005", "types": ["postal_code"]}], "formatted_address": "1200, Mill Road, Arkansas City, KS 67005, United States", "geometry": {"location": {"lat": 37.0497727, "lng": -97.02456509999999}, "location_type": "GEOMETRIC_CENTER", "viewport": {"northeast": {"lat": 37.05112168029149, "lng": -97.02321611970848}, "southwest": {"lat": 37.0484237197085, "lng": -97.0259140802915}}}, "place_id": "ChIJG_TK856BsIcRXNFClw_8t9I", "types": ["establishment", "food", "point_of_interest"]}]}, "99835756": {"AfN": "arco", "Location": [{"address_components": [{"long_name": "6837", "short_name": "6837", "types": ["street_number"]}, {"long_name": "East Harry Street", "short_name": "E Harry St", "types": ["route"]}, {"long_name": "Wichita", "short_name": "Wichita", "types": ["locality", "political"]}, {"long_name": "Sedgwick County", "short_name": "Sedgwick County", "types": ["administrative_area_level_2", "political"]}, {"long_name": "Kansas", "short_name": "KS", "types": ["administrative_area_level_1", "political"]}, {"long_name": "United States", "short_name": "US", "types": ["country", "political"]}, {"long_name": "67207", "short_name": "67207", "types": ["postal_code"]}, {"long_name": "2908", "short_name": "2908", "types": ["postal_code_suffix"]}], "formatted_address": "6837 E Harry St, Wichita, KS 67207, USA", "geometry": {"location": {"lat": 37.6639769, "lng": -97.2553822}, "location_type": "ROOFTOP", "viewport": {"northeast": {"lat": 37.6653258802915, "lng": -97.25403321970849}, "southwest": {"lat": 37.6626279197085, "lng": -97.25673118029151}}}, "place_id": "ChIJaeeLuVD7uocR3J0laWrjVcY", "types": ["establishment", "point_of_interest", "store"]}]}, "33103891": {"AfN": "ardabil university of medical sciences", "Location": [{"address_components": [{"long_name": "Ardabil", "short_name": "Ardabil", "types": ["locality", "political"]}, {"long_name": "Ardabil Province", "short_name": "Ardabil Province", "types": ["administrative_area_level_1", "political"]}, {"long_name": "Iran", "short_name": "IR", "types": ["country", "political"]}], "formatted_address": "Ardabil Province, Ardabil, Daneshgah st. Ardabil Complex Univesity\u060c Iran", "geometry": {"location": {"lat": 38.214581, "lng": 48.2968211}, "location_type": "GEOMETRIC_CENTER", "viewport": {"northeast": {"lat": 38.21592998029151, "lng": 48.29817008029149}, "southwest": {"lat": 38.21323201970851, "lng": 48.2954721197085}}}, "place_id": "ChIJsZQQ_iWWGEARz76ZzPERUiE", "types": ["establishment", "point_of_interest", "university"]}, {"address_components": [{"long_name": "Ardabil", "short_name": "Ardabil", "types": ["locality", "political"]}, {"long_name": "Ardabil Province", "short_name": "Ardabil Province", "types": ["administrative_area_level_1", "political"]}, {"long_name": "Iran", "short_name": "IR", "types": ["country", "political"]}], "formatted_address": "Ardabil, Ardabil Province, Iran", "geometry": {"location": {"lat": 38.1960892, "lng": 48.28852089999999}, "location_type": "GEOMETRIC_CENTER", "viewport": {"northeast": {"lat": 38.1974381802915, "lng": 48.28986988029149}, "southwest": {"lat": 38.1947402197085, "lng": 48.28717191970849}}}, "place_id": "ChIJ_7832-S9GEARG0yHrltoItk", "types": ["establishment", "health", "point_of_interest", "university"]}]}, "140534913": {"AfN": "ardhi university", "Location": [{"address_components": [{"long_name": "University Road", "short_name": "University Road", "types": ["route"]}, {"long_name": "Makongo", "short_name": "Makongo", "types": ["political", "sublocality", "sublocality_level_1"]}, {"long_name": "Dar es Salaam", "short_name": "DSM", "types": ["locality", "political"]}, {"long_name": "Kinondoni", "short_name": "Kinondoni", "types": ["administrative_area_level_2", "political"]}, {"long_name": "Tanzania", "short_name": "TZ", "types": ["country", "political"]}], "formatted_address": "University Road, Dar es Salaam, Tanzania", "geometry": {"location": {"lat": -6.7661679, "lng": 39.2154139}, "location_type": "GEOMETRIC_CENTER", "viewport": {"northeast": {"lat": -6.764818919708499, "lng": 39.2167628802915}, "southwest": {"lat": -6.767516880291502, "lng": 39.21406491970851}}}, "place_id": "ChIJ-9OxgvVOXBgRuirOki-flZ4", "types": ["establishment", "point_of_interest", "university"]}]}, "53560885": {"AfN": "areva", "Location": [{"address_components": [{"long_name": "400", "short_name": "400", "types": ["subpremise"]}, {"long_name": "6100", "short_name": "6100", "types": ["street_number"]}, {"long_name": "Southwest Boulevard", "short_name": "Southwest Blvd", "types": ["route"]}, {"long_name": "Fort Worth", "short_name": "Fort Worth", "types": ["locality", "political"]}, {"long_name": "Tarrant County", "short_name": "Tarrant County", "types": ["administrative_area_level_2", "political"]}, {"long_name": "Texas", "short_name": "TX", "types": ["administrative_area_level_1", "political"]}, {"long_name": "United States", "short_name": "US", "types": ["country", "political"]}, {"long_name": "76109", "short_name": "76109", "types": ["postal_code"]}, {"long_name": "6985", "short_name": "6985", "types": ["postal_code_suffix"]}], "formatted_address": "6100 Southwest Blvd #400, Fort Worth, TX 76109, USA", "geometry": {"location": {"lat": 32.69053, "lng": -97.413693}, "location_type": "ROOFTOP", "viewport": {"northeast": {"lat": 32.6918789802915, "lng": -97.41234401970848}, "southwest": {"lat": 32.6891810197085, "lng": -97.4150419802915}}}, "place_id": "ChIJA8du05lyToYR-kPRJyG5z8M", "types": ["establishment", "point_of_interest"]}]}, "30046800": {"AfN": "areva resources canada", "Location": [{"address_components": [{"long_name": "817", "short_name": "817", "types": ["street_number"]}, {"long_name": "45 Street West", "short_name": "45 St W", "types": ["route"]}, {"long_name": "Airport Business Area", "short_name": "Airport Business Area", "types": ["neighborhood", "political"]}, {"long_name": "Saskatoon", "short_name": "Saskatoon", "types": ["locality", "political"]}, {"long_name": "Division No. 11", "short_name": "Division No. 11", "types": ["administrative_area_level_2", "political"]}, {"long_name": "Saskatchewan", "short_name": "SK", "types": ["administrative_area_level_1", "political"]}, {"long_name": "Canada", "short_name": "CA", "types": ["country", "political"]}, {"long_name": "S7L 5X2", "short_name": "S7L 5X2", "types": ["postal_code"]}], "formatted_address": "817 45 St W, Saskatoon, SK S7L 5X2, Canada", "geometry": {"location": {"lat": 52.1635162, "lng": -106.6813837}, "location_type": "ROOFTOP", "viewport": {"northeast": {"lat": 52.1648651802915, "lng": -106.6800347197085}, "southwest": {"lat": 52.1621672197085, "lng": -106.6827326802915}}}, "place_id": "ChIJ_XPJjFb2BFMRNVwAUnD-l3U", "types": ["establishment", "point_of_interest"]}]}, "17970305": {"AfN": "argon st", "Location": [{"address_components": [{"long_name": "12701", "short_name": "12701", "types": ["street_number"]}, {"long_name": "Fair Lakes Circle", "short_name": "Fair Lakes Cir", "types": ["route"]}, {"long_name": "Fairfax", "short_name": "Fairfax", "types": ["locality", "political"]}, {"long_name": "Sully", "short_name": "Sully", "types": ["administrative_area_level_3", "political"]}, {"long_name": "Fairfax County", "short_name": "Fairfax County", "types": ["administrative_area_level_2", "political"]}, {"long_name": "Virginia", "short_name": "VA", "types": ["administrative_area_level_1", "political"]}, {"long_name": "United States", "short_name": "US", "types": ["country", "political"]}, {"long_name": "22033", "short_name": "22033", "types": ["postal_code"]}], "formatted_address": "12701 Fair Lakes Cir, Fairfax, VA 22033, USA", "geometry": {"location": {"lat": 38.8572625, "lng": -77.3848409}, "location_type": "ROOFTOP", "viewport": {"northeast": {"lat": 38.85861148029149, "lng": -77.3834919197085}, "southwest": {"lat": 38.85591351970849, "lng": -77.38618988029151}}}, "place_id": "ChIJIc9YqI5FtokRVyu-oWK8XiA", "types": ["establishment", "point_of_interest"]}]}, "1282105669": {"AfN": "argonne national laboratory", "Location": [{"address_components": [{"long_name": "9700", "short_name": "9700", "types": ["street_number"]}, {"long_name": "Cass Avenue", "short_name": "Cass Ave", "types": ["route"]}, {"long_name": "Lemont", "short_name": "Lemont", "types": ["locality", "political"]}, {"long_name": "Downers Grove Township", "short_name": "Downers Grove Township", "types": ["administrative_area_level_3", "political"]}, {"long_name": "DuPage County", "short_name": "Dupage County", "types": ["administrative_area_level_2", "political"]}, {"long_name": "Illinois", "short_name": "IL", "types": ["administrative_area_level_1", "political"]}, {"long_name": "United States", "short_name": "US", "types": ["country", "political"]}, {"long_name": "60439", "short_name": "60439", "types": ["postal_code"]}, {"long_name": "4809", "short_name": "4809", "types": ["postal_code_suffix"]}], "formatted_address": "9700 Cass Ave, Lemont, IL 60439, USA", "geometry": {"location": {"lat": 41.7183042, "lng": -87.978572}, "location_type": "ROOFTOP", "viewport": {"northeast": {"lat": 41.7196531802915, "lng": -87.97722301970849}, "southwest": {"lat": 41.7169552197085, "lng": -87.97992098029151}}}, "place_id": "ChIJTSTCUbBFDogRuIFMt8e-H-E", "types": ["establishment", "point_of_interest"]}]}, "109780856": {"AfN": "argosy university", "Location": [{"address_components": [{"long_name": "Suite 100", "short_name": "Suite 100", "types": ["subpremise"]}, {"long_name": "980", "short_name": "980", "types": ["street_number"]}, {"long_name": "Hammond Drive", "short_name": "Hammond Dr", "types": ["route"]}, {"long_name": "Perimeter Center", "short_name": "Perimeter Center", "types": ["neighborhood", "political"]}, {"long_name": "Atlanta", "short_name": "Atlanta", "types": ["locality", "political"]}, {"long_name": "Fulton County", "short_name": "Fulton County", "types": ["administrative_area_level_2", "political"]}, {"long_name": "Georgia", "short_name": "GA", "types": ["administrative_area_level_1", "political"]}, {"long_name": "United States", "short_name": "US", "types": ["country", "political"]}, {"long_name": "30328", "short_name": "30328", "types": ["postal_code"]}], "formatted_address": "980 Hammond Dr Suite 100, Atlanta, GA 30328, USA", "geometry": {"location": {"lat": 33.9207989, "lng": -84.35611019999999}, "location_type": "ROOFTOP", "viewport": {"northeast": {"lat": 33.9221478802915, "lng": -84.35476121970848}, "southwest": {"lat": 33.91944991970851, "lng": -84.3574591802915}}}, "place_id": "ChIJYV2DGbMO9YgRJBaPwCKJrjA", "types": ["establishment", "point_of_interest", "university"]}]}, "12367965": {"AfN": "ariad pharmaceuticals inc", "Location": [{"address_components": [{"long_name": "125", "short_name": "125", "types": ["street_number"]}, {"long_name": "Binney Street", "short_name": "Binney St", "types": ["route"]}, {"long_name": "East Cambridge", "short_name": "East Cambridge", "types": ["neighborhood", "political"]}, {"long_name": "Cambridge", "short_name": "Cambridge", "types": ["locality", "political"]}, {"long_name": "Middlesex County", "short_name": "Middlesex County", "types": ["administrative_area_level_2", "political"]}, {"long_name": "Massachusetts", "short_name": "MA", "types": ["administrative_area_level_1", "political"]}, {"long_name": "United States", "short_name": "US", "types": ["country", "political"]}, {"long_name": "02142", "short_name": "02142", "types": ["postal_code"]}, {"long_name": "1123", "short_name": "1123", "types": ["postal_code_suffix"]}], "formatted_address": "125 Binney St, Cambridge, MA 02142, USA", "geometry": {"location": {"lat": 42.3658416, "lng": -71.080765}, "location_type": "ROOFTOP", "viewport": {"northeast": {"lat": 42.3671905802915, "lng": -71.0794160197085}, "southwest": {"lat": 42.3644926197085, "lng": -71.08211398029151}}}, "place_id": "ChIJb1tpEVV344kRR3hQ9ur36hs", "types": ["establishment", "health", "point_of_interest"]}]}, "52170813": {"AfN": "ariel university", "Location": [{"address_components": [{"long_name": "65", "short_name": "65", "types": ["street_number"]}, {"long_name": "Ramat HaGolan Street", "short_name": "Ramat HaGolan St", "types": ["route"]}, {"long_name": "Ari'el", "short_name": "Ari'el", "types": ["locality", "political"]}, {"long_name": "Israel", "short_name": "IL", "types": ["country", "political"]}, {"long_name": "4070000", "short_name": "4070000", "types": ["postal_code"]}], "formatted_address": "Ramat HaGolan St 65, Ari'el", "geometry": {"location": {"lat": 32.103188, "lng": 35.207718}, "location_type": "ROOFTOP", "viewport": {"northeast": {"lat": 32.1045369802915, "lng": 35.2090669802915}, "southwest": {"lat": 32.1018390197085, "lng": 35.2063690197085}}}, "place_id": "ChIJ96oNT6onHRURAs0Qa9GVqSw", "types": ["establishment", "point_of_interest", "university"]}, {"address_components": [], "formatted_address": "\u05e7\u05de\u05e4\u05d5\u05e1 \u05d0\u05d5\u05e0\u05d9\u05d1\u05e8\u05e1\u05d9\u05d8\u05ea \u05d0\u05e8\u05d9\u05d0\u05dc", "geometry": {"location": {"lat": 32.1051676, "lng": 35.2068599}, "location_type": "GEOMETRIC_CENTER", "viewport": {"northeast": {"lat": 32.1065165802915, "lng": 35.20820888029151}, "southwest": {"lat": 32.1038186197085, "lng": 35.20551091970851}}}, "place_id": "ChIJexugIXsnHRURp-dsVPf6VBw", "types": ["establishment", "library", "point_of_interest"]}, {"address_components": [{"long_name": "Ari'el", "short_name": "Ari'el", "types": ["locality", "political"]}], "formatted_address": "Ari'el", "geometry": {"bounds": {"northeast": {"lat": 32.111852, "lng": 35.2376899}, "southwest": {"lat": 32.0729089, "lng": 35.112572}}, "location": {"lat": 32.104637, "lng": 35.17451399999999}, "location_type": "APPROXIMATE", "viewport": {"northeast": {"lat": 32.111852, "lng": 35.2376899}, "southwest": {"lat": 32.0729089, "lng": 35.112572}}}, "place_id": "ChIJ6_6XBwsnHRURrbo12csDrug", "types": ["locality", "political"]}]}, "22696615": {"AfN": "aries", "Location": [{"address_components": [{"long_name": "Aries", "short_name": "Aries", "types": ["route"]}, {"long_name": "Northeast Side", "short_name": "Northeast Side", "types": ["neighborhood", "political"]}, {"long_name": "Selma", "short_name": "Selma", "types": ["locality", "political"]}, {"long_name": "Bexar County", "short_name": "Bexar County", "types": ["administrative_area_level_2", "political"]}, {"long_name": "Texas", "short_name": "TX", "types": ["administrative_area_level_1", "political"]}, {"long_name": "United States", "short_name": "US", "types": ["country", "political"]}, {"long_name": "78154", "short_name": "78154", "types": ["postal_code"]}], "formatted_address": "Aries, Selma, TX 78154, USA", "geometry": {"bounds": {"northeast": {"lat": 29.5742377, "lng": -98.3202755}, "southwest": {"lat": 29.57353, "lng": -98.32113149999999}}, "location": {"lat": 29.5738305, "lng": -98.3207035}, "location_type": "GEOMETRIC_CENTER", "viewport": {"northeast": {"lat": 29.5752328302915, "lng": -98.3193545197085}, "southwest": {"lat": 29.5725348697085, "lng": -98.3220524802915}}}, "place_id": "ChIJNeBs5HeNXIYREaI3KR48p_0", "types": ["route"]}, {"address_components": [{"long_name": "Aries", "short_name": "Aries", "types": ["route"]}, {"long_name": "Orange Park", "short_name": "Orange Park", "types": ["locality", "political"]}, {"long_name": "Clay County", "short_name": "Clay County", "types": ["administrative_area_level_2", "political"]}, {"long_name": "Florida", "short_name": "FL", "types": ["administrative_area_level_1", "political"]}, {"long_name": "United States", "short_name": "US", "types": ["country", "political"]}, {"long_name": "32073", "short_name": "32073", "types": ["postal_code"]}], "formatted_address": "Aries, Orange Park, FL 32073, USA", "geometry": {"bounds": {"northeast": {"lat": 30.178563, "lng": -81.7505126}, "southwest": {"lat": 30.1765528, "lng": -81.7511518}}, "location": {"lat": 30.1774338, "lng": -81.75074819999999}, "location_type": "GEOMETRIC_CENTER", "viewport": {"northeast": {"lat": 30.1789068802915, "lng": -81.7494832197085}, "southwest": {"lat": 30.1762089197085, "lng": -81.75218118029152}}}, "place_id": "ChIJoadb553G5YgRrx3ligzo42k", "types": ["route"]}, {"address_components": [{"long_name": "Aries", "short_name": "Aries", "types": ["route"]}, {"long_name": "Rosamond", "short_name": "Rosamond", "types": ["locality", "political"]}, {"long_name": "Kern County", "short_name": "Kern County", "types": ["administrative_area_level_2", "political"]}, {"long_name": "California", "short_name": "CA", "types": ["administrative_area_level_1", "political"]}, {"long_name": "United States", "short_name": "US", "types": ["country", "political"]}, {"long_name": "93560", "short_name": "93560", "types": ["postal_code"]}], "formatted_address": "Aries, Rosamond, CA 93560, USA", "geometry": {"bounds": {"northeast": {"lat": 34.887253, "lng": -118.3057449}, "southwest": {"lat": 34.8854163, "lng": -118.3057577}}, "location": {"lat": 34.8863655, "lng": -118.3057449}, "location_type": "GEOMETRIC_CENTER", "viewport": {"northeast": {"lat": 34.8876836302915, "lng": -118.3044023197085}, "southwest": {"lat": 34.8849856697085, "lng": -118.3071002802915}}}, "place_id": "ChIJw4KWhowVwoARuMiQhuM8ZKk", "types": ["route"]}]}, "67626646": {"AfN": "arinc", "Location": [{"address_components": [{"long_name": "2110", "short_name": "2110", "types": ["street_number"]}, {"long_name": "Hutton Drive", "short_name": "Hutton Dr", "types": ["route"]}, {"long_name": "West Carrollton", "short_name": "West Carrollton", "types": ["neighborhood", "political"]}, {"long_name": "Carrollton", "short_name": "Carrollton", "types": ["locality", "political"]}, {"long_name": "Dallas County", "short_name": "Dallas County", "types": ["administrative_area_level_2", "political"]}, {"long_name": "Texas", "short_name": "TX", "types": ["administrative_area_level_1", "political"]}, {"long_name": "United States", "short_name": "US", "types": ["country", "political"]}, {"long_name": "75006", "short_name": "75006", "types": ["postal_code"]}], "formatted_address": "2110 Hutton Dr, Carrollton, TX 75006, USA", "geometry": {"location": {"lat": 32.9369633, "lng": -96.9156186}, "location_type": "ROOFTOP", "viewport": {"northeast": {"lat": 32.93831228029149, "lng": -96.91426961970849}, "southwest": {"lat": 32.93561431970849, "lng": -96.91696758029151}}}, "place_id": "ChIJ3Rs5iSsmTIYR1_HfT7GpAQk", "types": ["establishment", "point_of_interest"]}]}, "21370196": {"AfN": "aristotle university of thessaloniki", "Location": [{"address_components": [{"long_name": "Thessaloniki", "short_name": "Thessaloniki", "types": ["locality", "political"]}, {"long_name": "Thessaloniki", "short_name": "Thessaloniki", "types": ["administrative_area_level_3", "political"]}, {"long_name": "Greece", "short_name": "GR", "types": ["country", "political"]}, {"long_name": "541 24", "short_name": "541 24", "types": ["postal_code"]}], "formatted_address": "Thessaloniki 541 24, Greece", "geometry": {"location": {"lat": 40.6308283, "lng": 22.9592224}, "location_type": "GEOMETRIC_CENTER", "viewport": {"northeast": {"lat": 40.63217728029149, "lng": 22.9605713802915}, "southwest": {"lat": 40.62947931970849, "lng": 22.95787341970849}}}, "place_id": "ChIJyZInQ_84qBQR6cjmwx3-7hU", "types": ["establishment", "point_of_interest", "university"]}]}, "21576001": {"AfN": "arizona college of osteopathic medicine", "Location": [{"address_components": [{"long_name": "19555", "short_name": "19555", "types": ["street_number"]}, {"long_name": "North 59th Avenue", "short_name": "N 59th Ave", "types": ["route"]}, {"long_name": "Arrowhead Ranch", "short_name": "Arrowhead Ranch", "types": ["neighborhood", "political"]}, {"long_name": "Glendale", "short_name": "Glendale", "types": ["locality", "political"]}, {"long_name": "Maricopa County", "short_name": "Maricopa County", "types": ["administrative_area_level_2", "political"]}, {"long_name": "Arizona", "short_name": "AZ", "types": ["administrative_area_level_1", "political"]}, {"long_name": "United States", "short_name": "US", "types": ["country", "political"]}, {"long_name": "85308", "short_name": "85308", "types": ["postal_code"]}], "formatted_address": "19555 N 59th Ave, Glendale, AZ 85308, USA", "geometry": {"location": {"lat": 33.663675, "lng": -112.1824694}, "location_type": "ROOFTOP", "viewport": {"northeast": {"lat": 33.6650239802915, "lng": -112.1811204197085}, "southwest": {"lat": 33.6623260197085, "lng": -112.1838183802915}}}, "place_id": "ChIJ3dj5j45oK4cRaDiBpTIpPm4", "types": ["establishment", "health", "point_of_interest", "university"]}]}, "1302368832": {"AfN": "arizona department of health services", "Location": [{"address_components": [{"long_name": "150", "short_name": "150", "types": ["street_number"]}, {"long_name": "North 18th Avenue", "short_name": "N 18th Ave", "types": ["route"]}, {"long_name": "Central City", "short_name": "Central City", "types": ["neighborhood", "political"]}, {"long_name": "Phoenix", "short_name": "Phoenix", "types": ["locality", "political"]}, {"long_name": "Maricopa County", "short_name": "Maricopa County", "types": ["administrative_area_level_2", "political"]}, {"long_name": "Arizona", "short_name": "AZ", "types": ["administrative_area_level_1", "political"]}, {"long_name": "United States", "short_name": "US", "types": ["country", "political"]}, {"long_name": "85007", "short_name": "85007", "types": ["postal_code"]}], "formatted_address": "150 N 18th Ave, Phoenix, AZ 85007, USA", "geometry": {"location": {"lat": 33.4499913, "lng": -112.0991679}, "location_type": "ROOFTOP", "viewport": {"northeast": {"lat": 33.4513402802915, "lng": -112.0978189197085}, "southwest": {"lat": 33.4486423197085, "lng": -112.1005168802915}}}, "place_id": "ChIJhRiskdITK4cRWRXBYljI2F0", "types": ["establishment", "health", "local_government_office", "point_of_interest"]}]}, "1315776635": {"AfN": "arizona department of public safety", "Location": [{"address_components": [{"long_name": "2222", "short_name": "2222", "types": ["street_number"]}, {"long_name": "West Encanto Boulevard", "short_name": "W Encanto Blvd", "types": ["route"]}, {"long_name": "Encanto Village", "short_name": "Encanto Village", "types": ["neighborhood", "political"]}, {"long_name": "Phoenix", "short_name": "Phoenix", "types": ["locality", "political"]}, {"long_name": "Maricopa County", "short_name": "Maricopa County", "types": ["administrative_area_level_2", "political"]}, {"long_name": "Arizona", "short_name": "AZ", "types": ["administrative_area_level_1", "political"]}, {"long_name": "United States", "short_name": "US", "types": ["country", "political"]}, {"long_name": "85009", "short_name": "85009", "types": ["postal_code"]}], "formatted_address": "2222 W Encanto Blvd, Phoenix, AZ 85009, USA", "geometry": {"location": {"lat": 33.4737865, "lng": -112.1049427}, "location_type": "ROOFTOP", "viewport": {"northeast": {"lat": 33.47513548029149, "lng": -112.1035937197085}, "southwest": {"lat": 33.4724375197085, "lng": -112.1062916802915}}}, "place_id": "ChIJ3djQXq8TK4cRBrAJI3LNO5o", "types": ["establishment", "point_of_interest", "police"]}]}, "203452408": {"AfN": "arizona game and fish department", "Location": [{"address_components": [{"long_name": "5000", "short_name": "5000", "types": ["street_number"]}, {"long_name": "West Carefree Highway", "short_name": "W Carefree Hwy", "types": ["route"]}, {"long_name": "North Gateway", "short_name": "North Gateway", "types": ["neighborhood", "political"]}, {"long_name": "Phoenix", "short_name": "Phoenix", "types": ["locality", "political"]}, {"long_name": "Maricopa County", "short_name": "Maricopa County", "types": ["administrative_area_level_2", "political"]}, {"long_name": "Arizona", "short_name": "AZ", "types": ["administrative_area_level_1", "political"]}, {"long_name": "United States", "short_name": "US", "types": ["country", "political"]}, {"long_name": "85086", "short_name": "85086", "types": ["postal_code"]}, {"long_name": "5000", "short_name": "5000", "types": ["postal_code_suffix"]}], "formatted_address": "5000 W Carefree Hwy, Phoenix, AZ 85086, USA", "geometry": {"location": {"lat": 33.7995783, "lng": -112.1669311}, "location_type": "ROOFTOP", "viewport": {"northeast": {"lat": 33.8009272802915, "lng": -112.1655821197085}, "southwest": {"lat": 33.7982293197085, "lng": -112.1682800802915}}}, "place_id": "ChIJBflLkI1uK4cRHPATglnBi1o", "types": ["establishment", "local_government_office", "point_of_interest"]}]}, "114681415": {"AfN": "arizona geological survey", "Location": [{"address_components": [{"long_name": "100", "short_name": "100", "types": ["subpremise"]}, {"long_name": "416", "short_name": "416", "types": ["street_number"]}, {"long_name": "West Congress Street", "short_name": "W Congress St", "types": ["route"]}, {"long_name": "Downtown", "short_name": "Downtown", "types": ["neighborhood", "political"]}, {"long_name": "Tucson", "short_name": "Tucson", "types": ["locality", "political"]}, {"long_name": "Pima County", "short_name": "Pima County", "types": ["administrative_area_level_2", "political"]}, {"long_name": "Arizona", "short_name": "AZ", "types": ["administrative_area_level_1", "political"]}, {"long_name": "United States", "short_name": "US", "types": ["country", "political"]}, {"long_name": "85701", "short_name": "85701", "types": ["postal_code"]}], "formatted_address": "416 W Congress St #100, Tucson, AZ 85701, USA", "geometry": {"location": {"lat": 32.2215263, "lng": -110.9774979}, "location_type": "ROOFTOP", "viewport": {"northeast": {"lat": 32.2228752802915, "lng": -110.9761489197085}, "southwest": {"lat": 32.2201773197085, "lng": -110.9788468802915}}}, "place_id": "ChIJL1-3eN9w1oYRpiPbvTp-AmY", "types": ["establishment", "library", "point_of_interest"]}]}, "138181692": {"AfN": "arizona heart institute", "Location": [{"address_components": [{"long_name": "Suite 200", "short_name": "Suite 200", "types": ["subpremise"]}, {"long_name": "1910", "short_name": "1910", "types": ["street_number"]}, {"long_name": "East Thomas Road", "short_name": "E Thomas Rd", "types": ["route"]}, {"long_name": "Arizona Heart Hospital", "short_name": "Arizona Heart Hospital", "types": ["neighborhood", "political"]}, {"long_name": "Phoenix", "short_name": "Phoenix", "types": ["locality", "political"]}, {"long_name": "Maricopa County", "short_name": "Maricopa County", "types": ["administrative_area_level_2", "political"]}, {"long_name": "Arizona", "short_name": "AZ", "types": ["administrative_area_level_1", "political"]}, {"long_name": "United States", "short_name": "US", "types": ["country", "political"]}, {"long_name": "85016", "short_name": "85016", "types": ["postal_code"]}], "formatted_address": "1910 E Thomas Rd Suite 200, Phoenix, AZ 85016, USA", "geometry": {"location": {"lat": 33.4812552, "lng": -112.0406642}, "location_type": "ROOFTOP", "viewport": {"northeast": {"lat": 33.4826041802915, "lng": -112.0393152197085}, "southwest": {"lat": 33.4799062197085, "lng": -112.0420131802915}}}, "place_id": "ChIJXQMu8-YHK4cRj-twOC3LF2g", "types": ["doctor", "establishment", "health", "hospital", "point_of_interest"]}]}, "55732556": {"AfN": "arizona state university", "Location": [{"address_components": [{"long_name": "Tempe", "short_name": "Tempe", "types": ["locality", "political"]}, {"long_name": "Maricopa County", "short_name": "Maricopa County", "types": ["administrative_area_level_2", "political"]}, {"long_name": "Arizona", "short_name": "AZ", "types": ["administrative_area_level_1", "political"]}, {"long_name": "United States", "short_name": "US", "types": ["country", "political"]}, {"long_name": "85281", "short_name": "85281", "types": ["postal_code"]}], "formatted_address": "Tempe, AZ 85281, USA", "geometry": {"location": {"lat": 33.4242399, "lng": -111.9280527}, "location_type": "GEOMETRIC_CENTER", "viewport": {"northeast": {"lat": 33.42558888029149, "lng": -111.9267037197085}, "southwest": {"lat": 33.42289091970849, "lng": -111.9294016802915}}}, "place_id": "ChIJD1QzO9sIK4cRMzA8R39xbmY", "types": ["establishment", "point_of_interest", "university"]}]}, "52163835": {"AfN": "arizona state university at the polytechnic campus", "Location": [{"address_components": [{"long_name": "7001", "short_name": "7001", "types": ["street_number"]}, {"long_name": "East Williams Field Road", "short_name": "E Williams Field Rd", "types": ["route"]}, {"long_name": "Mesa", "short_name": "Mesa", "types": ["locality", "political"]}, {"long_name": "Maricopa County", "short_name": "Maricopa County", "types": ["administrative_area_level_2", "political"]}, {"long_name": "Arizona", "short_name": "AZ", "types": ["administrative_area_level_1", "political"]}, {"long_name": "United States", "short_name": "US", "types": ["country", "political"]}, {"long_name": "85212", "short_name": "85212", "types": ["postal_code"]}, {"long_name": "6032", "short_name": "6032", "types": ["postal_code_suffix"]}], "formatted_address": "7001 E Williams Field Rd, Mesa, AZ 85212, USA", "geometry": {"location": {"lat": 33.3072131, "lng": -111.6797578}, "location_type": "ROOFTOP", "viewport": {"northeast": {"lat": 33.30856208029149, "lng": -111.6784088197085}, "southwest": {"lat": 33.3058641197085, "lng": -111.6811067802915}}}, "place_id": "ChIJ-c0dQ52tK4cR0o7GfBfBnC0", "types": ["establishment", "point_of_interest", "university"]}]}, "79239678": {"AfN": "arizona state university at the west campus", "Location": [{"address_components": [{"long_name": "4701", "short_name": "4701", "types": ["street_number"]}, {"long_name": "West Thunderbird Road", "short_name": "W Thunderbird Rd", "types": ["route"]}, {"long_name": "North Mountain Village", "short_name": "North Mountain Village", "types": ["neighborhood", "political"]}, {"long_name": "Glendale", "short_name": "Glendale", "types": ["locality", "political"]}, {"long_name": "Maricopa County", "short_name": "Maricopa County", "types": ["administrative_area_level_2", "political"]}, {"long_name": "Arizona", "short_name": "AZ", "types": ["administrative_area_level_1", "political"]}, {"long_name": "United States", "short_name": "US", "types": ["country", "political"]}, {"long_name": "85306", "short_name": "85306", "types": ["postal_code"]}], "formatted_address": "4701 W Thunderbird Rd, Glendale, AZ 85306, USA", "geometry": {"location": {"lat": 33.6075228, "lng": -112.1598496}, "location_type": "ROOFTOP", "viewport": {"northeast": {"lat": 33.60887178029149, "lng": -112.1585006197085}, "southwest": {"lat": 33.60617381970849, "lng": -112.1611985802915}}}, "place_id": "ChIJi7CNmFxpK4cRvUmZGyMWMc4", "types": ["establishment", "point_of_interest", "university"]}]}, "1301864278": {"AfN": "arkansas children s hospital", "Location": [{"address_components": [{"long_name": "1", "short_name": "1", "types": ["street_number"]}, {"long_name": "Children's Way", "short_name": "Children's Way", "types": ["route"]}, {"long_name": "Central High Historic District", "short_name": "Central High Historic District", "types": ["neighborhood", "political"]}, {"long_name": "Little Rock", "short_name": "Little Rock", "types": ["locality", "political"]}, {"long_name": "Big Rock Township", "short_name": "Big Rock Township", "types": ["administrative_area_level_3", "political"]}, {"long_name": "Pulaski County", "short_name": "Pulaski County", "types": ["administrative_area_level_2", "political"]}, {"long_name": "Arkansas", "short_name": "AR", "types": ["administrative_area_level_1", "political"]}, {"long_name": "United States", "short_name": "US", "types": ["country", "political"]}, {"long_name": "72202", "short_name": "72202", "types": ["postal_code"]}], "formatted_address": "1 Children's Way, Little Rock, AR 72202, USA", "geometry": {"location": {"lat": 34.7408081, "lng": -92.2925681}, "location_type": "ROOFTOP", "viewport": {"northeast": {"lat": 34.74215708029149, "lng": -92.29121911970849}, "southwest": {"lat": 34.7394591197085, "lng": -92.29391708029151}}}, "partial_match": true, "place_id": "ChIJf5Fcp1q70ocRWc9Rbm9yR9s", "types": ["establishment", "hospital", "point_of_interest"]}, {"address_components": [{"long_name": "2601", "short_name": "2601", "types": ["street_number"]}, {"long_name": "Gene George Boulevard", "short_name": "Gene George Blvd", "types": ["route"]}, {"long_name": "Springdale", "short_name": "Springdale", "types": ["locality", "political"]}, {"long_name": "Springdale Township", "short_name": "Springdale Township", "types": ["administrative_area_level_3", "political"]}, {"long_name": "Washington County", "short_name": "Washington County", "types": ["administrative_area_level_2", "political"]}, {"long_name": "Arkansas", "short_name": "AR", "types": ["administrative_area_level_1", "political"]}, {"long_name": "United States", "short_name": "US", "types": ["country", "political"]}, {"long_name": "72762", "short_name": "72762", "types": ["postal_code"]}], "formatted_address": "2601 Gene George Blvd, Springdale, AR 72762, USA", "geometry": {"location": {"lat": 36.16225319999999, "lng": -94.19036679999999}, "location_type": "ROOFTOP", "viewport": {"northeast": {"lat": 36.16360218029149, "lng": -94.1890178197085}, "southwest": {"lat": 36.1609042197085, "lng": -94.1917157802915}}}, "partial_match": true, "place_id": "ChIJdytmxnYUyYcR3duptNgoDLg", "types": ["establishment", "hospital", "point_of_interest"]}]}, "125956826": {"AfN": "arkansas state university", "Location": [{"address_components": [{"long_name": "2105", "short_name": "2105", "types": ["street_number"]}, {"long_name": "Aggie Road", "short_name": "Aggie Rd", "types": ["route"]}, {"long_name": "Jonesboro", "short_name": "Jonesboro", "types": ["locality", "political"]}, {"long_name": "Craighead County", "short_name": "Craighead County", "types": ["administrative_area_level_2", "political"]}, {"long_name": "Arkansas", "short_name": "AR", "types": ["administrative_area_level_1", "political"]}, {"long_name": "United States", "short_name": "US", "types": ["country", "political"]}, {"long_name": "72401", "short_name": "72401", "types": ["postal_code"]}], "formatted_address": "2105 Aggie Rd, Jonesboro, AR 72401, USA", "geometry": {"location": {"lat": 35.8430861, "lng": -90.67485889999999}, "location_type": "ROOFTOP", "viewport": {"northeast": {"lat": 35.8444350802915, "lng": -90.67350991970848}, "southwest": {"lat": 35.8417371197085, "lng": -90.6762078802915}}}, "place_id": "ChIJObmqouEr1IcRmtRlZyTRkXs", "types": ["establishment", "point_of_interest", "university"]}]}, "9508535": {"AfN": "arkansas tech university", "Location": [{"address_components": [{"long_name": "Doc Bryan", "short_name": "Doc Bryan", "types": ["premise"]}, {"long_name": "1605", "short_name": "1605", "types": ["street_number"]}, {"long_name": "North Coliseum Drive", "short_name": "N Coliseum Dr", "types": ["route"]}, {"long_name": "Russellville", "short_name": "Russellville", "types": ["locality", "political"]}, {"long_name": "Illinois Township", "short_name": "Illinois Township", "types": ["administrative_area_level_3", "political"]}, {"long_name": "Pope County", "short_name": "Pope County", "types": ["administrative_area_level_2", "political"]}, {"long_name": "Arkansas", "short_name": "AR", "types": ["administrative_area_level_1", "political"]}, {"long_name": "United States", "short_name": "US", "types": ["country", "political"]}, {"long_name": "72801", "short_name": "72801", "types": ["postal_code"]}], "formatted_address": "Doc Bryan, 1605 N Coliseum Dr, Russellville, AR 72801, USA", "geometry": {"location": {"lat": 35.2944535, "lng": -93.1362663}, "location_type": "ROOFTOP", "viewport": {"northeast": {"lat": 35.29580248029149, "lng": -93.1349173197085}, "southwest": {"lat": 35.29310451970849, "lng": -93.13761528029151}}}, "place_id": "ChIJ9ySKZghTzIcRCRnEXQv03Ao", "types": ["establishment", "point_of_interest", "university"]}]}, "93142118": {"AfN": "arla foods", "Location": [{"address_components": [{"long_name": "675", "short_name": "675", "types": ["street_number"]}, {"long_name": "Rivermede Road", "short_name": "Rivermede Rd", "types": ["route"]}, {"long_name": "Concord", "short_name": "Concord", "types": ["neighborhood", "political"]}, {"long_name": "Vaughan", "short_name": "Vaughan", "types": ["locality", "political"]}, {"long_name": "York Regional Municipality", "short_name": "York Regional Municipality", "types": ["administrative_area_level_2", "political"]}, {"long_name": "Ontario", "short_name": "ON", "types": ["administrative_area_level_1", "political"]}, {"long_name": "Canada", "short_name": "CA", "types": ["country", "political"]}, {"long_name": "L4K 2G9", "short_name": "L4K 2G9", "types": ["postal_code"]}], "formatted_address": "675 Rivermede Rd, Concord, ON L4K 2G9, Canada", "geometry": {"location": {"lat": 43.8092471, "lng": -79.4980824}, "location_type": "ROOFTOP", "viewport": {"northeast": {"lat": 43.8105960802915, "lng": -79.4967334197085}, "southwest": {"lat": 43.8078981197085, "lng": -79.49943138029151}}}, "place_id": "ChIJhSsgfvEuK4gRJpiKDYtEJlk", "types": ["establishment", "food", "point_of_interest"]}]}, "191103542": {"AfN": "armed forces dna identification laboratory", "Location": []}, "20755112": {"AfN": "armed forces institute of pathology", "Location": [{"address_components": [{"long_name": "54", "short_name": "54", "types": ["subpremise"]}, {"long_name": "6825", "short_name": "6825", "types": ["street_number"]}, {"long_name": "16th Street Northwest", "short_name": "16th St NW", "types": ["route"]}, {"long_name": "Northwest Washington", "short_name": "Northwest Washington", "types": ["neighborhood", "political"]}, {"long_name": "Washington", "short_name": "Washington", "types": ["locality", "political"]}, {"long_name": "District of Columbia", "short_name": "DC", "types": ["administrative_area_level_1", "political"]}, {"long_name": "United States", "short_name": "US", "types": ["country", "political"]}, {"long_name": "20306", "short_name": "20306", "types": ["postal_code"]}], "formatted_address": "6825 16th St NW #54, Washington, DC 20306, USA", "geometry": {"location": {"lat": 38.9728003, "lng": -77.0363977}, "location_type": "ROOFTOP", "viewport": {"northeast": {"lat": 38.97414928029149, "lng": -77.03504871970848}, "southwest": {"lat": 38.9714513197085, "lng": -77.03774668029149}}}, "place_id": "ChIJD3hrfvTIt4kRHqRi-Q3mAao", "types": ["establishment", "point_of_interest"]}]}, "61721369": {"AfN": "armed forces radiobiology research institute", "Location": [{"address_components": [{"long_name": "8901", "short_name": "8901", "types": ["street_number"]}, {"long_name": "Wisconsin Ave", "short_name": "Wisconsin Ave", "types": ["route"]}, {"long_name": "Bethesda", "short_name": "Bethesda", "types": ["locality", "political"]}, {"long_name": "7", "short_name": "7", "types": ["administrative_area_level_3", "political"]}, {"long_name": "Montgomery County", "short_name": "Montgomery County", "types": ["administrative_area_level_2", "political"]}, {"long_name": "Maryland", "short_name": "MD", "types": ["administrative_area_level_1", "political"]}, {"long_name": "United States", "short_name": "US", "types": ["country", "political"]}, {"long_name": "20889", "short_name": "20889", "types": ["postal_code"]}, {"long_name": "5603", "short_name": "5603", "types": ["postal_code_suffix"]}], "formatted_address": "8901 Wisconsin Ave, Bethesda, MD 20889, USA", "geometry": {"location": {"lat": 39.0012231, "lng": -77.0894522}, "location_type": "ROOFTOP", "viewport": {"northeast": {"lat": 39.00257208029149, "lng": -77.08810321970849}, "southwest": {"lat": 38.9998741197085, "lng": -77.09080118029149}}}, "place_id": "ChIJF9Ym6kTJt4kREViRyURs2k0", "types": ["establishment", "point_of_interest", "school", "university"]}]}, "99064381": {"AfN": "armenian national academy of sciences", "Location": [{"address_components": [{"long_name": "24", "short_name": "24", "types": ["street_number"]}, {"long_name": "Marshal Baghramyan Avenue", "short_name": "Marshal Baghramyan Ave", "types": ["route"]}, {"long_name": "Kentron", "short_name": "Kentron", "types": ["political", "sublocality", "sublocality_level_1"]}, {"long_name": "Yerevan", "short_name": "Yerevan", "types": ["locality", "political"]}, {"long_name": "Yerevan", "short_name": "Yerevan", "types": ["administrative_area_level_1", "political"]}, {"long_name": "Armenia", "short_name": "AM", "types": ["country", "political"]}, {"long_name": "0019", "short_name": "0019", "types": ["postal_code"]}], "formatted_address": "24 Marshal Baghramyan Ave, Yerevan 0019, Armenia", "geometry": {"location": {"lat": 40.192387, "lng": 44.5087907}, "location_type": "ROOFTOP", "viewport": {"northeast": {"lat": 40.1937359802915, "lng": 44.5101396802915}, "southwest": {"lat": 40.1910380197085, "lng": 44.5074417197085}}}, "place_id": "ChIJHaZGTRi9akARApArwW_qZlk", "types": ["establishment", "point_of_interest"]}]}, "928024532": {"AfN": "armstrong cork company", "Location": [{"address_components": [{"long_name": "United States", "short_name": "US", "types": ["country", "political"]}], "formatted_address": "United States", "geometry": {"bounds": {"northeast": {"lat": 71.5388001, "lng": -66.885417}, "southwest": {"lat": 18.7763, "lng": 170.5957}}, "location": {"lat": 37.09024, "lng": -95.712891}, "location_type": "APPROXIMATE", "viewport": {"northeast": {"lat": 49.38, "lng": -66.94}, "southwest": {"lat": 25.82, "lng": -124.39}}}, "place_id": "ChIJCzYy5IS16lQRQrfeQ5K5Oxw", "types": ["country", "political"]}]}, "226413961": {"AfN": "armstrong state university", "Location": [{"address_components": [{"long_name": "11935", "short_name": "11935", "types": ["street_number"]}, {"long_name": "Abercorn Street", "short_name": "Abercorn St", "types": ["route"]}, {"long_name": "Windsor Forest", "short_name": "Windsor Forest", "types": ["neighborhood", "political"]}, {"long_name": "Savannah", "short_name": "Savannah", "types": ["locality", "political"]}, {"long_name": "Chatham County", "short_name": "Chatham County", "types": ["administrative_area_level_2", "political"]}, {"long_name": "Georgia", "short_name": "GA", "types": ["administrative_area_level_1", "political"]}, {"long_name": "United States", "short_name": "US", "types": ["country", "political"]}, {"long_name": "31419", "short_name": "31419", "types": ["postal_code"]}], "formatted_address": "11935 Abercorn St, Savannah, GA 31419, USA", "geometry": {"location": {"lat": 31.9782339, "lng": -81.1633425}, "location_type": "ROOFTOP", "viewport": {"northeast": {"lat": 31.9795828802915, "lng": -81.16199351970849}, "southwest": {"lat": 31.9768849197085, "lng": -81.16469148029151}}}, "place_id": "ChIJJ9h8y0oL-4gRwGkG9vib3wo", "types": ["establishment", "point_of_interest", "university"]}]}, "912752132": {"AfN": "armstrong world industries", "Location": [{"address_components": [{"long_name": "4115", "short_name": "4115", "types": ["street_number"]}, {"long_name": "North Perkins Road", "short_name": "N Perkins Rd", "types": ["route"]}, {"long_name": "Stillwater", "short_name": "Stillwater", "types": ["locality", "political"]}, {"long_name": "Payne County", "short_name": "Payne County", "types": ["administrative_area_level_2", "political"]}, {"long_name": "Oklahoma", "short_name": "OK", "types": ["administrative_area_level_1", "political"]}, {"long_name": "United States", "short_name": "US", "types": ["country", "political"]}, {"long_name": "74075", "short_name": "74075", "types": ["postal_code"]}, {"long_name": "1709", "short_name": "1709", "types": ["postal_code_suffix"]}], "formatted_address": "4115 N Perkins Rd, Stillwater, OK 74075, USA", "geometry": {"location": {"lat": 36.1641795, "lng": -97.05000369999999}, "location_type": "ROOFTOP", "viewport": {"northeast": {"lat": 36.16552848029149, "lng": -97.04865471970848}, "southwest": {"lat": 36.1628305197085, "lng": -97.0513526802915}}}, "place_id": "ChIJt3VmMHQJsYcRmjRHHh-Jsis", "types": ["establishment", "home_goods_store", "point_of_interest", "store"]}]}, "11368126": {"AfN": "army and navy academy", "Location": [{"address_components": [{"long_name": "2605", "short_name": "2605", "types": ["street_number"]}, {"long_name": "Carlsbad Boulevard", "short_name": "Carlsbad Blvd", "types": ["route"]}, {"long_name": "Carlsbad Village", "short_name": "Carlsbad Village", "types": ["neighborhood", "political"]}, {"long_name": "Carlsbad", "short_name": "Carlsbad", "types": ["locality", "political"]}, {"long_name": "San Diego County", "short_name": "San Diego County", "types": ["administrative_area_level_2", "political"]}, {"long_name": "California", "short_name": "CA", "types": ["administrative_area_level_1", "political"]}, {"long_name": "United States", "short_name": "US", "types": ["country", "political"]}, {"long_name": "92008", "short_name": "92008", "types": ["postal_code"]}, {"long_name": "2208", "short_name": "2208", "types": ["postal_code_suffix"]}], "formatted_address": "2605 Carlsbad Blvd, Carlsbad, CA 92008, USA", "geometry": {"location": {"lat": 33.1628677, "lng": -117.3547687}, "location_type": "ROOFTOP", "viewport": {"northeast": {"lat": 33.1642166802915, "lng": -117.3534197197085}, "southwest": {"lat": 33.1615187197085, "lng": -117.3561176802915}}}, "place_id": "ChIJv_GrPQRy3IARrsIQ4xhtsoM", "types": ["establishment", "point_of_interest", "school"]}]}, "1298434055": {"AfN": "army emergency relief", "Location": [{"address_components": [{"long_name": "Arlington", "short_name": "Arlington", "types": ["locality", "political"]}, {"long_name": "Virginia", "short_name": "VA", "types": ["administrative_area_level_1", "political"]}, {"long_name": "United States", "short_name": "US", "types": ["country", "political"]}, {"long_name": "22202", "short_name": "22202", "types": ["postal_code"]}], "formatted_address": "2530 Crystal Drive, Suite 13161, Arlington, VA 22202, United States", "geometry": {"location": {"lat": 38.851059, "lng": -77.050559}, "location_type": "GEOMETRIC_CENTER", "viewport": {"northeast": {"lat": 38.8524079802915, "lng": -77.04921001970851}, "southwest": {"lat": 38.8497100197085, "lng": -77.05190798029152}}}, "place_id": "ChIJm5EyByy3t4kRhte6v0yhdGs", "types": ["establishment", "point_of_interest"]}, {"address_components": [{"long_name": "200", "short_name": "200", "types": ["street_number"]}, {"long_name": "Stovall Street", "short_name": "Stovall St", "types": ["route"]}, {"long_name": "Eisenhower East", "short_name": "Eisenhower East", "types": ["neighborhood", "political"]}, {"long_name": "Alexandria", "short_name": "Alexandria", "types": ["locality", "political"]}, {"long_name": "Virginia", "short_name": "VA", "types": ["administrative_area_level_1", "political"]}, {"long_name": "United States", "short_name": "US", "types": ["country", "political"]}, {"long_name": "22332", "short_name": "22332", "types": ["postal_code"]}], "formatted_address": "200 Stovall St, Alexandria, VA 22332, USA", "geometry": {"location": {"lat": 38.8023734, "lng": -77.07065709999999}, "location_type": "ROOFTOP", "viewport": {"northeast": {"lat": 38.8037223802915, "lng": -77.06930811970848}, "southwest": {"lat": 38.8010244197085, "lng": -77.0720060802915}}}, "place_id": "ChIJKVxLl6axt4kRkiE5FOo0vUs", "types": ["establishment", "point_of_interest"]}]}, "201880814": {"AfN": "army medical department", "Location": [{"address_components": [{"long_name": "3898", "short_name": "3898", "types": ["street_number"]}, {"long_name": "Stanley Road", "short_name": "Stanley Rd", "types": ["route"]}, {"long_name": "Fort Sam Houston", "short_name": "Fort Sam Houston", "types": ["neighborhood", "political"]}, {"long_name": "San Antonio", "short_name": "San Antonio", "types": ["locality", "political"]}, {"long_name": "Bexar County", "short_name": "Bexar County", "types": ["administrative_area_level_2", "political"]}, {"long_name": "Texas", "short_name": "TX", "types": ["administrative_area_level_1", "political"]}, {"long_name": "United States", "short_name": "US", "types": ["country", "political"]}, {"long_name": "78234", "short_name": "78234", "types": ["postal_code"]}], "formatted_address": "3898 Stanley Rd, San Antonio, TX 78234, USA", "geometry": {"location": {"lat": 29.4632705, "lng": -98.4478546}, "location_type": "ROOFTOP", "viewport": {"northeast": {"lat": 29.4646194802915, "lng": -98.44650561970849}, "southwest": {"lat": 29.4619215197085, "lng": -98.4492035802915}}}, "place_id": "ChIJJwgdD6_1XIYRgAHwHV9T1mo", "types": ["establishment", "museum", "point_of_interest"]}]}, "893812157": {"AfN": "arpa e", "Location": [{"address_components": [{"long_name": "950", "short_name": "950", "types": ["street_number"]}, {"long_name": "L'Enfant Plaza Southwest", "short_name": "L'Enfant Plaza SW", "types": ["route"]}, {"long_name": "Southwest Washington", "short_name": "Southwest Washington", "types": ["neighborhood", "political"]}, {"long_name": "Washington", "short_name": "Washington", "types": ["locality", "political"]}, {"long_name": "District of Columbia", "short_name": "DC", "types": ["administrative_area_level_1", "political"]}, {"long_name": "United States", "short_name": "US", "types": ["country", "political"]}, {"long_name": "20024", "short_name": "20024", "types": ["postal_code"]}], "formatted_address": "950 L'Enfant Plaza SW, Washington, DC 20024, USA", "geometry": {"location": {"lat": 38.8832663, "lng": -77.0254576}, "location_type": "ROOFTOP", "viewport": {"northeast": {"lat": 38.88461528029149, "lng": -77.02410861970849}, "southwest": {"lat": 38.88191731970849, "lng": -77.02680658029149}}}, "place_id": "ChIJXdb8N3a3t4kR2BWDluH-ffQ", "types": ["establishment", "point_of_interest"]}]}, "114983960": {"AfN": "artemis", "Location": [{"address_components": [{"long_name": "2229", "short_name": "2229", "types": ["street_number"]}, {"long_name": "Lake Tahoe Blvd", "short_name": "Lake Tahoe Blvd", "types": ["route"]}, {"long_name": "South Lake Tahoe", "short_name": "South Lake Tahoe", "types": ["locality", "political"]}, {"long_name": "El Dorado County", "short_name": "El Dorado County", "types": ["administrative_area_level_2", "political"]}, {"long_name": "California", "short_name": "CA", "types": ["administrative_area_level_1", "political"]}, {"long_name": "United States", "short_name": "US", "types": ["country", "political"]}, {"long_name": "96150", "short_name": "96150", "types": ["postal_code"]}, {"long_name": "6483", "short_name": "6483", "types": ["postal_code_suffix"]}], "formatted_address": "2229 Lake Tahoe Blvd, South Lake Tahoe, CA 96150, USA", "geometry": {"location": {"lat": 38.9186482, "lng": -119.9972297}, "location_type": "ROOFTOP", "viewport": {"northeast": {"lat": 38.9199971802915, "lng": -119.9958807197085}, "southwest": {"lat": 38.9172992197085, "lng": -119.9985786802915}}}, "place_id": "ChIJS8OnY8ePmYARF-0GvBl69Xg", "types": ["establishment", "food", "point_of_interest", "restaurant"]}]}, "71593784": {"AfN": "arthritis research uk", "Location": [{"address_components": [{"long_name": "5050", "short_name": "5050", "types": ["street_number"]}, {"long_name": "Poplar Avenue", "short_name": "Poplar Ave", "types": ["route"]}, {"long_name": "East Memphis", "short_name": "East Memphis", "types": ["neighborhood", "political"]}, {"long_name": "Memphis", "short_name": "Memphis", "types": ["locality", "political"]}, {"long_name": "Shelby County", "short_name": "Shelby County", "types": ["administrative_area_level_2", "political"]}, {"long_name": "Tennessee", "short_name": "TN", "types": ["administrative_area_level_1", "political"]}, {"long_name": "United States", "short_name": "US", "types": ["country", "political"]}, {"long_name": "38157", "short_name": "38157", "types": ["postal_code"]}, {"long_name": "0101", "short_name": "0101", "types": ["postal_code_suffix"]}], "formatted_address": "5050 Poplar Ave, Memphis, TN 38157, USA", "geometry": {"location": {"lat": 35.1131752, "lng": -89.8930505}, "location_type": "ROOFTOP", "viewport": {"northeast": {"lat": 35.1145241802915, "lng": -89.8917015197085}, "southwest": {"lat": 35.1118262197085, "lng": -89.89439948029151}}}, "place_id": "ChIJdehOiGSEf4gRa6WS-jp4ZoY", "types": ["establishment", "point_of_interest"]}]}, "149290949": {"AfN": "arthur d little", "Location": [{"address_components": [{"long_name": "Arthur D Little Building", "short_name": "Arthur D Little Bldg", "types": ["premise"]}, {"long_name": "100", "short_name": "100", "types": ["street_number"]}, {"long_name": "Main Street", "short_name": "Main St", "types": ["route"]}, {"long_name": "Area 2/MIT", "short_name": "Area 2/MIT", "types": ["neighborhood", "political"]}, {"long_name": "Cambridge", "short_name": "Cambridge", "types": ["locality", "political"]}, {"long_name": "Middlesex County", "short_name": "Middlesex County", "types": ["administrative_area_level_2", "political"]}, {"long_name": "Massachusetts", "short_name": "MA", "types": ["administrative_area_level_1", "political"]}, {"long_name": "United States", "short_name": "US", "types": ["country", "political"]}, {"long_name": "02142", "short_name": "02142", "types": ["postal_code"]}], "formatted_address": "Arthur D Little Bldg, 100 Main St, Cambridge, MA 02142, USA", "geometry": {"bounds": {"northeast": {"lat": 42.3619063, "lng": -71.0818852}, "southwest": {"lat": 42.360839, "lng": -71.0833146}}, "location": {"lat": 42.361164, "lng": -71.0821753}, "location_type": "ROOFTOP", "viewport": {"northeast": {"lat": 42.3627216302915, "lng": -71.0812509197085}, "southwest": {"lat": 42.3600236697085, "lng": -71.0839488802915}}}, "partial_match": true, "place_id": "ChIJgaoLKqRw44kRw7oWRZrMc-s", "types": ["premise"]}]}, "1279667971": {"AfN": "artificial intelligence center", "Location": [{"address_components": [{"long_name": "Suite 3100", "short_name": "Suite 3100", "types": ["subpremise"]}, {"long_name": "325", "short_name": "325", "types": ["street_number"]}, {"long_name": "North Saint Paul Street", "short_name": "North St. Paul Street", "types": ["route"]}, {"long_name": "Downtown", "short_name": "Downtown", "types": ["neighborhood", "political"]}, {"long_name": "Dallas", "short_name": "Dallas", "types": ["locality", "political"]}, {"long_name": "Dallas County", "short_name": "Dallas County", "types": ["administrative_area_level_2", "political"]}, {"long_name": "Texas", "short_name": "TX", "types": ["administrative_area_level_1", "political"]}, {"long_name": "United States", "short_name": "US", "types": ["country", "political"]}, {"long_name": "75201", "short_name": "75201", "types": ["postal_code"]}], "formatted_address": "325 North St. Paul Street Suite 3100, Dallas, TX 75201, USA", "geometry": {"location": {"lat": 32.7831439, "lng": -96.79749179999999}, "location_type": "ROOFTOP", "viewport": {"northeast": {"lat": 32.7844928802915, "lng": -96.79614281970849}, "southwest": {"lat": 32.7817949197085, "lng": -96.7988407802915}}}, "place_id": "ChIJB7nc9SGZToYRYEh0DvHOlww", "types": ["establishment", "point_of_interest"]}]}, "44563897": {"AfN": "artois university", "Location": [{"address_components": [{"long_name": "9", "short_name": "9", "types": ["street_number"]}, {"long_name": "Rue du Temple", "short_name": "Rue du Temple", "types": ["route"]}, {"long_name": "Arras", "short_name": "Arras", "types": ["locality", "political"]}, {"long_name": "Pas-de-Calais", "short_name": "Pas-de-Calais", "types": ["administrative_area_level_2", "political"]}, {"long_name": "Hauts-de-France", "short_name": "Hauts-de-France", "types": ["administrative_area_level_1", "political"]}, {"long_name": "France", "short_name": "FR", "types": ["country", "political"]}, {"long_name": "62000", "short_name": "62000", "types": ["postal_code"]}], "formatted_address": "9 Rue du Temple, 62000 Arras, France", "geometry": {"location": {"lat": 50.283639, "lng": 2.792248}, "location_type": "ROOFTOP", "viewport": {"northeast": {"lat": 50.2849879802915, "lng": 2.793596980291502}, "southwest": {"lat": 50.2822900197085, "lng": 2.790899019708498}}}, "place_id": "ChIJP2q_TmZI3UcR0dIEeTxdFyI", "types": ["establishment", "point_of_interest", "university"]}]}, "190861549": {"AfN": "arts et metiers paristech", "Location": [{"address_components": [{"long_name": "151", "short_name": "151", "types": ["street_number"]}, {"long_name": "Boulevard de l'H\u00f4pital", "short_name": "Boulevard de l'H\u00f4pital", "types": ["route"]}, {"long_name": "Paris", "short_name": "Paris", "types": ["locality", "political"]}, {"long_name": "Paris", "short_name": "Paris", "types": ["administrative_area_level_2", "political"]}, {"long_name": "\u00cele-de-France", "short_name": "\u00cele-de-France", "types": ["administrative_area_level_1", "political"]}, {"long_name": "France", "short_name": "FR", "types": ["country", "political"]}, {"long_name": "75013", "short_name": "75013", "types": ["postal_code"]}], "formatted_address": "151 Boulevard de l'H\u00f4pital, 75013 Paris, France", "geometry": {"location": {"lat": 48.8336274, "lng": 2.3572403}, "location_type": "ROOFTOP", "viewport": {"northeast": {"lat": 48.83497638029149, "lng": 2.358589280291502}, "southwest": {"lat": 48.8322784197085, "lng": 2.355891319708498}}}, "place_id": "ChIJn87ri4xx5kcRWKlaj8HAIJI", "types": ["establishment", "point_of_interest", "university"]}]}, "61474668": {"AfN": "arup laboratories", "Location": [{"address_components": [{"long_name": "500", "short_name": "500", "types": ["street_number"]}, {"long_name": "Chipeta Way", "short_name": "Chipeta Way", "types": ["route"]}, {"long_name": "University", "short_name": "University", "types": ["neighborhood", "political"]}, {"long_name": "Salt Lake City", "short_name": "Salt Lake City", "types": ["locality", "political"]}, {"long_name": "Salt Lake County", "short_name": "Salt Lake County", "types": ["administrative_area_level_2", "political"]}, {"long_name": "Utah", "short_name": "UT", "types": ["administrative_area_level_1", "political"]}, {"long_name": "United States", "short_name": "US", "types": ["country", "political"]}, {"long_name": "84108", "short_name": "84108", "types": ["postal_code"]}], "formatted_address": "500 Chipeta Way, Salt Lake City, UT 84108, USA", "geometry": {"location": {"lat": 40.7570702, "lng": -111.8252594}, "location_type": "ROOFTOP", "viewport": {"northeast": {"lat": 40.7584191802915, "lng": -111.8239104197085}, "southwest": {"lat": 40.75572121970851, "lng": -111.8266083802915}}}, "place_id": "ChIJ-Z8-J8VfUocR53165PDkYQc", "types": ["establishment", "health", "point_of_interest"]}]}, "79015816": {"AfN": "asahi glass co", "Location": [{"address_components": [{"long_name": "18370", "short_name": "18370", "types": ["street_number"]}, {"long_name": "Oak Park Drive", "short_name": "Oak Park Dr", "types": ["route"]}, {"long_name": "Abingdon", "short_name": "Abingdon", "types": ["locality", "political"]}, {"long_name": "Wilson", "short_name": "Wilson", "types": ["administrative_area_level_3", "political"]}, {"long_name": "Washington County", "short_name": "Washington County", "types": ["administrative_area_level_2", "political"]}, {"long_name": "Virginia", "short_name": "VA", "types": ["administrative_area_level_1", "political"]}, {"long_name": "United States", "short_name": "US", "types": ["country", "political"]}, {"long_name": "24210", "short_name": "24210", "types": ["postal_code"]}, {"long_name": "8091", "short_name": "8091", "types": ["postal_code_suffix"]}], "formatted_address": "18370 Oak Park Dr, Abingdon, VA 24210, USA", "geometry": {"location": {"lat": 36.6867191, "lng": -82.055345}, "location_type": "ROOFTOP", "viewport": {"northeast": {"lat": 36.68806808029149, "lng": -82.05399601970849}, "southwest": {"lat": 36.68537011970849, "lng": -82.05669398029151}}}, "place_id": "ChIJNWEeDLNyUIgRZdO7zNHbV-A", "types": ["establishment", "point_of_interest"]}]}, "142822886": {"AfN": "asahi university", "Location": [{"address_components": [{"long_name": "1851-1", "short_name": "1851-1", "types": ["premise"]}, {"long_name": "Hozumi", "short_name": "Hozumi", "types": ["political", "sublocality", "sublocality_level_2"]}, {"long_name": "Mizuho", "short_name": "Mizuho", "types": ["locality", "political"]}, {"long_name": "Gifu Prefecture", "short_name": "Gifu Prefecture", "types": ["administrative_area_level_1", "political"]}, {"long_name": "Japan", "short_name": "JP", "types": ["country", "political"]}, {"long_name": "501-0223", "short_name": "501-0223", "types": ["postal_code"]}], "formatted_address": "1851-1 Hozumi, Mizuho, Gifu Prefecture 501-0223, Japan", "geometry": {"location": {"lat": 35.381766, "lng": 136.690565}, "location_type": "ROOFTOP", "viewport": {"northeast": {"lat": 35.3831149802915, "lng": 136.6919139802915},