{"1306487692": {"AfN": "fortune", "Location": [{"address_components": [{"long_name": "3213", "short_name": "3213", "types": ["street_number"]}, {"long_name": "South Yale Avenue", "short_name": "S Yale Ave", "types": ["route"]}, {"long_name": "Max Campbell IV", "short_name": "Max Campbell IV", "types": ["neighborhood", "political"]}, {"long_name": "Tulsa", "short_name": "Tulsa", "types": ["locality", "political"]}, {"long_name": "Tulsa County", "short_name": "Tulsa County", "types": ["administrative_area_level_2", "political"]}, {"long_name": "Oklahoma", "short_name": "OK", "types": ["administrative_area_level_1", "political"]}, {"long_name": "United States", "short_name": "US", "types": ["country", "political"]}, {"long_name": "74135", "short_name": "74135", "types": ["postal_code"]}, {"long_name": "8009", "short_name": "8009", "types": ["postal_code_suffix"]}], "formatted_address": "3213 S Yale Ave, Tulsa, OK 74135, USA", "geometry": {"location": {"lat": 36.1168457, "lng": -95.92191059999999}, "location_type": "ROOFTOP", "viewport": {"northeast": {"lat": 36.1181946802915, "lng": -95.9205616197085}, "southwest": {"lat": 36.1154967197085, "lng": -95.9232595802915}}}, "place_id": "ChIJWbP51MqStocRHGJZ6REEToQ", "types": ["establishment", "food", "point_of_interest", "restaurant"]}]}, "160272722": {"AfN": "fortune institute of technology", "Location": [{"address_components": [{"long_name": "288", "short_name": "288", "types": ["street_number"]}, {"long_name": "\u81f3\u5b78\u8def", "short_name": "\u81f3\u5b78\u8def", "types": ["route"]}, {"long_name": "Daliao District", "short_name": "Daliao District", "types": ["administrative_area_level_3", "political"]}, {"long_name": "Kaohsiung City", "short_name": "Kaohsiung City", "types": ["administrative_area_level_1", "political"]}, {"long_name": "Taiwan", "short_name": "TW", "types": ["country", "political"]}, {"long_name": "831", "short_name": "831", "types": ["postal_code"]}], "formatted_address": "831, Taiwan, Kaohsiung City, Daliao District, \u81f3\u5b78\u8def288\u865f", "geometry": {"location": {"lat": 22.6080409, "lng": 120.4270968}, "location_type": "ROOFTOP", "viewport": {"northeast": {"lat": 22.6093898802915, "lng": 120.4284457802915}, "southwest": {"lat": 22.6066919197085, "lng": 120.4257478197085}}}, "place_id": "ChIJNSBpX-YbbjQR9ZiqCjoMQqE", "types": ["establishment", "point_of_interest", "school", "university"]}]}, "886932462": {"AfN": "foster miller", "Location": [{"address_components": [{"long_name": "Miller Lane", "short_name": "Miller Ln", "types": ["route"]}, {"long_name": "Foster", "short_name": "Foster", "types": ["locality", "political"]}, {"long_name": "3", "short_name": "3", "types": ["administrative_area_level_3", "political"]}, {"long_name": "Boone County", "short_name": "Boone County", "types": ["administrative_area_level_2", "political"]}, {"long_name": "West Virginia", "short_name": "WV", "types": ["administrative_area_level_1", "political"]}, {"long_name": "United States", "short_name": "US", "types": ["country", "political"]}, {"long_name": "25081", "short_name": "25081", "types": ["postal_code"]}], "formatted_address": "Miller Ln, Foster, WV 25081, USA", "geometry": {"bounds": {"northeast": {"lat": 38.0923479, "lng": -81.7626629}, "southwest": {"lat": 38.088305, "lng": -81.7666038}}, "location": {"lat": 38.090261, "lng": -81.7652569}, "location_type": "GEOMETRIC_CENTER", "viewport": {"northeast": {"lat": 38.0923479, "lng": -81.7626629}, "southwest": {"lat": 38.088305, "lng": -81.7666038}}}, "partial_match": true, "place_id": "ChIJw3DtED08T4gRYlZJs2ANBkQ", "types": ["route"]}]}, "340842764": {"AfN": "foton motor", "Location": [{"address_components": [{"long_name": "Litang Road", "short_name": "Litang Rd", "types": ["route"]}, {"long_name": "Changping Qu", "short_name": "Changping Qu", "types": ["political", "sublocality", "sublocality_level_1"]}, {"long_name": "Beijing Shi", "short_name": "Beijing Shi", "types": ["administrative_area_level_1", "political"]}, {"long_name": "China", "short_name": "CN", "types": ["country", "political"]}, {"long_name": "102202", "short_name": "102202", "types": ["postal_code"]}], "formatted_address": "Litang Rd, Changping Qu, Beijing Shi, China, 102202", "geometry": {"location": {"lat": 40.0905004, "lng": 116.4137054}, "location_type": "GEOMETRIC_CENTER", "viewport": {"northeast": {"lat": 40.09184938029149, "lng": 116.4150543802915}, "southwest": {"lat": 40.0891514197085, "lng": 116.4123564197085}}}, "partial_match": true, "place_id": "ChIJueBygyb-8DURq_bbjMIMB0M", "types": ["car_dealer", "establishment", "point_of_interest", "store"]}]}, "1283022650": {"AfN": "foundation for advancement of international medical education and research", "Location": []}, "8901234": {"AfN": "foundation for research technology hellas", "Location": [{"address_components": [{"long_name": "Greece", "short_name": "GR", "types": ["country", "political"]}], "formatted_address": "Greece", "geometry": {"bounds": {"northeast": {"lat": 41.7488784, "lng": 29.6527999}, "southwest": {"lat": 34.5428, "lng": 19.3098}}, "location": {"lat": 39.074208, "lng": 21.824312}, "location_type": "APPROXIMATE", "viewport": {"northeast": {"lat": 41.7488784, "lng": 29.6527999}, "southwest": {"lat": 34.5428, "lng": 19.3098}}}, "partial_match": true, "place_id": "ChIJY2xxEcdKWxMRHS2a3HUXOjY", "types": ["country", "political"]}]}, "1326850966": {"AfN": "foundation medicine", "Location": [{"address_components": [{"long_name": "# 600", "short_name": "# 600", "types": ["subpremise"]}, {"long_name": "416", "short_name": "416", "types": ["street_number"]}, {"long_name": "West 15th Street", "short_name": "W 15th St", "types": ["route"]}, {"long_name": "Edmond", "short_name": "Edmond", "types": ["locality", "political"]}, {"long_name": "Oklahoma County", "short_name": "Oklahoma County", "types": ["administrative_area_level_2", "political"]}, {"long_name": "Oklahoma", "short_name": "OK", "types": ["administrative_area_level_1", "political"]}, {"long_name": "United States", "short_name": "US", "types": ["country", "political"]}, {"long_name": "73013", "short_name": "73013", "types": ["postal_code"]}, {"long_name": "3672", "short_name": "3672", "types": ["postal_code_suffix"]}], "formatted_address": "416 W 15th St # 600, Edmond, OK 73013, USA", "geometry": {"location": {"lat": 35.637339, "lng": -97.4900459}, "location_type": "ROOFTOP", "viewport": {"northeast": {"lat": 35.63868798029149, "lng": -97.48869691970849}, "southwest": {"lat": 35.63599001970849, "lng": -97.49139488029151}}}, "place_id": "ChIJP0YL9PgesocRqW1lakZoFc0", "types": ["establishment", "point_of_interest"]}]}, "152236710": {"AfN": "foundation university islamabad", "Location": [{"address_components": [{"long_name": "New Lalazar", "short_name": "New Lalazar", "types": ["locality", "political"]}, {"long_name": "Rawalpindi", "short_name": "Rawalpindi", "types": ["administrative_area_level_2", "political"]}, {"long_name": "Pakistan", "short_name": "PK", "types": ["country", "political"]}, {"long_name": "46000", "short_name": "46000", "types": ["postal_code"]}], "formatted_address": "Foundation University Educational Complex Opposite To Ayub Park\u060c New Lalazar, Rawalpindi, 46000, Pakistan", "geometry": {"location": {"lat": 33.561172, "lng": 73.07167}, "location_type": "GEOMETRIC_CENTER", "viewport": {"northeast": {"lat": 33.5625209802915, "lng": 73.07301898029151}, "southwest": {"lat": 33.5598230197085, "lng": 73.07032101970849}}}, "place_id": "ChIJaz7FxyST3zgRWUzgPUR7OsY", "types": ["establishment", "point_of_interest", "university"]}]}, "9916479": {"AfN": "fourth military medical university", "Location": [{"address_components": [{"long_name": "Xincheng", "short_name": "Xincheng", "types": ["political", "sublocality", "sublocality_level_1"]}, {"long_name": "Xi'an", "short_name": "Xi'an", "types": ["locality", "political"]}, {"long_name": "Shaanxi", "short_name": "Shaanxi", "types": ["administrative_area_level_1", "political"]}, {"long_name": "China", "short_name": "CN", "types": ["country", "political"]}], "formatted_address": "China, Shaanxi, Xi'an, Xincheng, \u957f\u7f28\u897f\u8def408\u53f7-4", "geometry": {"location": {"lat": 34.277353, "lng": 108.979147}, "location_type": "GEOMETRIC_CENTER", "viewport": {"northeast": {"lat": 34.27870198029149, "lng": 108.9804959802915}, "southwest": {"lat": 34.27600401970849, "lng": 108.9777980197085}}}, "place_id": "ChIJXWaPOt96YzYRwOVJ36uMMGY", "types": ["establishment", "point_of_interest", "university"]}]}, "1289437631": {"AfN": "fox chase cancer center", "Location": [{"address_components": [{"long_name": "333", "short_name": "333", "types": ["street_number"]}, {"long_name": "Cottman Avenue", "short_name": "Cottman Ave", "types": ["route"]}, {"long_name": "Fox Chase/ Burholme", "short_name": "Fox Chase/ Burholme", "types": ["neighborhood", "political"]}, {"long_name": "Philadelphia", "short_name": "Philadelphia", "types": ["locality", "political"]}, {"long_name": "Philadelphia County", "short_name": "Philadelphia County", "types": ["administrative_area_level_2", "political"]}, {"long_name": "Pennsylvania", "short_name": "PA", "types": ["administrative_area_level_1", "political"]}, {"long_name": "United States", "short_name": "US", "types": ["country", "political"]}, {"long_name": "19111", "short_name": "19111", "types": ["postal_code"]}], "formatted_address": "333 Cottman Ave, Philadelphia, PA 19111, USA", "geometry": {"location": {"lat": 40.0709324, "lng": -75.0905564}, "location_type": "ROOFTOP", "viewport": {"northeast": {"lat": 40.07228138029149, "lng": -75.0892074197085}, "southwest": {"lat": 40.06958341970849, "lng": -75.09190538029151}}}, "place_id": "ChIJm78uWPi3xokRgNBqOoxxF4s", "types": ["establishment", "health", "hospital", "point_of_interest"]}]}, "318025780": {"AfN": "foxconn", "Location": [{"address_components": [{"long_name": "1581", "short_name": "1581", "types": ["street_number"]}, {"long_name": "Perry Road", "short_name": "Perry Rd", "types": ["route"]}, {"long_name": "Plainfield", "short_name": "Plainfield", "types": ["locality", "political"]}, {"long_name": "Guilford Township", "short_name": "Guilford Township", "types": ["administrative_area_level_3", "political"]}, {"long_name": "Hendricks County", "short_name": "Hendricks County", "types": ["administrative_area_level_2", "political"]}, {"long_name": "Indiana", "short_name": "IN", "types": ["administrative_area_level_1", "political"]}, {"long_name": "United States", "short_name": "US", "types": ["country", "political"]}, {"long_name": "46168", "short_name": "46168", "types": ["postal_code"]}, {"long_name": "7615", "short_name": "7615", "types": ["postal_code_suffix"]}], "formatted_address": "1581 Perry Rd, Plainfield, IN 46168, USA", "geometry": {"location": {"lat": 39.6781402, "lng": -86.3538245}, "location_type": "ROOFTOP", "viewport": {"northeast": {"lat": 39.6794891802915, "lng": -86.3524755197085}, "southwest": {"lat": 39.67679121970851, "lng": -86.35517348029151}}}, "place_id": "ChIJz_ZEhRKkbIgR6rNJiGCkzC8", "types": ["establishment", "point_of_interest"]}]}, "47834966": {"AfN": "framingham state university", "Location": [{"address_components": [{"long_name": "100", "short_name": "100", "types": ["street_number"]}, {"long_name": "State Street", "short_name": "State Street", "types": ["route"]}, {"long_name": "Framingham", "short_name": "Framingham", "types": ["locality", "political"]}, {"long_name": "Middlesex County", "short_name": "Middlesex County", "types": ["administrative_area_level_2", "political"]}, {"long_name": "MA", "short_name": "MA", "types": ["administrative_area_level_1", "political"]}, {"long_name": "United States", "short_name": "US", "types": ["country", "political"]}, {"long_name": "01701", "short_name": "01701", "types": ["postal_code"]}, {"long_name": "9101", "short_name": "9101", "types": ["postal_code_suffix"]}], "formatted_address": "100 State Street, Framingham, MA 01701, USA", "geometry": {"location": {"lat": 42.2981072, "lng": -71.436075}, "location_type": "ROOFTOP", "viewport": {"northeast": {"lat": 42.2994561802915, "lng": -71.43472601970849}, "southwest": {"lat": 42.2967582197085, "lng": -71.4374239802915}}}, "place_id": "ChIJCVVeOKmJ44kRRoXXzxk0yms", "types": ["establishment", "point_of_interest", "university"]}]}, "189350637": {"AfN": "francis marion university", "Location": [{"address_components": [{"long_name": "4822", "short_name": "4822", "types": ["street_number"]}, {"long_name": "East Palmetto Street", "short_name": "E Palmetto St", "types": ["route"]}, {"long_name": "Florence", "short_name": "Florence", "types": ["locality", "political"]}, {"long_name": "Florence County", "short_name": "Florence County", "types": ["administrative_area_level_2", "political"]}, {"long_name": "South Carolina", "short_name": "SC", "types": ["administrative_area_level_1", "political"]}, {"long_name": "United States", "short_name": "US", "types": ["country", "political"]}, {"long_name": "29506", "short_name": "29506", "types": ["postal_code"]}], "formatted_address": "4822 E Palmetto St, Florence, SC 29506, USA", "geometry": {"location": {"lat": 34.1904251, "lng": -79.6519849}, "location_type": "ROOFTOP", "viewport": {"northeast": {"lat": 34.19177408029149, "lng": -79.6506359197085}, "southwest": {"lat": 34.1890761197085, "lng": -79.65333388029151}}}, "place_id": "ChIJs-Fjv3dcVYgRQnhlcmeWND8", "types": ["establishment", "point_of_interest", "university"]}]}, "110017253": {"AfN": "francois rabelais university", "Location": [{"address_components": [{"long_name": "60", "short_name": "60", "types": ["street_number"]}, {"long_name": "Rue du Plat d'\u00c9tain", "short_name": "Rue du Plat d'\u00c9tain", "types": ["route"]}, {"long_name": "Tours", "short_name": "Tours", "types": ["locality", "political"]}, {"long_name": "Indre-et-Loire", "short_name": "Indre-et-Loire", "types": ["administrative_area_level_2", "political"]}, {"long_name": "Centre-Val de Loire", "short_name": "Centre-Val de Loire", "types": ["administrative_area_level_1", "political"]}, {"long_name": "France", "short_name": "FR", "types": ["country", "political"]}, {"long_name": "37000", "short_name": "37000", "types": ["postal_code"]}], "formatted_address": "60 Rue du Plat d'\u00c9tain, 37000 Tours, France", "geometry": {"location": {"lat": 47.3838055, "lng": 0.6738727999999999}, "location_type": "ROOFTOP", "viewport": {"northeast": {"lat": 47.3851544802915, "lng": 0.675221780291502}, "southwest": {"lat": 47.38245651970851, "lng": 0.672523819708498}}}, "place_id": "ChIJW0f0m-jV_EcRf6YEXEDRYm8", "types": ["establishment", "point_of_interest", "university"]}]}, "71675930": {"AfN": "frankfurt school of finance management", "Location": [{"address_components": [{"long_name": "32-34", "short_name": "32-34", "types": ["street_number"]}, {"long_name": "Adickesallee", "short_name": "Adickesallee", "types": ["route"]}, {"long_name": "Innenstadt", "short_name": "Innenstadt", "types": ["political", "sublocality", "sublocality_level_1"]}, {"long_name": "Frankfurt am Main", "short_name": "Frankfurt am Main", "types": ["locality", "political"]}, {"long_name": "Darmstadt", "short_name": "DA", "types": ["administrative_area_level_2", "political"]}, {"long_name": "Hessen", "short_name": "HE", "types": ["administrative_area_level_1", "political"]}, {"long_name": "Germany", "short_name": "DE", "types": ["country", "political"]}, {"long_name": "60322", "short_name": "60322", "types": ["postal_code"]}], "formatted_address": "Adickesallee 32-34, 60322 Frankfurt am Main, Germany", "geometry": {"location": {"lat": 50.1329541, "lng": 8.680820299999999}, "location_type": "ROOFTOP", "viewport": {"northeast": {"lat": 50.1343030802915, "lng": 8.6821692802915}, "southwest": {"lat": 50.1316051197085, "lng": 8.679471319708497}}}, "place_id": "ChIJr8LmHMwOvUcR-WV-jYJ4Bz4", "types": ["establishment", "point_of_interest", "university"]}]}, "84676521": {"AfN": "frankfurt zoological society", "Location": [{"address_components": [{"long_name": "10005", "short_name": "10005", "types": ["street_number"]}, {"long_name": "West Bluemound Road", "short_name": "W Bluemound Rd", "types": ["route"]}, {"long_name": "Zoo", "short_name": "Zoo", "types": ["neighborhood", "political"]}, {"long_name": "Milwaukee", "short_name": "Milwaukee", "types": ["locality", "political"]}, {"long_name": "Milwaukee County", "short_name": "Milwaukee County", "types": ["administrative_area_level_2", "political"]}, {"long_name": "Wisconsin", "short_name": "WI", "types": ["administrative_area_level_1", "political"]}, {"long_name": "United States", "short_name": "US", "types": ["country", "political"]}, {"long_name": "53226", "short_name": "53226", "types": ["postal_code"]}], "formatted_address": "10005 W Bluemound Rd, Milwaukee, WI 53226, USA", "geometry": {"location": {"lat": 43.0326718, "lng": -88.0374077}, "location_type": "ROOFTOP", "viewport": {"northeast": {"lat": 43.0340207802915, "lng": -88.0360587197085}, "southwest": {"lat": 43.0313228197085, "lng": -88.03875668029151}}}, "place_id": "ChIJveZVzxsFBYgRExis0zzLgIg", "types": ["establishment", "point_of_interest"]}]}, "173146385": {"AfN": "franklin marshall college", "Location": [{"address_components": [{"long_name": "415", "short_name": "415", "types": ["street_number"]}, {"long_name": "Harrisburg Avenue", "short_name": "Harrisburg Ave", "types": ["route"]}, {"long_name": "Lancaster", "short_name": "Lancaster", "types": ["locality", "political"]}, {"long_name": "Lancaster County", "short_name": "Lancaster County", "types": ["administrative_area_level_2", "political"]}, {"long_name": "Pennsylvania", "short_name": "PA", "types": ["administrative_area_level_1", "political"]}, {"long_name": "United States", "short_name": "US", "types": ["country", "political"]}, {"long_name": "17603", "short_name": "17603", "types": ["postal_code"]}, {"long_name": "2827", "short_name": "2827", "types": ["postal_code_suffix"]}], "formatted_address": "415 Harrisburg Ave, Lancaster, PA 17603, USA", "geometry": {"location": {"lat": 40.0484514, "lng": -76.3197819}, "location_type": "ROOFTOP", "viewport": {"northeast": {"lat": 40.0498003802915, "lng": -76.31843291970848}, "southwest": {"lat": 40.0471024197085, "lng": -76.32113088029149}}}, "place_id": "ChIJi3Mw5GEkxokRS_6TQjt113s", "types": ["establishment", "point_of_interest", "university"]}]}, "137428128": {"AfN": "franklin w olin college of engineering", "Location": [{"address_components": [{"long_name": "1000", "short_name": "1000", "types": ["street_number"]}, {"long_name": "Olin Way", "short_name": "Olin Way", "types": ["route"]}, {"long_name": "Needham", "short_name": "Needham", "types": ["locality", "political"]}, {"long_name": "Norfolk County", "short_name": "Norfolk County", "types": ["administrative_area_level_2", "political"]}, {"long_name": "Massachusetts", "short_name": "MA", "types": ["administrative_area_level_1", "political"]}, {"long_name": "United States", "short_name": "US", "types": ["country", "political"]}, {"long_name": "02492", "short_name": "02492", "types": ["postal_code"]}, {"long_name": "1200", "short_name": "1200", "types": ["postal_code_suffix"]}], "formatted_address": "1000 Olin Way, Needham, MA 02492, USA", "geometry": {"location": {"lat": 42.2931671, "lng": -71.2636653}, "location_type": "ROOFTOP", "viewport": {"northeast": {"lat": 42.29451608029149, "lng": -71.2623163197085}, "southwest": {"lat": 42.2918181197085, "lng": -71.26501428029151}}}, "place_id": "ChIJu_Vj-z-B44kRW8PY7p4iOKA", "types": ["establishment", "point_of_interest", "university"]}]}, "178133122": {"AfN": "fraser health", "Location": [{"address_components": [{"long_name": "Maple Ridge", "short_name": "Maple Ridge", "types": ["locality", "political"]}, {"long_name": "British Columbia", "short_name": "BC", "types": ["administrative_area_level_1", "political"]}, {"long_name": "Canada", "short_name": "CA", "types": ["country", "political"]}], "formatted_address": "22470 Dewdney Trunk Road, Maple Ridge, BC, Canada", "geometry": {"location": {"lat": 49.2197839, "lng": -122.5995249}, "location_type": "GEOMETRIC_CENTER", "viewport": {"northeast": {"lat": 49.2211328802915, "lng": -122.5981759197085}, "southwest": {"lat": 49.2184349197085, "lng": -122.6008738802915}}}, "place_id": "ChIJbboTvF_ThVQRTKBXSE39sxs", "types": ["establishment", "health", "point_of_interest"]}]}, "4923324": {"AfN": "fraunhofer society", "Location": [{"address_components": [{"long_name": "44792", "short_name": "44792", "types": ["street_number"]}, {"long_name": "Helm Street", "short_name": "Helm St", "types": ["route"]}, {"long_name": "Plymouth", "short_name": "Plymouth", "types": ["locality", "political"]}, {"long_name": "Wayne County", "short_name": "Wayne County", "types": ["administrative_area_level_2", "political"]}, {"long_name": "Michigan", "short_name": "MI", "types": ["administrative_area_level_1", "political"]}, {"long_name": "United States", "short_name": "US", "types": ["country", "political"]}, {"long_name": "48170", "short_name": "48170", "types": ["postal_code"]}, {"long_name": "6026", "short_name": "6026", "types": ["postal_code_suffix"]}], "formatted_address": "44792 Helm St, Plymouth, MI 48170, USA", "geometry": {"location": {"lat": 42.3913763, "lng": -83.4850275}, "location_type": "ROOFTOP", "viewport": {"northeast": {"lat": 42.3927252802915, "lng": -83.4836785197085}, "southwest": {"lat": 42.3900273197085, "lng": -83.48637648029151}}}, "place_id": "ChIJAdEMb5OsJIgROGR466R2I24", "types": ["establishment", "point_of_interest"]}]}, "1326427960": {"AfN": "fred hutchinson cancer research center", "Location": [{"address_components": [{"long_name": "1100", "short_name": "1100", "types": ["street_number"]}, {"long_name": "Fairview Avenue North", "short_name": "Fairview Ave N", "types": ["route"]}, {"long_name": "South Lake Union", "short_name": "SLU", "types": ["neighborhood", "political"]}, {"long_name": "Seattle", "short_name": "Seattle", "types": ["locality", "political"]}, {"long_name": "King County", "short_name": "King County", "types": ["administrative_area_level_2", "political"]}, {"long_name": "Washington", "short_name": "WA", "types": ["administrative_area_level_1", "political"]}, {"long_name": "United States", "short_name": "US", "types": ["country", "political"]}, {"long_name": "98109", "short_name": "98109", "types": ["postal_code"]}], "formatted_address": "1100 Fairview Ave N, Seattle, WA 98109, USA", "geometry": {"location": {"lat": 47.6272634, "lng": -122.3314858}, "location_type": "ROOFTOP", "viewport": {"northeast": {"lat": 47.6286123802915, "lng": -122.3301368197085}, "southwest": {"lat": 47.6259144197085, "lng": -122.3328347802915}}}, "place_id": "ChIJzT5V0iQVkFQR0L1g2ZzelL0", "types": ["establishment", "health", "point_of_interest"]}, {"address_components": [{"long_name": "1100", "short_name": "1100", "types": ["street_number"]}, {"long_name": "Fairview Ave. N", "short_name": "Fairview Ave. N", "types": ["route"]}, {"long_name": "New Tacoma", "short_name": "New Tacoma", "types": ["neighborhood", "political"]}, {"long_name": "Seattle", "short_name": "Seattle", "types": ["locality", "political"]}, {"long_name": "Pierce County", "short_name": "Pierce County", "types": ["administrative_area_level_2", "political"]}, {"long_name": "Washington", "short_name": "WA", "types": ["administrative_area_level_1", "political"]}, {"long_name": "United States", "short_name": "US", "types": ["country", "political"]}, {"long_name": "98109", "short_name": "98109", "types": ["postal_code"]}], "formatted_address": "1100 Fairview Ave. N, Seattle, WA 98109, USA", "geometry": {"location": {"lat": 47.2442296, "lng": -122.4454693}, "location_type": "ROOFTOP", "viewport": {"northeast": {"lat": 47.2455785802915, "lng": -122.4441203197085}, "southwest": {"lat": 47.2428806197085, "lng": -122.4468182802915}}}, "place_id": "ChIJ1yQD7nFVkFQRbhOvCP4uGBU", "types": ["establishment", "health", "point_of_interest"]}]}, "27103197": {"AfN": "freddie mac", "Location": [{"address_components": [{"long_name": "8250", "short_name": "8250", "types": ["street_number"]}, {"long_name": "Jones Branch Drive", "short_name": "Jones Branch Dr", "types": ["route"]}, {"long_name": "McLean", "short_name": "McLean", "types": ["locality", "political"]}, {"long_name": "Providence", "short_name": "Providence", "types": ["administrative_area_level_3", "political"]}, {"long_name": "Fairfax County", "short_name": "Fairfax County", "types": ["administrative_area_level_2", "political"]}, {"long_name": "Virginia", "short_name": "VA", "types": ["administrative_area_level_1", "political"]}, {"long_name": "United States", "short_name": "US", "types": ["country", "political"]}, {"long_name": "22102", "short_name": "22102", "types": ["postal_code"]}, {"long_name": "3112", "short_name": "3112", "types": ["postal_code_suffix"]}], "formatted_address": "8250 Jones Branch Dr, McLean, VA 22102, USA", "geometry": {"location": {"lat": 38.9326923, "lng": -77.2298958}, "location_type": "ROOFTOP", "viewport": {"northeast": {"lat": 38.9340412802915, "lng": -77.22854681970848}, "southwest": {"lat": 38.9313433197085, "lng": -77.2312447802915}}}, "place_id": "ChIJ90RZ6o1KtokR8B08NEzYaqc", "types": ["establishment", "finance", "point_of_interest"]}]}, "138066346": {"AfN": "frederick community college", "Location": [{"address_components": [{"long_name": "7932", "short_name": "7932", "types": ["street_number"]}, {"long_name": "Opossumtown Pike", "short_name": "Opossumtown Pike", "types": ["route"]}, {"long_name": "Frederick", "short_name": "Frederick", "types": ["locality", "political"]}, {"long_name": "2, Frederick", "short_name": "2, Frederick", "types": ["administrative_area_level_3", "political"]}, {"long_name": "Frederick County", "short_name": "Frederick County", "types": ["administrative_area_level_2", "political"]}, {"long_name": "Maryland", "short_name": "MD", "types": ["administrative_area_level_1", "political"]}, {"long_name": "United States", "short_name": "US", "types": ["country", "political"]}, {"long_name": "21702", "short_name": "21702", "types": ["postal_code"]}], "formatted_address": "7932 Opossumtown Pike, Frederick, MD 21702, USA", "geometry": {"location": {"lat": 39.451287, "lng": -77.416944}, "location_type": "ROOFTOP", "viewport": {"northeast": {"lat": 39.4526359802915, "lng": -77.41559501970849}, "southwest": {"lat": 39.4499380197085, "lng": -77.4182929802915}}}, "place_id": "ChIJ7bdtHtDayYkRebPtc-DzFRw", "types": ["establishment", "point_of_interest", "university"]}]}, "98830844": {"AfN": "fredric g levin college of law", "Location": [{"address_components": [{"long_name": "309", "short_name": "309", "types": ["street_number"]}, {"long_name": "Village Drive", "short_name": "Village Dr", "types": ["route"]}, {"long_name": "Gainesville", "short_name": "Gainesville", "types": ["locality", "political"]}, {"long_name": "Alachua County", "short_name": "Alachua County", "types": ["administrative_area_level_2", "political"]}, {"long_name": "Florida", "short_name": "FL", "types": ["administrative_area_level_1", "political"]}, {"long_name": "United States", "short_name": "US", "types": ["country", "political"]}, {"long_name": "32611", "short_name": "32611", "types": ["postal_code"]}], "formatted_address": "309 Village Dr, Gainesville, FL 32611, USA", "geometry": {"location": {"lat": 29.64946269999999, "lng": -82.3590409}, "location_type": "ROOFTOP", "viewport": {"northeast": {"lat": 29.65081168029149, "lng": -82.35769191970849}, "southwest": {"lat": 29.6481137197085, "lng": -82.36038988029149}}}, "place_id": "ChIJyZbIeG-j6IgRVpGhCH0UObo", "types": ["establishment", "point_of_interest", "university"]}]}, "75951250": {"AfN": "free university of berlin", "Location": [{"address_components": [{"long_name": "16-18", "short_name": "16-18", "types": ["street_number"]}, {"long_name": "Kaiserswerther Stra\u00dfe", "short_name": "Kaiserswerther Str.", "types": ["route"]}, {"long_name": "Bezirk Steglitz-Zehlendorf", "short_name": "Bezirk Steglitz-Zehlendorf", "types": ["political", "sublocality", "sublocality_level_1"]}, {"long_name": "Berlin", "short_name": "Berlin", "types": ["locality", "political"]}, {"long_name": "Berlin", "short_name": "Berlin", "types": ["administrative_area_level_1", "political"]}, {"long_name": "Germany", "short_name": "DE", "types": ["country", "political"]}, {"long_name": "14195", "short_name": "14195", "types": ["postal_code"]}], "formatted_address": "Kaiserswerther Str. 16-18, 14195 Berlin, Germany", "geometry": {"location": {"lat": 52.4525264, "lng": 13.2896787}, "location_type": "ROOFTOP", "viewport": {"northeast": {"lat": 52.4538753802915, "lng": 13.2910276802915}, "southwest": {"lat": 52.4511774197085, "lng": 13.2883297197085}}}, "place_id": "ChIJRRDKDe1aqEcRqpWZEvF9zIs", "types": ["establishment", "point_of_interest", "university"]}]}, "171543936": {"AfN": "free university of bozen bolzano", "Location": [{"address_components": [{"long_name": "1", "short_name": "1", "types": ["street_number"]}, {"long_name": "Piazza Universit\u00e0", "short_name": "Piazza Universit\u00e0", "types": ["route"]}, {"long_name": "Bolzano", "short_name": "Bolzano", "types": ["locality", "political"]}, {"long_name": "Bolzano", "short_name": "Bolzano", "types": ["administrative_area_level_3", "political"]}, {"long_name": "Provincia di Bolzano - Alto Adige", "short_name": "BZ", "types": ["administrative_area_level_2", "political"]}, {"long_name": "Trentino-Alto Adige", "short_name": "Trentino-Alto Adige", "types": ["administrative_area_level_1", "political"]}, {"long_name": "Italy", "short_name": "IT", "types": ["country", "political"]}, {"long_name": "39100", "short_name": "39100", "types": ["postal_code"]}], "formatted_address": "Piazza Universit\u00e0, 1, 39100 Bolzano BZ, Italy", "geometry": {"location": {"lat": 46.4984534, "lng": 11.3507102}, "location_type": "ROOFTOP", "viewport": {"northeast": {"lat": 46.49980238029149, "lng": 11.3520591802915}, "southwest": {"lat": 46.4971044197085, "lng": 11.3493612197085}}}, "place_id": "ChIJpZsD31megkcR3jZACYmxfIs", "types": ["establishment", "point_of_interest", "university"]}]}, "908309457": {"AfN": "free university of brussels", "Location": [{"address_components": [{"long_name": "50", "short_name": "50", "types": ["street_number"]}, {"long_name": "Franklin Rooseveltlaan", "short_name": "Franklin Rooseveltlaan", "types": ["route"]}, {"long_name": "Brussel", "short_name": "Brussel", "types": ["locality", "political"]}, {"long_name": "Brussels Hoofdstedelijk Gewest", "short_name": "Brussels Hoofdstedelijk Gewest", "types": ["administrative_area_level_1", "political"]}, {"long_name": "Belgium", "short_name": "BE", "types": ["country", "political"]}, {"long_name": "1050", "short_name": "1050", "types": ["postal_code"]}], "formatted_address": "Franklin Rooseveltlaan 50, 1050 Brussel, Belgium", "geometry": {"location": {"lat": 50.8132068, "lng": 4.3822222}, "location_type": "ROOFTOP", "viewport": {"northeast": {"lat": 50.81455578029149, "lng": 4.383571180291503}, "southwest": {"lat": 50.81185781970849, "lng": 4.380873219708498}}}, "place_id": "ChIJQ84ZXUjEw0cRkWZ8wFOS6-g", "types": ["establishment", "point_of_interest", "university"]}]}, "186748736": {"AfN": "freed hardeman university", "Location": [{"address_components": [{"long_name": "158", "short_name": "158", "types": ["street_number"]}, {"long_name": "East Main Street", "short_name": "E Main St", "types": ["route"]}, {"long_name": "Henderson", "short_name": "Henderson", "types": ["locality", "political"]}, {"long_name": "Chester County", "short_name": "Chester County", "types": ["administrative_area_level_2", "political"]}, {"long_name": "Tennessee", "short_name": "TN", "types": ["administrative_area_level_1", "political"]}, {"long_name": "United States", "short_name": "US", "types": ["country", "political"]}, {"long_name": "38340", "short_name": "38340", "types": ["postal_code"]}], "formatted_address": "158 E Main St, Henderson, TN 38340, USA", "geometry": {"location": {"lat": 35.4384625, "lng": -88.6361646}, "location_type": "ROOFTOP", "viewport": {"northeast": {"lat": 35.4398114802915, "lng": -88.6348156197085}, "southwest": {"lat": 35.4371135197085, "lng": -88.63751358029151}}}, "place_id": "ChIJS-a76c0kfIgR0PJQvTclesY", "types": ["establishment", "point_of_interest", "university"]}]}, "888185325": {"AfN": "freescale semiconductor", "Location": [{"address_components": [{"long_name": "3501", "short_name": "3501", "types": ["street_number"]}, {"long_name": "Ed Bluestein Boulevard", "short_name": "Ed Bluestein Blvd", "types": ["route"]}, {"long_name": "East MLK", "short_name": "East MLK", "types": ["neighborhood", "political"]}, {"long_name": "Austin", "short_name": "Austin", "types": ["locality", "political"]}, {"long_name": "Travis County", "short_name": "Travis County", "types": ["administrative_area_level_2", "political"]}, {"long_name": "Texas", "short_name": "TX", "types": ["administrative_area_level_1", "political"]}, {"long_name": "United States", "short_name": "US", "types": ["country", "political"]}, {"long_name": "78721", "short_name": "78721", "types": ["postal_code"]}, {"long_name": "2903", "short_name": "2903", "types": ["postal_code_suffix"]}], "formatted_address": "3501 Ed Bluestein Blvd, Austin, TX 78721, USA", "geometry": {"location": {"lat": 30.2731962, "lng": -97.662658}, "location_type": "ROOFTOP", "viewport": {"northeast": {"lat": 30.2745451802915, "lng": -97.66130901970848}, "southwest": {"lat": 30.2718472197085, "lng": -97.6640069802915}}}, "place_id": "ChIJy6xty0W2RIYRvXVnPx6FxjQ", "types": ["establishment", "point_of_interest"]}]}, "61893789": {"AfN": "freiberg university of mining and technology", "Location": [{"address_components": [{"long_name": "6", "short_name": "6", "types": ["street_number"]}, {"long_name": "Akademiestra\u00dfe", "short_name": "Akademiestra\u00dfe", "types": ["route"]}, {"long_name": "Altstadt", "short_name": "Altstadt", "types": ["political", "sublocality", "sublocality_level_1"]}, {"long_name": "Freiberg", "short_name": "Freiberg", "types": ["locality", "political"]}, {"long_name": "Mittelsachsen", "short_name": "Mittelsachsen", "types": ["administrative_area_level_3", "political"]}, {"long_name": "Chemnitz", "short_name": "C", "types": ["administrative_area_level_2", "political"]}, {"long_name": "Sachsen", "short_name": "SN", "types": ["administrative_area_level_1", "political"]}, {"long_name": "Germany", "short_name": "DE", "types": ["country", "political"]}, {"long_name": "09599", "short_name": "09599", "types": ["postal_code"]}], "formatted_address": "Akademiestra\u00dfe 6, 09599 Freiberg, Germany", "geometry": {"location": {"lat": 50.9181454, "lng": 13.3408847}, "location_type": "ROOFTOP", "viewport": {"northeast": {"lat": 50.9194943802915, "lng": 13.34223368029151}, "southwest": {"lat": 50.9167964197085, "lng": 13.3395357197085}}}, "place_id": "ChIJn-7hBv5fp0cRe_WzwILOa08", "types": ["establishment", "point_of_interest", "university"]}]}, "1301681328": {"AfN": "french academy of sciences", "Location": [{"address_components": [{"long_name": "23", "short_name": "23", "types": ["street_number"]}, {"long_name": "Quai de Conti", "short_name": "Quai de Conti", "types": ["route"]}, {"long_name": "Paris", "short_name": "Paris", "types": ["locality", "political"]}, {"long_name": "Paris", "short_name": "Paris", "types": ["administrative_area_level_2", "political"]}, {"long_name": "\u00cele-de-France", "short_name": "\u00cele-de-France", "types": ["administrative_area_level_1", "political"]}, {"long_name": "France", "short_name": "FR", "types": ["country", "political"]}, {"long_name": "75006", "short_name": "75006", "types": ["postal_code"]}], "formatted_address": "23 Quai de Conti, 75006 Paris, France", "geometry": {"location": {"lat": 48.8572759, "lng": 2.3368827}, "location_type": "ROOFTOP", "viewport": {"northeast": {"lat": 48.85862488029149, "lng": 2.338231680291502}, "southwest": {"lat": 48.85592691970849, "lng": 2.335533719708498}}}, "place_id": "ChIJ_dr1bCdu5kcRR8f9RZrr-9w", "types": ["establishment", "point_of_interest"]}]}, "2738703131": {"AfN": "french alternative energies and atomic energy commission", "Location": []}, "1326498283": {"AfN": "french institute for research in computer science and automation", "Location": [{"address_components": [{"long_name": "1", "short_name": "1", "types": ["street_number"]}, {"long_name": "Daxue Road", "short_name": "Daxue Road", "types": ["route"]}, {"long_name": "East District", "short_name": "East District", "types": ["administrative_area_level_3", "political"]}, {"long_name": "Tainan City", "short_name": "Tainan City", "types": ["administrative_area_level_1", "political"]}, {"long_name": "Taiwan", "short_name": "TW", "types": ["country", "political"]}, {"long_name": "701", "short_name": "701", "types": ["postal_code"]}], "formatted_address": "No. 1, Daxue Road, East District, Tainan City, Taiwan 701", "geometry": {"location": {"lat": 22.9966856, "lng": 120.222327}, "location_type": "ROOFTOP", "viewport": {"northeast": {"lat": 22.9980345802915, "lng": 120.2236759802915}, "southwest": {"lat": 22.9953366197085, "lng": 120.2209780197085}}}, "partial_match": true, "place_id": "ChIJ0-xBWJN2bjQRVf4zMXrJPLQ", "types": ["establishment", "point_of_interest"]}]}, "154526488": {"AfN": "french institute of health and medical research", "Location": [{"address_components": [{"long_name": "89", "short_name": "89", "types": ["street_number"]}, {"long_name": "French Street", "short_name": "French St", "types": ["route"]}, {"long_name": "New Brunswick", "short_name": "New Brunswick", "types": ["locality", "political"]}, {"long_name": "Middlesex County", "short_name": "Middlesex County", "types": ["administrative_area_level_2", "political"]}, {"long_name": "New Jersey", "short_name": "NJ", "types": ["administrative_area_level_1", "political"]}, {"long_name": "United States", "short_name": "US", "types": ["country", "political"]}, {"long_name": "08901", "short_name": "08901", "types": ["postal_code"]}, {"long_name": "1935", "short_name": "1935", "types": ["postal_code_suffix"]}], "formatted_address": "89 French St, New Brunswick, NJ 08901, USA", "geometry": {"location": {"lat": 40.4942214, "lng": -74.45105880000001}, "location_type": "ROOFTOP", "viewport": {"northeast": {"lat": 40.4955703802915, "lng": -74.44970981970852}, "southwest": {"lat": 40.4928724197085, "lng": -74.45240778029152}}}, "place_id": "ChIJw8XQklfGw4kRDLeN4ych0gk", "types": ["establishment", "hospital", "point_of_interest"]}]}, "86713406": {"AfN": "french institute of pondicherry", "Location": [{"address_components": [{"long_name": "Puducherry", "short_name": "Puducherry", "types": ["locality", "political"]}, {"long_name": "Puducherry", "short_name": "PY", "types": ["administrative_area_level_1", "political"]}, {"long_name": "India", "short_name": "IN", "types": ["country", "political"]}, {"long_name": "605001", "short_name": "605001", "types": ["postal_code"]}], "formatted_address": "11, Saint Louis Street, Puducherry, 605001, India", "geometry": {"location": {"lat": 11.9369424, "lng": 79.8356429}, "location_type": "GEOMETRIC_CENTER", "viewport": {"northeast": {"lat": 11.9382913802915, "lng": 79.8369918802915}, "southwest": {"lat": 11.9355934197085, "lng": 79.83429391970849}}}, "place_id": "ChIJEcVkg9RjUzoRiTgyjWRkTm4", "types": ["establishment", "point_of_interest", "university"]}]}, "90589149": {"AfN": "fresenius medical care", "Location": [{"address_components": [{"long_name": "Suite 101", "short_name": "Suite 101", "types": ["subpremise"]}, {"long_name": "3500", "short_name": "3500", "types": ["street_number"]}, {"long_name": "State Street", "short_name": "State St", "types": ["route"]}, {"long_name": "Bartlesville", "short_name": "Bartlesville", "types": ["locality", "political"]}, {"long_name": "Washington County", "short_name": "Washington County", "types": ["administrative_area_level_2", "political"]}, {"long_name": "Oklahoma", "short_name": "OK", "types": ["administrative_area_level_1", "political"]}, {"long_name": "United States", "short_name": "US", "types": ["country", "political"]}, {"long_name": "74006", "short_name": "74006", "types": ["postal_code"]}, {"long_name": "2924", "short_name": "2924", "types": ["postal_code_suffix"]}], "formatted_address": "3500 State St Suite 101, Bartlesville, OK 74006, USA", "geometry": {"location": {"lat": 36.7537811, "lng": -95.93832499999999}, "location_type": "ROOFTOP", "viewport": {"northeast": {"lat": 36.75513008029149, "lng": -95.93697601970848}, "southwest": {"lat": 36.75243211970849, "lng": -95.9396739802915}}}, "place_id": "ChIJh7ShVE0St4cR6_LwUyNOFgc", "types": ["establishment", "health", "point_of_interest"]}]}, "13591431": {"AfN": "fresno pacific university", "Location": [{"address_components": [{"long_name": "1717", "short_name": "1717", "types": ["street_number"]}, {"long_name": "South Chestnut Avenue", "short_name": "S Chestnut Ave", "types": ["route"]}, {"long_name": "Roosevelt", "short_name": "Roosevelt", "types": ["neighborhood", "political"]}, {"long_name": "Fresno", "short_name": "Fresno", "types": ["locality", "political"]}, {"long_name": "Fresno County", "short_name": "Fresno County", "types": ["administrative_area_level_2", "political"]}, {"long_name": "California", "short_name": "CA", "types": ["administrative_area_level_1", "political"]}, {"long_name": "United States", "short_name": "US", "types": ["country", "political"]}, {"long_name": "93702", "short_name": "93702", "types": ["postal_code"]}, {"long_name": "4798", "short_name": "4798", "types": ["postal_code_suffix"]}], "formatted_address": "1717 S Chestnut Ave, Fresno, CA 93702, USA", "geometry": {"location": {"lat": 36.7268898, "lng": -119.7341819}, "location_type": "ROOFTOP", "viewport": {"northeast": {"lat": 36.7282387802915, "lng": -119.7328329197085}, "southwest": {"lat": 36.7255408197085, "lng": -119.7355308802915}}}, "place_id": "ChIJWXAZgQNflIARV40PbTc746Y", "types": ["establishment", "point_of_interest", "university"]}]}, "1310048521": {"AfN": "friedrich loeffler institute", "Location": []}, "860889466": {"AfN": "friedrich miescher institute for biomedical research", "Location": [{"address_components": [{"long_name": "45", "short_name": "45", "types": ["street_number"]}, {"long_name": "Sidney Street", "short_name": "Sidney St", "types": ["route"]}, {"long_name": "Cambridgeport", "short_name": "Cambridgeport", "types": ["neighborhood", "political"]}, {"long_name": "Cambridge", "short_name": "Cambridge", "types": ["locality", "political"]}, {"long_name": "Middlesex County", "short_name": "Middlesex County", "types": ["administrative_area_level_2", "political"]}, {"long_name": "Massachusetts", "short_name": "MA", "types": ["administrative_area_level_1", "political"]}, {"long_name": "United States", "short_name": "US", "types": ["country", "political"]}, {"long_name": "02139", "short_name": "02139", "types": ["postal_code"]}], "formatted_address": "45 Sidney St, Cambridge, MA 02139, USA", "geometry": {"location": {"lat": 42.3622015, "lng": -71.1014325}, "location_type": "ROOFTOP", "viewport": {"northeast": {"lat": 42.36355048029151, "lng": -71.1000835197085}, "southwest": {"lat": 42.36085251970851, "lng": -71.10278148029151}}}, "place_id": "ChIJt2h5S1R344kRrGMg02hkYUk", "types": ["establishment", "health", "point_of_interest"]}]}, "153388232": {"AfN": "front range community college", "Location": [{"address_components": [{"long_name": "3645", "short_name": "3645", "types": ["street_number"]}, {"long_name": "West 112th Avenue", "short_name": "W 112th Ave", "types": ["route"]}, {"long_name": "North Central Westminster", "short_name": "North Central Westminster", "types": ["neighborhood", "political"]}, {"long_name": "Westminster", "short_name": "Westminster", "types": ["locality", "political"]}, {"long_name": "Adams County", "short_name": "Adams County", "types": ["administrative_area_level_2", "political"]}, {"long_name": "Colorado", "short_name": "CO", "types": ["administrative_area_level_1", "political"]}, {"long_name": "United States", "short_name": "US", "types": ["country", "political"]}, {"long_name": "80031", "short_name": "80031", "types": ["postal_code"]}], "formatted_address": "3645 W 112th Ave, Westminster, CO 80031, USA", "geometry": {"location": {"lat": 39.9014731, "lng": -105.0378855}, "location_type": "ROOFTOP", "viewport": {"northeast": {"lat": 39.90282208029151, "lng": -105.0365365197085}, "southwest": {"lat": 39.90012411970851, "lng": -105.0392344802915}}}, "place_id": "ChIJpVi23wWKa4cRiZGcCFXQRJw", "types": ["establishment", "point_of_interest", "university"]}]}, "152830075": {"AfN": "frostburg state university", "Location": [{"address_components": [{"long_name": "101", "short_name": "101", "types": ["street_number"]}, {"long_name": "Braddock Road", "short_name": "Braddock Rd", "types": ["route"]}, {"long_name": "Frostburg", "short_name": "Frostburg", "types": ["locality", "political"]}, {"long_name": "26, Frostburg", "short_name": "26, Frostburg", "types": ["administrative_area_level_3", "political"]}, {"long_name": "Allegany County", "short_name": "Allegany County", "types": ["administrative_area_level_2", "political"]}, {"long_name": "Maryland", "short_name": "MD", "types": ["administrative_area_level_1", "political"]}, {"long_name": "United States", "short_name": "US", "types": ["country", "political"]}, {"long_name": "21532", "short_name": "21532", "types": ["postal_code"]}], "formatted_address": "101 Braddock Rd, Frostburg, MD 21532, USA", "geometry": {"location": {"lat": 39.6501666, "lng": -78.9341855}, "location_type": "ROOFTOP", "viewport": {"northeast": {"lat": 39.65151558029149, "lng": -78.93283651970849}, "southwest": {"lat": 39.6488176197085, "lng": -78.93553448029151}}}, "place_id": "ChIJrQ2T0i2XyokRJfVYT_a3dAw", "types": ["establishment", "point_of_interest", "university"]}]}, "122741444": {"AfN": "fsi international inc", "Location": [{"address_components": [{"long_name": "600", "short_name": "600", "types": ["street_number"]}, {"long_name": "Millennium Drive", "short_name": "Millennium Dr", "types": ["route"]}, {"long_name": "Allen", "short_name": "Allen", "types": ["locality", "political"]}, {"long_name": "Collin County", "short_name": "Collin County", "types": ["administrative_area_level_2", "political"]}, {"long_name": "Texas", "short_name": "TX", "types": ["administrative_area_level_1", "political"]}, {"long_name": "United States", "short_name": "US", "types": ["country", "political"]}, {"long_name": "75013", "short_name": "75013", "types": ["postal_code"]}, {"long_name": "2791", "short_name": "2791", "types": ["postal_code_suffix"]}], "formatted_address": "600 Millennium Dr, Allen, TX 75013, USA", "geometry": {"location": {"lat": 33.0960466, "lng": -96.6775765}, "location_type": "ROOFTOP", "viewport": {"northeast": {"lat": 33.0973955802915, "lng": -96.67622751970849}, "southwest": {"lat": 33.0946976197085, "lng": -96.67892548029151}}}, "place_id": "ChIJSVfjM0QXTIYRe89uHoeLgSY", "types": ["establishment", "point_of_interest"]}]}, "114150738": {"AfN": "fu jen catholic university", "Location": [{"address_components": [{"long_name": "510", "short_name": "510", "types": ["street_number"]}, {"long_name": "Zhongzheng Road", "short_name": "Zhongzheng Road", "types": ["route"]}, {"long_name": "Xinzhuang District", "short_name": "Xinzhuang District", "types": ["administrative_area_level_3", "political"]}, {"long_name": "New Taipei City", "short_name": "New Taipei City", "types": ["administrative_area_level_1", "political"]}, {"long_name": "Taiwan", "short_name": "TW", "types": ["country", "political"]}, {"long_name": "242", "short_name": "242", "types": ["postal_code"]}], "formatted_address": "No. 510, Zhongzheng Road, Xinzhuang District, New Taipei City, Taiwan 242", "geometry": {"location": {"lat": 25.0354303, "lng": 121.4324641}, "location_type": "ROOFTOP", "viewport": {"northeast": {"lat": 25.0367792802915, "lng": 121.4338130802915}, "southwest": {"lat": 25.0340813197085, "lng": 121.4311151197085}}}, "place_id": "ChIJDSNgn8KnQjQRPcD80cC8sZw", "types": ["establishment", "point_of_interest", "school", "university"]}]}, "24943067": {"AfN": "fudan university", "Location": [{"address_components": [{"long_name": "220", "short_name": "220", "types": ["street_number"]}, {"long_name": "Handan Road", "short_name": "Handan Rd", "types": ["route"]}, {"long_name": "WuJiaoChang", "short_name": "WuJiaoChang", "types": ["neighborhood", "political"]}, {"long_name": "Yangpu Qu", "short_name": "Yangpu Qu", "types": ["political", "sublocality", "sublocality_level_1"]}, {"long_name": "Shanghai Shi", "short_name": "Shanghai Shi", "types": ["administrative_area_level_1", "political"]}, {"long_name": "China", "short_name": "CN", "types": ["country", "political"]}, {"long_name": "200433", "short_name": "200433", "types": ["postal_code"]}], "formatted_address": "220 Handan Rd, WuJiaoChang, Yangpu Qu, Shanghai Shi, China, 200433", "geometry": {"location": {"lat": 31.2974197, "lng": 121.5036178}, "location_type": "ROOFTOP", "viewport": {"northeast": {"lat": 31.2987686802915, "lng": 121.5049667802915}, "southwest": {"lat": 31.2960707197085, "lng": 121.5022688197085}}}, "place_id": "ChIJt9Odl89zsjURydc6obzggtQ", "types": ["establishment", "point_of_interest", "university"]}]}, "61057504": {"AfN": "fujian agriculture and forestry university", "Location": [{"address_components": [{"long_name": "Cangshan", "short_name": "Cangshan", "types": ["political", "sublocality", "sublocality_level_1"]}, {"long_name": "Fuzhou", "short_name": "Fuzhou", "types": ["locality", "political"]}, {"long_name": "Fujian", "short_name": "Fujian", "types": ["administrative_area_level_1", "political"]}, {"long_name": "China", "short_name": "CN", "types": ["country", "political"]}], "formatted_address": "China, Fujian, Fuzhou, Cangshan, \u6d2a\u5c71\u6865\u4e0a\u5e97", "geometry": {"location": {"lat": 26.084946, "lng": 119.239701}, "location_type": "GEOMETRIC_CENTER", "viewport": {"northeast": {"lat": 26.0862949802915, "lng": 119.2410499802915}, "southwest": {"lat": 26.0835970197085, "lng": 119.2383520197085}}}, "place_id": "ChIJX-POz5tQQDQR1GJ5m9FjnA8", "types": ["establishment", "point_of_interest", "university"]}]}, "111753288": {"AfN": "fujian normal university", "Location": [{"address_components": [{"long_name": "8", "short_name": "8", "types": ["street_number"]}, {"long_name": "Upper 3rd Road", "short_name": "Upper 3rd Rd", "types": ["route"]}, {"long_name": "Cangshan Qu", "short_name": "Cangshan Qu", "types": ["political", "sublocality", "sublocality_level_1"]}, {"long_name": "Fuzhou Shi", "short_name": "Fuzhou Shi", "types": ["locality", "political"]}, {"long_name": "Fujian Sheng", "short_name": "Fujian Sheng", "types": ["administrative_area_level_1", "political"]}, {"long_name": "China", "short_name": "CN", "types": ["country", "political"]}, {"long_name": "350007", "short_name": "350007", "types": ["postal_code"]}], "formatted_address": "8 Upper 3rd Rd, Cangshan Qu, Fuzhou Shi, Fujian Sheng, China, 350007", "geometry": {"location": {"lat": 26.039111, "lng": 119.306958}, "location_type": "ROOFTOP", "viewport": {"northeast": {"lat": 26.0404599802915, "lng": 119.3083069802915}, "southwest": {"lat": 26.0377620197085, "lng": 119.3056090197085}}}, "place_id": "ChIJqeCsqZZRQDQR1mp2jueIB1A", "types": ["establishment", "point_of_interest", "university"]}]}, "145673806": {"AfN": "fujita health university", "Location": [{"address_components": [{"long_name": "98", "short_name": "98", "types": ["premise"]}, {"long_name": "1", "short_name": "1", "types": ["political", "sublocality", "sublocality_level_4"]}, {"long_name": "\u697d\u30b1\u7aaa", "short_name": "\u697d\u30b1\u7aaa", "types": ["political", "sublocality", "sublocality_level_3"]}, {"long_name": "\u6c93\u639b\u753a\u7530", "short_name": "\u6c93\u639b\u753a\u7530", "types": ["political", "sublocality", "sublocality_level_2"]}, {"long_name": "Toyoake", "short_name": "Toyoake", "types": ["locality", "political"]}, {"long_name": "Aichi Prefecture", "short_name": "Aichi Prefecture", "types": ["administrative_area_level_1", "political"]}, {"long_name": "Japan", "short_name": "JP", "types": ["country", "political"]}, {"long_name": "470-1192", "short_name": "470-1192", "types": ["postal_code"]}], "formatted_address": "\u697d\u30b1\u7aaa-1-98 \u6c93\u639b\u753a\u7530 Toyoake, Aichi Prefecture 470-1192, Japan", "geometry": {"location": {"lat": 35.0711716, "lng": 137.0012712}, "location_type": "ROOFTOP", "viewport": {"northeast": {"lat": 35.0725205802915, "lng": 137.0026201802915}, "southwest": {"lat": 35.0698226197085, "lng": 136.9999222197085}}}, "place_id": "ChIJA010XeBiA2ARHvi-Z7S3geE", "types": ["establishment", "point_of_interest", "university"]}]}, "2252096349": {"AfN": "fujitsu", "Location": [{"address_components": [{"long_name": "300", "short_name": "300", "types": ["subpremise"]}, {"long_name": "7633", "short_name": "7633", "types": ["street_number"]}, {"long_name": "East 63rd Place", "short_name": "E 63rd Pl", "types": ["route"]}, {"long_name": "Tulsa", "short_name": "Tulsa", "types": ["locality", "political"]}, {"long_name": "Tulsa County", "short_name": "Tulsa County", "types": ["administrative_area_level_2", "political"]}, {"long_name": "Oklahoma", "short_name": "OK", "types": ["administrative_area_level_1", "political"]}, {"long_name": "United States", "short_name": "US", "types": ["country", "political"]}, {"long_name": "74133", "short_name": "74133", "types": ["postal_code"]}, {"long_name": "1202", "short_name": "1202", "types": ["postal_code_suffix"]}], "formatted_address": "7633 E 63rd Pl #300, Tulsa, OK 74133, USA", "geometry": {"location": {"lat": 36.0725663, "lng": -95.8886636}, "location_type": "ROOFTOP", "viewport": {"northeast": {"lat": 36.0739152802915, "lng": -95.8873146197085}, "southwest": {"lat": 36.0712173197085, "lng": -95.89001258029151}}}, "place_id": "ChIJj4GRIIONtocREHgo3t-A-h8", "types": ["establishment", "point_of_interest"]}]}, "125590103": {"AfN": "fukui university of technology", "Location": [{"address_components": [{"long_name": "1", "short_name": "1", "types": ["premise"]}, {"long_name": "6", "short_name": "6", "types": ["political", "sublocality", "sublocality_level_4"]}, {"long_name": "3 Chome", "short_name": "3 Chome", "types": ["political", "sublocality", "sublocality_level_3"]}, {"long_name": "Gakuen", "short_name": "Gakuen", "types": ["political", "sublocality", "sublocality_level_2"]}, {"long_name": "Fukui", "short_name": "Fukui", "types": ["locality", "political"]}, {"long_name": "Fukui Prefecture", "short_name": "Fukui Prefecture", "types": ["administrative_area_level_1", "political"]}, {"long_name": "Japan", "short_name": "JP", "types": ["country", "political"]}, {"long_name": "910-0028", "short_name": "910-0028", "types": ["postal_code"]}], "formatted_address": "3 Chome-6-1 Gakuen, Fukui, Fukui Prefecture 910-0028, Japan", "geometry": {"location": {"lat": 36.0689823, "lng": 136.1960677}, "location_type": "ROOFTOP", "viewport": {"northeast": {"lat": 36.07033128029151, "lng": 136.1974166802915}, "southwest": {"lat": 36.06763331970851, "lng": 136.1947187197085}}}, "place_id": "ChIJgci8kB-_-F8Rq4r3JWcDoDA", "types": ["establishment", "point_of_interest", "university"]}, {"address_components": [{"long_name": "1", "short_name": "1", "types": ["premise"]}, {"long_name": "9", "short_name": "9", "types": ["political", "sublocality", "sublocality_level_4"]}, {"long_name": "\uff13\u4e01\u76ee", "short_name": "\uff13\u4e01\u76ee", "types": ["political", "sublocality", "sublocality_level_3"]}, {"long_name": "Bunkyo", "short_name": "Bunkyo", "types": ["political", "sublocality", "sublocality_level_2"]}, {"long_name": "Fukui", "short_name": "Fukui", "types": ["locality", "political"]}, {"long_name": "Fukui Prefecture", "short_name": "Fukui Prefecture", "types": ["administrative_area_level_1", "political"]}, {"long_name": "Japan", "short_name": "JP", "types": ["country", "political"]}, {"long_name": "910-8507", "short_name": "910-8507", "types": ["postal_code"]}], "formatted_address": "\uff13\u4e01\u76ee-9-1 Bunkyo, Fukui, Fukui Prefecture 910-8507, Japan", "geometry": {"location": {"lat": 36.0769536, "lng": 136.2117736}, "location_type": "ROOFTOP", "viewport": {"northeast": {"lat": 36.07830258029149, "lng": 136.2131225802915}, "southwest": {"lat": 36.07560461970849, "lng": 136.2104246197085}}}, "place_id": "ChIJT9HT7wC_-F8RBsND2P_el5U", "types": ["establishment", "point_of_interest", "university"]}]}, "81810807": {"AfN": "fukuoka dental college", "Location": [{"address_components": [{"long_name": "1", "short_name": "1", "types": ["premise"]}, {"long_name": "15", "short_name": "15", "types": ["political", "sublocality", "sublocality_level_4"]}, {"long_name": "2 Chome", "short_name": "2 Chome", "types": ["political", "sublocality", "sublocality_level_3"]}, {"long_name": "Tamura", "short_name": "Tamura", "types": ["political", "sublocality", "sublocality_level_2"]}, {"long_name": "Sawara Ward", "short_name": "Sawara Ward", "types": ["political", "sublocality", "sublocality_level_1"]}, {"long_name": "Fukuoka", "short_name": "Fukuoka", "types": ["locality", "political"]}, {"long_name": "Fukuoka Prefecture", "short_name": "Fukuoka Prefecture", "types": ["administrative_area_level_1", "political"]}, {"long_name": "Japan", "short_name": "JP", "types": ["country", "political"]}, {"long_name": "814-0175", "short_name": "814-0175", "types": ["postal_code"]}], "formatted_address": "2 Chome-15-1 Tamura, Sawara Ward, Fukuoka, Fukuoka Prefecture 814-0175, Japan", "geometry": {"location": {"lat": 33.544358, "lng": 130.332332}, "location_type": "ROOFTOP", "viewport": {"northeast": {"lat": 33.54570698029149, "lng": 130.3336809802915}, "southwest": {"lat": 33.54300901970849, "lng": 130.3309830197085}}}, "place_id": "ChIJ9WYj1OuUQTURmNWhEGor-zA", "types": ["establishment", "point_of_interest", "university"]}]}, "100722782": {"AfN": "fukuoka institute of technology", "Location": [{"address_components": [{"long_name": "1", "short_name": "1", "types": ["premise"]}, {"long_name": "30", "short_name": "30", "types": ["political", "sublocality", "sublocality_level_4"]}, {"long_name": "3 Chome", "short_name": "3 Chome", "types": ["political", "sublocality", "sublocality_level_3"]}, {"long_name": "Wajirohigashi", "short_name": "Wajirohigashi", "types": ["political", "sublocality", "sublocality_level_2"]}, {"long_name": "Higashi Ward", "short_name": "Higashi Ward", "types": ["political", "sublocality", "sublocality_level_1"]}, {"long_name": "Fukuoka", "short_name": "Fukuoka", "types": ["locality", "political"]}, {"long_name": "Fukuoka Prefecture", "short_name": "Fukuoka Prefecture", "types": ["administrative_area_level_1", "political"]}, {"long_name": "Japan", "short_name": "JP", "types": ["country", "political"]}, {"long_name": "811-0295", "short_name": "811-0295", "types": ["postal_code"]}], "formatted_address": "3 Chome-30-1 Wajirohigashi, Higashi Ward, Fukuoka, Fukuoka Prefecture 811-0295, Japan", "geometry": {"location": {"lat": 33.695469, "lng": 130.439456}, "location_type": "ROOFTOP", "viewport": {"northeast": {"lat": 33.69681798029149, "lng": 130.4408049802915}, "southwest": {"lat": 33.69412001970849, "lng": 130.4381070197085}}}, "place_id": "ChIJU9bc1-eIQTURxhUnHOk2NO4", "types": ["establishment", "point_of_interest", "university"]}]}, "20831749": {"AfN": "fukuoka prefectural university", "Location": [{"address_components": [{"long_name": "Fukuoka Prefecture", "short_name": "Fukuoka Prefecture", "types": ["administrative_area_level_1", "political"]}, {"long_name": "Japan", "short_name": "JP", "types": ["country", "political"]}], "formatted_address": "Fukuoka Prefecture, Japan", "geometry": {"bounds": {"northeast": {"lat": 34.2503082, "lng": 131.1906981}, "southwest": {"lat": 33.0000079, "lng": 129.9818264}}, "location": {"lat": 33.6065756, "lng": 130.418297}, "location_type": "APPROXIMATE", "viewport": {"northeast": {"lat": 34.2503082, "lng": 131.1906981}, "southwest": {"lat": 33.0000079, "lng": 129.9818264}}}, "place_id": "ChIJJbF-93qBQTURTThRSvsPopc", "types": ["administrative_area_level_1", "political"]}, {"address_components": [{"long_name": "3426-1", "short_name": "3426-1", "types": ["premise"]}, {"long_name": "Ita", "short_name": "Ita", "types": ["political", "sublocality", "sublocality_level_2"]}, {"long_name": "Tagawa", "short_name": "Tagawa", "types": ["locality", "political"]}, {"long_name": "Fukuoka Prefecture", "short_name": "Fukuoka Prefecture", "types": ["administrative_area_level_1", "political"]}, {"long_name": "Japan", "short_name": "JP", "types": ["country", "political"]}, {"long_name": "825-0002", "short_name": "825-0002", "types": ["postal_code"]}], "formatted_address": "3426-1 Ita, Tagawa, Fukuoka Prefecture 825-0002, Japan", "geometry": {"location": {"lat": 33.6488928, "lng": 130.8153435}, "location_type": "ROOFTOP", "viewport": {"northeast": {"lat": 33.65024178029149, "lng": 130.8166924802915}, "southwest": {"lat": 33.6475438197085, "lng": 130.8139945197085}}}, "place_id": "ChIJjSi-xcfZQzURMOtPmKqsNPU", "types": ["establishment", "point_of_interest", "university"]}]}, "31784960": {"AfN": "fukuoka university", "Location": [{"address_components": [{"long_name": "Fukuoka Prefecture", "short_name": "Fukuoka Prefecture", "types": ["administrative_area_level_1", "political"]}, {"long_name": "Japan", "short_name": "JP", "types": ["country", "political"]}, {"long_name": "814-0180", "short_name": "814-0180", "types": ["postal_code"]}], "formatted_address": "Japan, \u3012814-0180 Fukuoka Prefecture, \u798f\u5ca1\u5e02\u57ce\u5357\u533a\u4e03\u9688\uff18\u4e01\u76ee\uff11\uff19\u2212\uff11", "geometry": {"location": {"lat": 33.5471131, "lng": 130.3627449}, "location_type": "GEOMETRIC_CENTER", "viewport": {"northeast": {"lat": 33.5484620802915, "lng": 130.3640938802915}, "southwest": {"lat": 33.5457641197085, "lng": 130.3613959197085}}}, "place_id": "ChIJ8eBwE3SUQTURCAuU5-N3xw0", "types": ["establishment", "point_of_interest", "university"]}]}, "130830085": {"AfN": "fukushima medical university", "Location": [{"address_components": [{"long_name": "\uff11\u756a\u5730", "short_name": "\uff11\u756a\u5730", "types": ["premise"]}, {"long_name": "Hikarigaoka", "short_name": "Hikarigaoka", "types": ["political", "sublocality", "sublocality_level_2"]}, {"long_name": "Fukushima", "short_name": "Fukushima", "types": ["locality", "political"]}, {"long_name": "Fukushima Prefecture", "short_name": "Fukushima Prefecture", "types": ["administrative_area_level_1", "political"]}, {"long_name": "Japan", "short_name": "JP", "types": ["country", "political"]}, {"long_name": "960-1247", "short_name": "960-1247", "types": ["postal_code"]}], "formatted_address": "\uff11\u756a\u5730 Hikarigaoka, Fukushima, Fukushima Prefecture 960-1247, Japan", "geometry": {"location": {"lat": 37.6891907, "lng": 140.468564}, "location_type": "ROOFTOP", "viewport": {"northeast": {"lat": 37.69053968029149, "lng": 140.4699129802915}, "southwest": {"lat": 37.6878417197085, "lng": 140.4672150197085}}}, "place_id": "ChIJLXkJPzKDil8R1K3xzkYuPbE", "types": ["establishment", "point_of_interest", "university"]}]}, "41661162": {"AfN": "fukuyama university", "Location": [{"address_components": [{"long_name": "\uff19\uff18\uff15\u756a\u5730\uff11", "short_name": "\uff19\uff18\uff15\u756a\u5730\uff11", "types": ["premise"]}, {"long_name": "\u4e09\u8535", "short_name": "\u4e09\u8535", "types": ["political", "sublocality", "sublocality_level_3"]}, {"long_name": "\u6771\u6751\u753a", "short_name": "\u6771\u6751\u753a", "types": ["political", "sublocality", "sublocality_level_2"]}, {"long_name": "\u798f\u5c71\u5e02", "short_name": "\u798f\u5c71\u5e02", "types": ["locality", "political"]}, {"long_name": "\u5e83\u5cf6\u770c", "short_name": "\u5e83\u5cf6\u770c", "types": ["administrative_area_level_1", "political"]}, {"long_name": "Japan", "short_name": "JP", "types": ["country", "political"]}, {"long_name": "729-0292", "short_name": "729-0292", "types": ["postal_code"]}], "formatted_address": "Japan, \u3012729-0292 \u5e83\u5cf6\u770c\u798f\u5c71\u5e02\u6771\u6751\u753a\u4e09\u8535\uff19\uff18\uff15\u756a\u5730\uff11", "geometry": {"location": {"lat": 34.458438, "lng": 133.229697}, "location_type": "ROOFTOP", "viewport": {"northeast": {"lat": 34.4597869802915, "lng": 133.2310459802915}, "southwest": {"lat": 34.4570890197085, "lng": 133.2283480197085}}}, "place_id": "ChIJqb1Xc6MDUTURezLOOCNla8s", "types": ["establishment", "point_of_interest", "university"]}, {"address_components": [{"long_name": "Hiroshima Prefecture", "short_name": "Hiroshima Prefecture", "types": ["administrative_area_level_1", "political"]}, {"long_name": "Japan", "short_name": "JP", "types": ["country", "political"]}, {"long_name": "721-0964", "short_name": "721-0964", "types": ["postal_code"]}], "formatted_address": "Japan, \u3012721-0964 Hiroshima Prefecture, \u798f\u5c71\u5e02\u6e2f\u753a\u4e8c\u4e01\u76ee19\u756a1\u53f7", "geometry": {"location": {"lat": 34.481672, "lng": 133.381579}, "location_type": "GEOMETRIC_CENTER", "viewport": {"northeast": {"lat": 34.48302098029149, "lng": 133.3829279802915}, "southwest": {"lat": 34.48032301970849, "lng": 133.3802300197085}}}, "place_id": "ChIJW1W9vBERUTURwq5uI-Z3vVU", "types": ["establishment", "point_of_interest", "university"]}]}, "904740543": {"AfN": "fulbright jaworski", "Location": [{"address_components": [{"long_name": "2200", "short_name": "2200", "types": ["street_number"]}, {"long_name": "Ross Avenue", "short_name": "Ross Ave", "types": ["route"]}, {"long_name": "Arts District", "short_name": "Arts District", "types": ["neighborhood", "political"]}, {"long_name": "Dallas", "short_name": "Dallas", "types": ["locality", "political"]}, {"long_name": "Dallas County", "short_name": "Dallas County", "types": ["administrative_area_level_2", "political"]}, {"long_name": "Texas", "short_name": "TX", "types": ["administrative_area_level_1", "political"]}, {"long_name": "United States", "short_name": "US", "types": ["country", "political"]}, {"long_name": "75201", "short_name": "75201", "types": ["postal_code"]}, {"long_name": "2784", "short_name": "2784", "types": ["postal_code_suffix"]}], "formatted_address": "2200 Ross Ave, Dallas, TX 75201, USA", "geometry": {"location": {"lat": 32.7879414, "lng": -96.79654219999999}, "location_type": "ROOFTOP", "viewport": {"northeast": {"lat": 32.7892903802915, "lng": -96.7951932197085}, "southwest": {"lat": 32.78659241970851, "lng": -96.7978911802915}}}, "place_id": "ChIJhw6PsSaZToYRJB3-S4H4VTg", "types": ["establishment", "lawyer", "point_of_interest"]}]}, "44202434": {"AfN": "fundacao getulio vargas", "Location": [{"address_components": [{"long_name": "Botafogo", "short_name": "Botafogo", "types": ["political", "sublocality", "sublocality_level_1"]}, {"long_name": "Rio de Janeiro", "short_name": "Rio de Janeiro", "types": ["administrative_area_level_2", "political"]}, {"long_name": "Rio de Janeiro", "short_name": "RJ", "types": ["administrative_area_level_1", "political"]}, {"long_name": "Brazil", "short_name": "BR", "types": ["country", "political"]}, {"long_name": "22250-900", "short_name": "22250-900", "types": ["postal_code"]}], "formatted_address": "Praia de Botafogo, 190 - Edif\u00edcio Luiz Sim\u00f5es Lopes (Sede) - (Acesso tamb\u00e9m pela Rua Bar\u00e3o de Itambi, 47) - Botafogo, Rio de Janeiro - RJ, 22250-900, Brazil", "geometry": {"location": {"lat": -22.9413225, "lng": -43.1802566}, "location_type": "GEOMETRIC_CENTER", "viewport": {"northeast": {"lat": -22.9399735197085, "lng": -43.1789076197085}, "southwest": {"lat": -22.9426714802915, "lng": -43.1816055802915}}}, "place_id": "ChIJZyaPhox_mQARypMMCJn5Gf0", "types": ["establishment", "point_of_interest", "university"]}]}, "183675789": {"AfN": "fundacion favaloro", "Location": [{"address_components": [{"long_name": "1782", "short_name": "1782", "types": ["street_number"]}, {"long_name": "Avenida Belgrano", "short_name": "Av. Belgrano", "types": ["route"]}, {"long_name": "San Telmo", "short_name": "San Telmo", "types": ["political", "sublocality", "sublocality_level_1"]}, {"long_name": "Comuna 1", "short_name": "Comuna 1", "types": ["administrative_area_level_2", "political"]}, {"long_name": "Buenos Aires", "short_name": "CABA", "types": ["administrative_area_level_1", "political"]}, {"long_name": "Argentina", "short_name": "AR", "types": ["country", "political"]}, {"long_name": "C1093", "short_name": "C1093", "types": ["postal_code"]}, {"long_name": "AAS", "short_name": "AAS", "types": ["postal_code_suffix"]}], "formatted_address": "Av. Belgrano 1782, C1093AAS CABA, Argentina", "geometry": {"location": {"lat": -34.6162378, "lng": -58.36854270000001}, "location_type": "ROOFTOP", "viewport": {"northeast": {"lat": -34.6148888197085, "lng": -58.3671937197085}, "southwest": {"lat": -34.6175867802915, "lng": -58.36989168029151}}}, "place_id": "ChIJnYik_9Q0o5URivWTZwRmhhg", "types": ["establishment", "point_of_interest", "university"]}]}, "86115722": {"AfN": "furman university", "Location": [{"address_components": [{"long_name": "3300", "short_name": "3300", "types": ["street_number"]}, {"long_name": "Poinsett Highway", "short_name": "Poinsett Hwy", "types": ["route"]}, {"long_name": "Greenville", "short_name": "Greenville", "types": ["locality", "political"]}, {"long_name": "Greenville County", "short_name": "Greenville County", "types": ["administrative_area_level_2", "political"]}, {"long_name": "South Carolina", "short_name": "SC", "types": ["administrative_area_level_1", "political"]}, {"long_name": "United States", "short_name": "US", "types": ["country", "political"]}, {"long_name": "29613", "short_name": "29613", "types": ["postal_code"]}], "formatted_address": "3300 Poinsett Hwy, Greenville, SC 29613, USA", "geometry": {"location": {"lat": 34.9237, "lng": -82.4382693}, "location_type": "ROOFTOP", "viewport": {"northeast": {"lat": 34.92504898029149, "lng": -82.4369203197085}, "southwest": {"lat": 34.9223510197085, "lng": -82.43961828029151}}}, "place_id": "ChIJBw5xX6UzWIgRhg86-lkSG1s", "types": ["establishment", "point_of_interest", "university"]}]}, "83631517": {"AfN": "fusion for energy", "Location": [{"address_components": [{"long_name": "0417", "short_name": "0417", "types": ["subpremise"]}, {"long_name": "9500", "short_name": "9500", "types": ["street_number"]}, {"long_name": "Gilman Drive", "short_name": "Gilman Dr", "types": ["route"]}, {"long_name": "La Jolla", "short_name": "La Jolla", "types": ["neighborhood", "political"]}, {"long_name": "San Diego", "short_name": "San Diego", "types": ["locality", "political"]}, {"long_name": "San Diego County", "short_name": "San Diego County", "types": ["administrative_area_level_2", "political"]}, {"long_name": "California", "short_name": "CA", "types": ["administrative_area_level_1", "political"]}, {"long_name": "United States", "short_name": "US", "types": ["country", "political"]}, {"long_name": "92093", "short_name": "92093", "types": ["postal_code"]}], "formatted_address": "9500 Gilman Dr #0417, La Jolla, CA 92093, USA", "geometry": {"location": {"lat": 32.879629, "lng": -117.2351207}, "location_type": "ROOFTOP", "viewport": {"northeast": {"lat": 32.8809779802915, "lng": -117.2337717197085}, "southwest": {"lat": 32.8782800197085, "lng": -117.2364696802915}}}, "place_id": "ChIJ7_qXUMMG3IAR5W785fCRcnk", "types": ["establishment", "point_of_interest"]}]}, "80947539": {"AfN": "fuzhou university", "Location": [{"address_components": [{"long_name": "China", "short_name": "CN", "types": ["country", "political"]}, {"long_name": "Minhou", "short_name": "Minhou", "types": ["political", "sublocality", "sublocality_level_1"]}, {"long_name": "Fuzhou", "short_name": "Fuzhou", "types": ["locality", "political"]}], "formatted_address": "Minhou, Fuzhou, China", "geometry": {"location": {"lat": 26.05892, "lng": 119.197618}, "location_type": "GEOMETRIC_CENTER", "viewport": {"northeast": {"lat": 26.0602689802915, "lng": 119.1989669802915}, "southwest": {"lat": 26.0575710197085, "lng": 119.1962690197085}}}, "place_id": "ChIJLYzg8OdaQDQRpSa_Ggs_86A", "types": ["establishment", "point_of_interest", "university"]}]}, "199741918": {"AfN": "g d searle company", "Location": [{"address_components": [{"long_name": "19", "short_name": "19", "types": ["street_number"]}, {"long_name": "South Main Street", "short_name": "S Main St", "types": ["route"]}, {"long_name": "Morrisville", "short_name": "Morrisville", "types": ["locality", "political"]}, {"long_name": "Bucks County", "short_name": "Bucks County", "types": ["administrative_area_level_2", "political"]}, {"long_name": "Pennsylvania", "short_name": "PA", "types": ["administrative_area_level_1", "political"]}, {"long_name": "United States", "short_name": "US", "types": ["country", "political"]}, {"long_name": "19067", "short_name": "19067", "types": ["postal_code"]}], "formatted_address": "19 S Main St, Morrisville, PA 19067, USA", "geometry": {"location": {"lat": 40.2419551, "lng": -74.83854699999999}, "location_type": "ROOFTOP", "viewport": {"northeast": {"lat": 40.24330408029149, "lng": -74.8371980197085}, "southwest": {"lat": 40.2406061197085, "lng": -74.8398959802915}}}, "partial_match": true, "place_id": "ChIJuXXaUldWwYkRjyZQ3S6LuAk", "types": ["establishment", "finance", "point_of_interest"]}, {"address_components": [{"long_name": "333", "short_name": "333", "types": ["street_number"]}, {"long_name": "Greenwich Avenue", "short_name": "Greenwich Ave", "types": ["route"]}, {"long_name": "Greenwich", "short_name": "Greenwich", "types": ["locality", "political"]}, {"long_name": "Fairfield County", "short_name": "Fairfield County", "types": ["administrative_area_level_2", "political"]}, {"long_name": "Connecticut", "short_name": "CT", "types": ["administrative_area_level_1", "political"]}, {"long_name": "United States", "short_name": "US", "types": ["country", "political"]}, {"long_name": "06830", "short_name": "06830", "types": ["postal_code"]}, {"long_name": "6505", "short_name": "6505", "types": ["postal_code_suffix"]}], "formatted_address": "333 Greenwich Ave, Greenwich, CT 06830, USA", "geometry": {"location": {"lat": 41.024313, "lng": -73.625067}, "location_type": "ROOFTOP", "viewport": {"northeast": {"lat": 41.0256619802915, "lng": -73.62371801970849}, "southwest": {"lat": 41.0229640197085, "lng": -73.6264159802915}}}, "partial_match": true, "place_id": "ChIJU8-7QUmYwokRWa40g830uyc", "types": ["establishment", "finance", "point_of_interest"]}]}, "12832649": {"AfN": "gachon university", "Location": [{"address_components": [{"long_name": "1342", "short_name": "1342", "types": ["premise"]}, {"long_name": "Seongnam-daero", "short_name": "Seongnam-daero", "types": ["political", "sublocality", "sublocality_level_4"]}, {"long_name": "Bokjeong-dong", "short_name": "Bokjeong-dong", "types": ["political", "sublocality", "sublocality_level_2"]}, {"long_name": "Sujeong-gu", "short_name": "Sujeong-gu", "types": ["political", "sublocality", "sublocality_level_1"]}, {"long_name": "Seongnam-si", "short_name": "Seongnam-si", "types": ["locality", "political"]}, {"long_name": "Gyeonggi-do", "short_name": "Gyeonggi-do", "types": ["administrative_area_level_1", "political"]}, {"long_name": "South Korea", "short_name": "KR", "types": ["country", "political"]}, {"long_name": "461-200", "short_name": "461-200", "types": ["postal_code"]}], "formatted_address": "1342 Seongnam-daero, Bokjeong-dong, Sujeong-gu, Seongnam-si, Gyeonggi-do, South Korea", "geometry": {"location": {"lat": 37.4507452, "lng": 127.1288474}, "location_type": "ROOFTOP", "viewport": {"northeast": {"lat": 37.4520941802915, "lng": 127.1301963802915}, "southwest": {"lat": 37.4493962197085, "lng": 127.1274984197085}}}, "place_id": "ChIJexLzAaSofDURFc0B4n5O1jk", "types": ["establishment", "point_of_interest", "university"]}]}, "165230279": {"AfN": "gadjah mada university", "Location": [{"address_components": [{"long_name": "Bulaksumur", "short_name": "Bulaksumur", "types": ["route"]}, {"long_name": "Caturtunggal", "short_name": "Caturtunggal", "types": ["administrative_area_level_4", "political"]}, {"long_name": "Kecamatan Depok", "short_name": "Kec. Depok", "types": ["administrative_area_level_3", "political"]}, {"long_name": "Kabupaten Sleman", "short_name": "Kabupaten Sleman", "types": ["administrative_area_level_2", "political"]}, {"long_name": "Daerah Istimewa Yogyakarta", "short_name": "Jogja", "types": ["administrative_area_level_1", "political"]}, {"long_name": "Indonesia", "short_name": "ID", "types": ["country", "political"]}, {"long_name": "55281", "short_name": "55281", "types": ["postal_code"]}], "formatted_address": "Bulaksumur, Caturtunggal, Kec. Depok, Kabupaten Sleman, Daerah Istimewa Yogyakarta 55281, Indonesia", "geometry": {"location": {"lat": -7.7713847, "lng": 110.3774998}, "location_type": "GEOMETRIC_CENTER", "viewport": {"northeast": {"lat": -7.770035719708497, "lng": 110.3788487802915}, "southwest": {"lat": -7.772733680291502, "lng": 110.3761508197085}}}, "place_id": "ChIJKZdy1LJZei4R5Pg0z197Taw", "types": ["establishment", "point_of_interest", "university"]}]}, "891039680": {"AfN": "gai consultants inc", "Location": [{"address_components": [{"long_name": "2545", "short_name": "2545", "types": ["street_number"]}, {"long_name": "Spring Arbor Road", "short_name": "Spring Arbor Rd", "types": ["route"]}, {"long_name": "Jackson", "short_name": "Jackson", "types": ["locality", "political"]}, {"long_name": "Jackson County", "short_name": "Jackson County", "types": ["administrative_area_level_2", "political"]}, {"long_name": "Michigan", "short_name": "MI", "types": ["administrative_area_level_1", "political"]}, {"long_name": "United States", "short_name": "US", "types": ["country", "political"]}, {"long_name": "49203", "short_name": "49203", "types": ["postal_code"]}, {"long_name": "3793", "short_name": "3793", "types": ["postal_code_suffix"]}], "formatted_address": "2545 Spring Arbor Rd, Jackson, MI 49203, USA", "geometry": {"location": {"lat": 42.2295634, "lng": -84.44799100000002}, "location_type": "ROOFTOP", "viewport": {"northeast": {"lat": 42.23091238029149, "lng": -84.44664201970852}, "southwest": {"lat": 42.22821441970849, "lng": -84.44933998029153}}}, "place_id": "ChIJ0T4_DtA6PYgRXe6Cif_bxk8", "types": ["establishment", "point_of_interest"]}]}, "1286697812": {"AfN": "gaia online", "Location": []}, "94294566": {"AfN": "galatasaray university", "Location": [{"address_components": [{"long_name": "36", "short_name": "36", "types": ["street_number"]}, {"long_name": "\u00c7\u0131ra\u011fan Caddesi", "short_name": "\u00c7\u0131ra\u011fan Cd.", "types": ["route"]}, {"long_name": "Ortak\u00f6y Mahallesi", "short_name": "Ortak\u00f6y Mh.", "types": ["administrative_area_level_4", "political"]}, {"long_name": "Be\u015fikta\u015f", "short_name": "Be\u015fikta\u015f", "types": ["administrative_area_level_2", "political"]}, {"long_name": "\u0130stanbul", "short_name": "\u0130stanbul", "types": ["administrative_area_level_1", "political"]}, {"long_name": "Turkey", "short_name": "TR", "types": ["country", "political"]}, {"long_name": "34349", "short_name": "34349", "types": ["postal_code"]}], "formatted_address": "Ortak\u00f6y Mh., \u00c7\u0131ra\u011fan Cd. No:36, 34349 Be\u015fikta\u015f/\u0130stanbul, Turkey", "geometry": {"location": {"lat": 41.0459897, "lng": 29.0198998}, "location_type": "ROOFTOP", "viewport": {"northeast": {"lat": 41.0473386802915, "lng": 29.0212487802915}, "southwest": {"lat": 41.0446407197085, "lng": 29.0185508197085}}}, "place_id": "ChIJkQGbULi3yhQRQCDiiZs25aM", "types": ["establishment", "point_of_interest", "university"]}]}, "66108857": {"AfN": "gallaudet university", "Location": [{"address_components": [{"long_name": "800", "short_name": "800", "types": ["street_number"]}, {"long_name": "Florida Avenue Northeast", "short_name": "Florida Ave NE", "types": ["route"]}, {"long_name": "Northeast Washington", "short_name": "Northeast Washington", "types": ["neighborhood", "political"]}, {"long_name": "Washington", "short_name": "Washington", "types": ["locality", "political"]}, {"long_name": "District of Columbia", "short_name": "DC", "types": ["administrative_area_level_1", "political"]}, {"long_name": "United States", "short_name": "US", "types": ["country", "political"]}, {"long_name": "20002", "short_name": "20002", "types": ["postal_code"]}], "formatted_address": "800 Florida Ave NE, Washington, DC 20002, USA", "geometry": {"location": {"lat": 38.908422, "lng": -76.99238749999999}, "location_type": "ROOFTOP", "viewport": {"northeast": {"lat": 38.9097709802915, "lng": -76.9910385197085}, "southwest": {"lat": 38.90707301970851, "lng": -76.9937364802915}}}, "place_id": "ChIJw7on2RO4t4kRHTiHL_w_A38", "types": ["establishment", "point_of_interest", "university"]}]}, "63871047": {"AfN": "galway mayo institute of technology", "Location": [{"address_components": [{"long_name": "Galway Mayo Institute of Technology", "short_name": "Galway Mayo Institute of Technology", "types": ["premise"]}, {"long_name": "Old Dublin Road", "short_name": "Old Dublin Rd", "types": ["route"]}, {"long_name": "Galway", "short_name": "Galway", "types": ["locality", "political"]}, {"long_name": "County Galway", "short_name": "County Galway", "types": ["administrative_area_level_1", "political"]}, {"long_name": "Ireland", "short_name": "IE", "types": ["country", "political"]}], "formatted_address": "Galway Mayo Institute of Technology, Old Dublin Rd, Galway, Ireland", "geometry": {"location": {"lat": 53.27842930000001, "lng": -9.0111511}, "location_type": "ROOFTOP", "viewport": {"northeast": {"lat": 53.27977828029151, "lng": -9.009802119708498}, "southwest": {"lat": 53.27708031970851, "lng": -9.012500080291503}}}, "place_id": "ChIJ7w7PS82WW0gRdY1oeiXxMAI", "types": ["premise"]}, {"address_components": [{"long_name": "Galway-Mayo Institute of Technology", "short_name": "Galway-Mayo Institute of Technology", "types": ["premise"]}, {"long_name": "Westport Road", "short_name": "Westport Rd", "types": ["route"]}, {"long_name": "Curragh", "short_name": "Curragh", "types": ["neighborhood", "political"]}, {"long_name": "Castlebar", "short_name": "Castlebar", "types": ["locality", "political"]}, {"long_name": "County Mayo", "short_name": "County Mayo", "types": ["administrative_area_level_1", "political"]}, {"long_name": "Ireland", "short_name": "IE", "types": ["country", "political"]}], "formatted_address": "Galway-Mayo Institute of Technology, Westport Rd, Curragh, Castlebar, Co. Mayo, Ireland", "geometry": {"location": {"lat": 53.84877849999999, "lng": -9.3053303}, "location_type": "ROOFTOP", "viewport": {"northeast": {"lat": 53.85012748029149, "lng": -9.303981319708496}, "southwest": {"lat": 53.8474295197085, "lng": -9.306679280291501}}}, "place_id": "ChIJXYLGZ5tdWUgR6kMmJ_ZXAwA", "types": ["premise"]}]}, "80018011": {"AfN": "game wildlife conservation trust", "Location": [{"address_components": [{"long_name": "10", "short_name": "10", "types": ["street_number"]}, {"long_name": "Cumberland Street North", "short_name": "Cumberland St N", "types": ["route"]}, {"long_name": "Thunder Bay", "short_name": "Thunder Bay", "types": ["locality", "political"]}, {"long_name": "Thunder Bay District", "short_name": "Thunder Bay District", "types": ["administrative_area_level_2", "political"]}, {"long_name": "Ontario", "short_name": "ON", "types": ["administrative_area_level_1", "political"]}, {"long_name": "Canada", "short_name": "CA", "types": ["country", "political"]}, {"long_name": "P7A 4K9", "short_name": "P7A 4K9", "types": ["postal_code"]}], "formatted_address": "10 Cumberland St N, Thunder Bay, ON P7A 4K9, Canada", "geometry": {"location": {"lat": 48.43517, "lng": -89.219247}, "location_type": "ROOFTOP", "viewport": {"northeast": {"lat": 48.4365189802915, "lng": -89.21789801970849}, "southwest": {"lat": 48.4338210197085, "lng": -89.2205959802915}}}, "place_id": "ChIJCfmAvDQiWU0RcDlqW70kmJo", "types": ["establishment", "point_of_interest"]}]}, "15853019": {"AfN": "gandhi medical college", "Location": [{"address_components": [{"long_name": "Secunderabad", "short_name": "SC", "types": ["locality", "political"]}, {"long_name": "Telangana", "short_name": "Telangana", "types": ["administrative_area_level_1", "political"]}, {"long_name": "India", "short_name": "IN", "types": ["country", "political"]}, {"long_name": "500003", "short_name": "500003", "types": ["postal_code"]}], "formatted_address": "Musheerabad, Secunderabad, Telangana 500003, India", "geometry": {"location": {"lat": 17.4246598, "lng": 78.5043917}, "location_type": "GEOMETRIC_CENTER", "viewport": {"northeast": {"lat": 17.4260087802915, "lng": 78.5057406802915}, "southwest": {"lat": 17.4233108197085, "lng": 78.50304271970849}}}, "place_id": "ChIJ-cTCQomZyzsR4pxJewFoIB8", "types": ["establishment", "point_of_interest", "university"]}]}, "133533813": {"AfN": "gangneung wonju national university", "Location": [{"address_components": [{"long_name": "123", "short_name": "123", "types": ["premise"]}, {"long_name": "Jibyeon-dong", "short_name": "Jibyeon-dong", "types": ["political", "sublocality", "sublocality_level_2"]}, {"long_name": "Gangneung", "short_name": "Gangneung", "types": ["locality", "political"]}, {"long_name": "Gangwon-do", "short_name": "Gangwon-do", "types": ["administrative_area_level_1", "political"]}, {"long_name": "South Korea", "short_name": "KR", "types": ["country", "political"]}, {"long_name": "210-320", "short_name": "210-320", "types": ["postal_code"]}], "formatted_address": "123 Jibyeon-dong, Gangneung, Gangwon-do, South Korea", "geometry": {"location": {"lat": 37.7687678, "lng": 128.8701409}, "location_type": "ROOFTOP", "viewport": {"northeast": {"lat": 37.7701167802915, "lng": 128.8714898802915}, "southwest": {"lat": 37.7674188197085, "lng": 128.8687919197085}}}, "place_id": "ChIJZaLIH5vlYTURgk9JeiUA4Ts", "types": ["establishment", "point_of_interest", "university"]}]}, "1329575245": {"AfN": "gannett fleming", "Location": [{"address_components": [{"long_name": "3", "short_name": "3", "types": ["subpremise"]}, {"long_name": "1075", "short_name": "1075", "types": ["street_number"]}, {"long_name": "Eastgate Drive", "short_name": "Eastgate Dr", "types": ["route"]}, {"long_name": "O'Fallon", "short_name": "O'Fallon", "types": ["locality", "political"]}, {"long_name": "O'Fallon Township", "short_name": "O'Fallon Township", "types": ["administrative_area_level_3", "political"]}, {"long_name": "St. Clair County", "short_name": "St Clair County", "types": ["administrative_area_level_2", "political"]}, {"long_name": "Illinois", "short_name": "IL", "types": ["administrative_area_level_1", "political"]}, {"long_name": "United States", "short_name": "US", "types": ["country", "political"]}, {"long_name": "62269", "short_name": "62269", "types": ["postal_code"]}, {"long_name": "3742", "short_name": "3742", "types": ["postal_code_suffix"]}], "formatted_address": "1075 Eastgate Dr #3, O'Fallon, IL 62269, USA", "geometry": {"location": {"lat": 38.5779417, "lng": -89.8769535}, "location_type": "ROOFTOP", "viewport": {"northeast": {"lat": 38.57929068029149, "lng": -89.87560451970849}, "southwest": {"lat": 38.5765927197085, "lng": -89.8783024802915}}}, "place_id": "ChIJSXuMRnAGdogR02H_6XI0GXo", "types": ["establishment", "point_of_interest"]}]}, "967637": {"AfN": "gannon university", "Location": [{"address_components": [{"long_name": "109", "short_name": "109", "types": ["street_number"]}, {"long_name": "University Square", "short_name": "University Square", "types": ["route"]}, {"long_name": "Erie", "short_name": "Erie", "types": ["locality", "political"]}, {"long_name": "Erie County", "short_name": "Erie County", "types": ["administrative_area_level_2", "political"]}, {"long_name": "Pennsylvania", "short_name": "PA", "types": ["administrative_area_level_1", "political"]}, {"long_name": "United States", "short_name": "US", "types": ["country", "political"]}, {"long_name": "16541", "short_name": "16541", "types": ["postal_code"]}], "formatted_address": "109 University Square, Erie, PA 16541, USA", "geometry": {"location": {"lat": 42.1282445, "lng": -80.0865882}, "location_type": "ROOFTOP", "viewport": {"northeast": {"lat": 42.1295934802915, "lng": -80.08523921970848}, "southwest": {"lat": 42.1268955197085, "lng": -80.0879371802915}}}, "place_id": "ChIJSz0tyeR_LYgRv8REEd7E7Xg", "types": ["establishment", "point_of_interest", "university"]}]}, "65542365": {"AfN": "gardner webb university", "Location": [{"address_components": [{"long_name": "110", "short_name": "110", "types": ["street_number"]}, {"long_name": "South Main St", "short_name": "South Main St", "types": ["route"]}, {"long_name": "Boiling Springs", "short_name": "Boiling Springs", "types": ["locality", "political"]}, {"long_name": "2, Boiling Springs", "short_name": "2, Boiling Springs", "types": ["administrative_area_level_3", "political"]}, {"long_name": "Cleveland County", "short_name": "Cleveland County", "types": ["administrative_area_level_2", "political"]}, {"long_name": "North Carolina", "short_name": "NC", "types": ["administrative_area_level_1", "political"]}, {"long_name": "United States", "short_name": "US", "types": ["country", "political"]}, {"long_name": "28017", "short_name": "28017", "types": ["postal_code"]}], "formatted_address": "110 South Main St, Boiling Springs, NC 28017, USA", "geometry": {"location": {"lat": 35.24756300000001, "lng": -81.670737}, "location_type": "ROOFTOP", "viewport": {"northeast": {"lat": 35.24891198029151, "lng": -81.6693880197085}, "southwest": {"lat": 35.24621401970851, "lng": -81.67208598029151}}}, "place_id": "ChIJJRhWMDgYV4gRK0Xp_T10Ms8", "types": ["establishment", "library", "point_of_interest", "school", "university"]}, {"address_components": [{"long_name": "8030", "short_name": "8030", "types": ["street_number"]}, {"long_name": "Arrowridge Boulevard", "short_name": "Arrowridge Blvd", "types": ["route"]}, {"long_name": "Charlotte", "short_name": "Charlotte", "types": ["locality", "political"]}, {"long_name": "1, Charlotte", "short_name": "1, Charlotte", "types": ["administrative_area_level_3", "political"]}, {"long_name": "Mecklenburg County", "short_name": "Mecklenburg County", "types": ["administrative_area_level_2", "political"]}, {"long_name": "North Carolina", "short_name": "NC", "types": ["administrative_area_level_1", "political"]}, {"long_name": "United States", "short_name": "US", "types": ["country", "political"]}, {"long_name": "28273", "short_name": "28273", "types": ["postal_code"]}], "formatted_address": "8030 Arrowridge Blvd, Charlotte, NC 28273, USA", "geometry": {"location": {"lat": 35.1353129, "lng": -80.9088731}, "location_type": "ROOFTOP", "viewport": {"northeast": {"lat": 35.13666188029149, "lng": -80.9075241197085}, "southwest": {"lat": 35.1339639197085, "lng": -80.9102220802915}}}, "place_id": "ChIJ2cv42qGYVogRkbe_IbwAw1k", "types": ["establishment", "point_of_interest", "university"]}]}, "136750679": {"AfN": "garvan institute of medical research", "Location": [{"address_components": [{"long_name": "384", "short_name": "384", "types": ["street_number"]}, {"long_name": "Victoria Street", "short_name": "Victoria St", "types": ["route"]}, {"long_name": "Darlinghurst", "short_name": "Darlinghurst", "types": ["locality", "political"]}, {"long_name": "Council of the City of Sydney", "short_name": "Sydney", "types": ["administrative_area_level_2", "political"]}, {"long_name": "New South Wales", "short_name": "NSW", "types": ["administrative_area_level_1", "political"]}, {"long_name": "Australia", "short_name": "AU", "types": ["country", "political"]}, {"long_name": "2010", "short_name": "2010", "types": ["postal_code"]}], "formatted_address": "384 Victoria St, Darlinghurst NSW 2010, Australia", "geometry": {"location": {"lat": -33.8791267, "lng": 151.2214505}, "location_type": "ROOFTOP", "viewport": {"northeast": {"lat": -33.8777777197085, "lng": 151.2227994802915}, "southwest": {"lat": -33.8804756802915, "lng": 151.2201015197085}}}, "place_id": "ChIJQVif0RGuEmsRMuLWkO6ChME", "types": ["establishment", "point_of_interest"]}]}, "59058292": {"AfN": "gas technology institute", "Location": [{"address_components": [{"long_name": "1700", "short_name": "1700", "types": ["street_number"]}, {"long_name": "South Mount Prospect Road", "short_name": "S Mt Prospect Rd", "types": ["route"]}, {"long_name": "Des Plaines", "short_name": "Des Plaines", "types": ["locality", "political"]}, {"long_name": "Elk Grove Township", "short_name": "Elk Grove Township", "types": ["administrative_area_level_3", "political"]}, {"long_name": "Cook County", "short_name": "Cook County", "types": ["administrative_area_level_2", "political"]}, {"long_name": "Illinois", "short_name": "IL", "types": ["administrative_area_level_1", "political"]}, {"long_name": "United States", "short_name": "US", "types": ["country", "political"]}, {"long_name": "60018", "short_name": "60018", "types": ["postal_code"]}, {"long_name": "1804", "short_name": "1804", "types": ["postal_code_suffix"]}], "formatted_address": "1700 S Mt Prospect Rd, Des Plaines, IL 60018, USA", "geometry": {"location": {"lat": 42.02037079999999, "lng": -87.9213848}, "location_type": "ROOFTOP", "viewport": {"northeast": {"lat": 42.0217197802915, "lng": -87.92003581970849}, "southwest": {"lat": 42.0190218197085, "lng": -87.92273378029151}}}, "place_id": "ChIJeTeJR9i2D4gRQs5NnbpOi4s", "types": ["establishment", "point_of_interest"]}]}, "138537684": {"AfN": "gauhati university", "Location": [{"address_components": [{"long_name": "Guwahati", "short_name": "Guwahati", "types": ["locality", "political"]}, {"long_name": "Assam", "short_name": "AS", "types": ["administrative_area_level_1", "political"]}, {"long_name": "India", "short_name": "IN", "types": ["country", "political"]}], "formatted_address": "Jalukbari, Guwahati, Assam, India", "geometry": {"location": {"lat": 26.1546284, "lng": 91.66469889999999}, "location_type": "GEOMETRIC_CENTER", "viewport": {"northeast": {"lat": 26.1559773802915, "lng": 91.6660478802915}, "southwest": {"lat": 26.1532794197085, "lng": 91.6633499197085}}}, "place_id": "ChIJZyrxYsdEWjcREXZFAwVqOJU", "types": ["establishment", "point_of_interest", "university"]}, {"address_components": [{"long_name": "Guwahati", "short_name": "Guwahati", "types": ["locality", "political"]}, {"long_name": "Assam", "short_name": "AS", "types": ["administrative_area_level_1", "political"]}, {"long_name": "India", "short_name": "IN", "types": ["country", "political"]}, {"long_name": "781014", "short_name": "781014", "types": ["postal_code"]}], "formatted_address": "Gauhati University, Gopinath Bordoloi Nagar, Guwahati, Assam 781014, India", "geometry": {"location": {"lat": 26.1548598, "lng": 91.66396139999999}, "location_type": "GEOMETRIC_CENTER", "viewport": {"northeast": {"lat": 26.15620878029151, "lng": 91.6653103802915}, "southwest": {"lat": 26.1535108197085, "lng": 91.66261241970848}}}, "place_id": "ChIJYyyLYcZEWjcRD3BV1lUDowU", "types": ["establishment", "point_of_interest", "university"]}]}, "72769676": {"AfN": "gautam buddha university", "Location": [{"address_components": [{"long_name": "Greater Noida", "short_name": "Greater Noida", "types": ["locality", "political"]}, {"long_name": "Uttar Pradesh", "short_name": "UP", "types": ["administrative_area_level_1", "political"]}, {"long_name": "India", "short_name": "IN", "types": ["country", "political"]}, {"long_name": "201312", "short_name": "201312", "types": ["postal_code"]}], "formatted_address": "Yamuna Expressway Gautam Budh Nagar Near Pari Chowk, Greater Noida, Uttar Pradesh 201312, India", "geometry": {"location": {"lat": 28.4216627, "lng": 77.5254432}, "location_type": "GEOMETRIC_CENTER", "viewport": {"northeast": {"lat": 28.4230116802915, "lng": 77.52679218029151}, "southwest": {"lat": 28.4203137197085, "lng": 77.5240942197085}}}, "place_id": "ChIJje6rGPnADDkRsFRx3Z8Wcow", "types": ["establishment", "point_of_interest", "university"]}]}, "1313603282": {"AfN": "gavi alliance", "Location": [{"address_components": [{"long_name": "Suite 200", "short_name": "Suite 200", "types": ["subpremise"]}, {"long_name": "2099", "short_name": "2099", "types": ["street_number"]}, {"long_name": "Pennsylvania Avenue Northwest", "short_name": "Pennsylvania Ave NW", "types": ["route"]}, {"long_name": "Downtown", "short_name": "Downtown", "types": ["neighborhood", "political"]}, {"long_name": "Washington", "short_name": "Washington", "types": ["locality", "political"]}, {"long_name": "District of Columbia", "short_name": "DC", "types": ["administrative_area_level_1", "political"]}, {"long_name": "United States", "short_name": "US", "types": ["country", "political"]}, {"long_name": "20006", "short_name": "20006", "types": ["postal_code"]}], "formatted_address": "2099 Pennsylvania Ave NW Suite 200, Washington, DC 20006, USA", "geometry": {"location": {"lat": 38.9016738, "lng": -77.046247}, "location_type": "ROOFTOP", "viewport": {"northeast": {"lat": 38.9030227802915, "lng": -77.0448980197085}, "southwest": {"lat": 38.9003248197085, "lng": -77.0475959802915}}}, "place_id": "ChIJjyGPt7C3t4kRfyCnpDcvCAg", "types": ["establishment", "point_of_interest"]}, {"address_components": [{"long_name": "#200", "short_name": "#200", "types": ["subpremise"]}, {"long_name": "2099", "short_name": "2099", "types": ["street_number"]}, {"long_name": "Pennsylvania Avenue Northwest", "short_name": "Pennsylvania Ave NW", "types": ["route"]}, {"long_name": "Downtown", "short_name": "Downtown", "types": ["neighborhood", "political"]}, {"long_name": "Washington", "short_name": "Washington", "types": ["locality", "political"]}, {"long_name": "District of Columbia", "short_name": "DC", "types": ["administrative_area_level_1", "political"]}, {"long_name": "United States", "short_name": "US", "types": ["country", "political"]}, {"long_name": "20006", "short_name": "20006", "types": ["postal_code"]}], "formatted_address": "2099 Pennsylvania Ave NW #200, Washington, DC 20006, USA", "geometry": {"location": {"lat": 38.9009077, "lng": -77.0413166}, "location_type": "ROOFTOP", "viewport": {"northeast": {"lat": 38.9022566802915, "lng": -77.0399676197085}, "southwest": {"lat": 38.8995587197085, "lng": -77.04266558029151}}}, "place_id": "ChIJnUGH47i3t4kRfuY-M4gf97s", "types": ["establishment", "point_of_interest"]}]}, "197872832": {"AfN": "gayatri vidya parishad college of engineering", "Location": [{"address_components": [{"long_name": "Visakhapatnam", "short_name": "Visakhapatnam", "types": ["locality", "political"]}, {"long_name": "Andhra Pradesh", "short_name": "AP", "types": ["administrative_area_level_1", "political"]}, {"long_name": "India", "short_name": "IN", "types": ["country", "political"]}, {"long_name": "530048", "short_name": "530048", "types": ["postal_code"]}], "formatted_address": "Madhurawada, Visakhapatnam, Andhra Pradesh 530048, India", "geometry": {"location": {"lat": 17.8205239, "lng": 83.3423428}, "location_type": "GEOMETRIC_CENTER", "viewport": {"northeast": {"lat": 17.8218728802915, "lng": 83.34369178029151}, "southwest": {"lat": 17.8191749197085, "lng": 83.3409938197085}}}, "place_id": "ChIJA7bvx-1bOToRKpBOtapswIc", "types": ["establishment", "point_of_interest", "university"]}]}, "95634034": {"AfN": "gazi university", "Location": [{"address_components": [{"long_name": "Gazi \u00dcniversitesi Rekt\u00f6rl\u00fc\u011f\u00fc Teknik okullar\u0131", "short_name": "Gazi \u00dcniversitesi Rekt\u00f6rl\u00fc\u011f\u00fc Teknik okullar\u0131", "types": ["premise"]}, {"long_name": "Emniyet mah", "short_name": "Emniyet mah", "types": ["administrative_area_level_4", "political"]}, {"long_name": "Yenimahalle", "short_name": "Yenimahalle", "types": ["administrative_area_level_3", "political"]},