{"150638750": {"AfN": "keene state college", "Location": [{"address_components": [{"long_name": "229", "short_name": "229", "types": ["street_number"]}, {"long_name": "Main Street", "short_name": "Main St", "types": ["route"]}, {"long_name": "Keene", "short_name": "Keene", "types": ["locality", "political"]}, {"long_name": "Cheshire County", "short_name": "Cheshire County", "types": ["administrative_area_level_2", "political"]}, {"long_name": "New Hampshire", "short_name": "NH", "types": ["administrative_area_level_1", "political"]}, {"long_name": "United States", "short_name": "US", "types": ["country", "political"]}, {"long_name": "03435", "short_name": "03435", "types": ["postal_code"]}], "formatted_address": "229 Main St, Keene, NH 03435, USA", "geometry": {"location": {"lat": 42.9249987, "lng": -72.2822698}, "location_type": "ROOFTOP", "viewport": {"northeast": {"lat": 42.9263476802915, "lng": -72.28092081970848}, "southwest": {"lat": 42.9236497197085, "lng": -72.2836187802915}}}, "place_id": "ChIJr1MdfINz4YkRk43BDi9heK4", "types": ["establishment", "point_of_interest", "university"]}]}, "138492692": {"AfN": "keil", "Location": [{"address_components": [{"long_name": "4965", "short_name": "4965", "types": ["street_number"]}, {"long_name": "Preston Park Boulevard", "short_name": "Preston Park Blvd", "types": ["route"]}, {"long_name": "Plano", "short_name": "Plano", "types": ["locality", "political"]}, {"long_name": "Collin County", "short_name": "Collin County", "types": ["administrative_area_level_2", "political"]}, {"long_name": "Texas", "short_name": "TX", "types": ["administrative_area_level_1", "political"]}, {"long_name": "United States", "short_name": "US", "types": ["country", "political"]}, {"long_name": "75093", "short_name": "75093", "types": ["postal_code"]}], "formatted_address": "4965 Preston Park Blvd, Plano, TX 75093, USA", "geometry": {"location": {"lat": 33.0236597, "lng": -96.7934815}, "location_type": "ROOFTOP", "viewport": {"northeast": {"lat": 33.02500868029149, "lng": -96.79213251970849}, "southwest": {"lat": 33.02231071970849, "lng": -96.79483048029151}}}, "place_id": "ChIJxxOTGBYZTIYRFiXpPmCwN74", "types": ["establishment", "point_of_interest"]}]}, "52010207": {"AfN": "keimyung university", "Location": [{"address_components": [{"long_name": "Dalgubeol-daero", "short_name": "Dalgubeol-daero", "types": ["political", "sublocality", "sublocality_level_4"]}, {"long_name": "Dalseo-gu", "short_name": "Dalseo-gu", "types": ["political", "sublocality", "sublocality_level_1"]}, {"long_name": "Daegu", "short_name": "Daegu", "types": ["locality", "political"]}, {"long_name": "South Korea", "short_name": "KR", "types": ["country", "political"]}], "formatted_address": "South Korea, Daegu, Dalseo-gu, Dalgubeol-daero, 1095", "geometry": {"location": {"lat": 35.8550525, "lng": 128.4871269}, "location_type": "ROOFTOP", "viewport": {"northeast": {"lat": 35.8564014802915, "lng": 128.4884758802915}, "southwest": {"lat": 35.8537035197085, "lng": 128.4857779197085}}}, "place_id": "ChIJX8OO-VflZTURkGPFe5kjTB8", "types": ["establishment", "point_of_interest", "university"]}]}, "203951103": {"AfN": "keio university", "Location": [{"address_components": [{"long_name": "45", "short_name": "45", "types": ["premise"]}, {"long_name": "15", "short_name": "15", "types": ["political", "sublocality", "sublocality_level_4"]}, {"long_name": "2 Chome", "short_name": "2 Chome", "types": ["political", "sublocality", "sublocality_level_3"]}, {"long_name": "Mita", "short_name": "Mita", "types": ["political", "sublocality", "sublocality_level_2"]}, {"long_name": "Minato-ku", "short_name": "Minato-ku", "types": ["locality", "political"]}, {"long_name": "T\u014dky\u014d-to", "short_name": "T\u014dky\u014d-to", "types": ["administrative_area_level_1", "political"]}, {"long_name": "Japan", "short_name": "JP", "types": ["country", "political"]}, {"long_name": "108-8345", "short_name": "108-8345", "types": ["postal_code"]}], "formatted_address": "2 Chome-15-45 Mita, Minato-ku, T\u014dky\u014d-to 108-8345, Japan", "geometry": {"location": {"lat": 35.6489643, "lng": 139.7429376}, "location_type": "ROOFTOP", "viewport": {"northeast": {"lat": 35.65031328029149, "lng": 139.7442865802915}, "southwest": {"lat": 35.6476153197085, "lng": 139.7415886197085}}}, "place_id": "ChIJ7yKvGbCLGGAR1KkFTei78V0", "types": ["establishment", "point_of_interest", "university"]}]}, "138728355": {"AfN": "kek", "Location": []}, "86427540": {"AfN": "keldysh institute of applied mathematics", "Location": [{"address_components": [{"long_name": "4", "short_name": "4", "types": ["street_number"]}, {"long_name": "Miusskaya Ploshchad'", "short_name": "Miusskaya Ploshchad'", "types": ["route"]}, {"long_name": "Tsentralnyy administrativnyy okrug", "short_name": "Tsentralnyy administrativnyy okrug", "types": ["political", "sublocality", "sublocality_level_1"]}, {"long_name": "Moskva", "short_name": "Moskva", "types": ["locality", "political"]}, {"long_name": "Moskva", "short_name": "Moskva", "types": ["administrative_area_level_2", "political"]}, {"long_name": "Russia", "short_name": "RU", "types": ["country", "political"]}, {"long_name": "125047", "short_name": "125047", "types": ["postal_code"]}], "formatted_address": "Miusskaya Ploshchad', 4, Moskva, Russia, 125047", "geometry": {"location": {"lat": 55.7762288, "lng": 37.59445770000001}, "location_type": "ROOFTOP", "viewport": {"northeast": {"lat": 55.7775777802915, "lng": 37.59580668029151}, "southwest": {"lat": 55.7748798197085, "lng": 37.59310871970851}}}, "place_id": "ChIJ0Z3upyJKtUYRWEr1xnGcyBs", "types": ["establishment", "point_of_interest"]}]}, "155617960": {"AfN": "kema", "Location": [{"address_components": [{"long_name": "321", "short_name": "321", "types": ["street_number"]}, {"long_name": "East 10th Avenue", "short_name": "E 10th Ave", "types": ["route"]}, {"long_name": "Winfield", "short_name": "Winfield", "types": ["locality", "political"]}, {"long_name": "Cowley County", "short_name": "Cowley County", "types": ["administrative_area_level_2", "political"]}, {"long_name": "Kansas", "short_name": "KS", "types": ["administrative_area_level_1", "political"]}, {"long_name": "United States", "short_name": "US", "types": ["country", "political"]}, {"long_name": "67156", "short_name": "67156", "types": ["postal_code"]}, {"long_name": "3612", "short_name": "3612", "types": ["postal_code_suffix"]}], "formatted_address": "321 E 10th Ave, Winfield, KS 67156, USA", "geometry": {"location": {"lat": 37.239036, "lng": -96.99391999999999}, "location_type": "ROOFTOP", "viewport": {"northeast": {"lat": 37.24038498029149, "lng": -96.99257101970848}, "southwest": {"lat": 37.2376870197085, "lng": -96.9952689802915}}}, "place_id": "ChIJY3gzSGh7uocRWdCB-LZ-CEw", "types": ["establishment", "point_of_interest"]}]}, "52135307": {"AfN": "kemerovo state university", "Location": [{"address_components": [{"long_name": "6", "short_name": "6", "types": ["street_number"]}, {"long_name": "Krasnaya Ulitsa", "short_name": "Krasnaya Ulitsa", "types": ["route"]}, {"long_name": "Kemerovo", "short_name": "Kemerovo", "types": ["locality", "political"]}, {"long_name": "Gorod Kemerovo", "short_name": "Gorod Kemerovo", "types": ["administrative_area_level_2", "political"]}, {"long_name": "Kemerovskaya oblast'", "short_name": "Kemerovskaya oblast'", "types": ["administrative_area_level_1", "political"]}, {"long_name": "Russia", "short_name": "RU", "types": ["country", "political"]}, {"long_name": "650000", "short_name": "650000", "types": ["postal_code"]}], "formatted_address": "Krasnaya Ulitsa, 6, Kemerovo, Kemerovskaya oblast', Russia, 650000", "geometry": {"location": {"lat": 55.3516728, "lng": 86.0916276}, "location_type": "ROOFTOP", "viewport": {"northeast": {"lat": 55.35302178029149, "lng": 86.0929765802915}, "southwest": {"lat": 55.3503238197085, "lng": 86.09027861970849}}}, "place_id": "ChIJKWt6gVcJ2EIRiWEwtosTU3I", "types": ["establishment", "point_of_interest"]}]}, "88513073": {"AfN": "kennametal", "Location": [{"address_components": [{"long_name": "205", "short_name": "205", "types": ["street_number"]}, {"long_name": "North 13th Street", "short_name": "N 13th St", "types": ["route"]}, {"long_name": "Rogers", "short_name": "Rogers", "types": ["locality", "political"]}, {"long_name": "Township 5", "short_name": "Township 5", "types": ["administrative_area_level_3", "political"]}, {"long_name": "Benton County", "short_name": "Benton County", "types": ["administrative_area_level_2", "political"]}, {"long_name": "Arkansas", "short_name": "AR", "types": ["administrative_area_level_1", "political"]}, {"long_name": "United States", "short_name": "US", "types": ["country", "political"]}, {"long_name": "72756", "short_name": "72756", "types": ["postal_code"]}, {"long_name": "3551", "short_name": "3551", "types": ["postal_code_suffix"]}], "formatted_address": "205 N 13th St, Rogers, AR 72756, USA", "geometry": {"location": {"lat": 36.3356868, "lng": -94.13400569999999}, "location_type": "ROOFTOP", "viewport": {"northeast": {"lat": 36.33703578029149, "lng": -94.13265671970849}, "southwest": {"lat": 36.33433781970849, "lng": -94.1353546802915}}}, "place_id": "ChIJdysSmT0XyYcR3zUMAMiaHT8", "types": ["establishment", "point_of_interest"]}]}, "1298154867": {"AfN": "kennedy krieger institute", "Location": [{"address_components": [{"long_name": "707", "short_name": "707", "types": ["street_number"]}, {"long_name": "North Broadway", "short_name": "N Broadway", "types": ["route"]}, {"long_name": "Middle East", "short_name": "Middle East", "types": ["neighborhood", "political"]}, {"long_name": "Baltimore", "short_name": "Baltimore", "types": ["locality", "political"]}, {"long_name": "Maryland", "short_name": "MD", "types": ["administrative_area_level_1", "political"]}, {"long_name": "United States", "short_name": "US", "types": ["country", "political"]}, {"long_name": "21205", "short_name": "21205", "types": ["postal_code"]}], "formatted_address": "707 N Broadway, Baltimore, MD 21205, USA", "geometry": {"location": {"lat": 39.2986593, "lng": -76.5940475}, "location_type": "ROOFTOP", "viewport": {"northeast": {"lat": 39.30000828029151, "lng": -76.5926985197085}, "southwest": {"lat": 39.29731031970851, "lng": -76.59539648029151}}}, "place_id": "ChIJ0ZYTZGIEyIkR7Y6XnaJVENQ", "types": ["establishment", "hospital", "point_of_interest"]}]}, "172980758": {"AfN": "kennesaw state university", "Location": [{"address_components": [{"long_name": "1000", "short_name": "1000", "types": ["street_number"]}, {"long_name": "Chastain Road", "short_name": "Chastain Road", "types": ["route"]}, {"long_name": "Town Center", "short_name": "Town Center", "types": ["neighborhood", "political"]}, {"long_name": "Kennesaw", "short_name": "Kennesaw", "types": ["locality", "political"]}, {"long_name": "Cobb County", "short_name": "Cobb County", "types": ["administrative_area_level_2", "political"]}, {"long_name": "Georgia", "short_name": "GA", "types": ["administrative_area_level_1", "political"]}, {"long_name": "United States", "short_name": "US", "types": ["country", "political"]}, {"long_name": "30144", "short_name": "30144", "types": ["postal_code"]}], "formatted_address": "1000 Chastain Road, Kennesaw, GA 30144, USA", "geometry": {"location": {"lat": 34.0380784, "lng": -84.5815717}, "location_type": "ROOFTOP", "viewport": {"northeast": {"lat": 34.03942738029149, "lng": -84.58022271970849}, "southwest": {"lat": 34.03672941970849, "lng": -84.5829206802915}}}, "place_id": "ChIJU-VAr9Jq9YgR0MgJ0smjln8", "types": ["establishment", "point_of_interest", "university"]}]}, "131760581": {"AfN": "kenneth s warren institute", "Location": []}, "149910238": {"AfN": "kent state university", "Location": [{"address_components": [{"long_name": "800", "short_name": "800", "types": ["street_number"]}, {"long_name": "East Summit Street", "short_name": "E Summit St", "types": ["route"]}, {"long_name": "Kent", "short_name": "Kent", "types": ["locality", "political"]}, {"long_name": "Portage County", "short_name": "Portage County", "types": ["administrative_area_level_2", "political"]}, {"long_name": "Ohio", "short_name": "OH", "types": ["administrative_area_level_1", "political"]}, {"long_name": "United States", "short_name": "US", "types": ["country", "political"]}, {"long_name": "44240", "short_name": "44240", "types": ["postal_code"]}], "formatted_address": "800 E Summit St, Kent, OH 44240, USA", "geometry": {"location": {"lat": 41.1490629, "lng": -81.34146489999999}, "location_type": "ROOFTOP", "viewport": {"northeast": {"lat": 41.15041188029149, "lng": -81.3401159197085}, "southwest": {"lat": 41.1477139197085, "lng": -81.3428138802915}}}, "place_id": "ChIJeWbarto6MYgRM8S8HJDz2d0", "types": ["establishment", "point_of_interest", "university"]}]}, "76083645": {"AfN": "kent state university at ashtabula", "Location": [{"address_components": [{"long_name": "3300", "short_name": "3300", "types": ["street_number"]}, {"long_name": "Lake Road West", "short_name": "Lake Rd W", "types": ["route"]}, {"long_name": "Ashtabula", "short_name": "Ashtabula", "types": ["locality", "political"]}, {"long_name": "Saybrook Township", "short_name": "Saybrook Township", "types": ["administrative_area_level_3", "political"]}, {"long_name": "Ashtabula County", "short_name": "Ashtabula County", "types": ["administrative_area_level_2", "political"]}, {"long_name": "Ohio", "short_name": "OH", "types": ["administrative_area_level_1", "political"]}, {"long_name": "United States", "short_name": "US", "types": ["country", "political"]}, {"long_name": "44004", "short_name": "44004", "types": ["postal_code"]}], "formatted_address": "3300 Lake Rd W, Ashtabula, OH 44004, USA", "geometry": {"location": {"lat": 41.8889063, "lng": -80.8310776}, "location_type": "ROOFTOP", "viewport": {"northeast": {"lat": 41.8902552802915, "lng": -80.8297286197085}, "southwest": {"lat": 41.8875573197085, "lng": -80.83242658029151}}}, "place_id": "ChIJAdUaqmr1MYgR4uf04GiDzP0", "types": ["establishment", "point_of_interest", "university"]}]}, "1341385179": {"AfN": "kentucky baptist convention", "Location": [{"address_components": [{"long_name": "13420", "short_name": "13420", "types": ["street_number"]}, {"long_name": "Eastpoint Centre Drive", "short_name": "Eastpoint Centre Dr", "types": ["route"]}, {"long_name": "Louisville", "short_name": "Louisville", "types": ["locality", "political"]}, {"long_name": "Kentucky", "short_name": "KY", "types": ["administrative_area_level_1", "political"]}, {"long_name": "United States", "short_name": "US", "types": ["country", "political"]}, {"long_name": "40223", "short_name": "40223", "types": ["postal_code"]}], "formatted_address": "4160, 13420 Eastpoint Centre Dr, Louisville, KY 40223, United States", "geometry": {"location": {"lat": 38.281203, "lng": -85.51006799999999}, "location_type": "ROOFTOP", "viewport": {"northeast": {"lat": 38.28255198029149, "lng": -85.50871901970848}, "southwest": {"lat": 38.27985401970849, "lng": -85.5114169802915}}}, "place_id": "ChIJY6RqnS-ZaYgRq4wSnOOIfcE", "types": ["establishment", "point_of_interest"]}, {"address_components": [{"long_name": "890", "short_name": "890", "types": ["street_number"]}, {"long_name": "Kentucky 58", "short_name": "KY-58", "types": ["route"]}, {"long_name": "Clinton", "short_name": "Clinton", "types": ["locality", "political"]}, {"long_name": "Hickman County", "short_name": "Hickman County", "types": ["administrative_area_level_2", "political"]}, {"long_name": "Kentucky", "short_name": "KY", "types": ["administrative_area_level_1", "political"]}, {"long_name": "United States", "short_name": "US", "types": ["country", "political"]}, {"long_name": "42031", "short_name": "42031", "types": ["postal_code"]}, {"long_name": "9431", "short_name": "9431", "types": ["postal_code_suffix"]}], "formatted_address": "890 KY-58, Clinton, KY 42031, USA", "geometry": {"location": {"lat": 36.673931, "lng": -89.01151949999999}, "location_type": "ROOFTOP", "viewport": {"northeast": {"lat": 36.6752799802915, "lng": -89.01017051970848}, "southwest": {"lat": 36.6725820197085, "lng": -89.01286848029149}}}, "place_id": "ChIJgZH7DRmceYgRPZhz1mU9Fek", "types": ["establishment", "point_of_interest"]}]}, "331828249": {"AfN": "kentucky christian university", "Location": [{"address_components": [{"long_name": "100", "short_name": "100", "types": ["street_number"]}, {"long_name": "Academic Parkway", "short_name": "Academic Pkwy", "types": ["route"]}, {"long_name": "Grayson", "short_name": "Grayson", "types": ["locality", "political"]}, {"long_name": "Carter County", "short_name": "Carter County", "types": ["administrative_area_level_2", "political"]}, {"long_name": "Kentucky", "short_name": "KY", "types": ["administrative_area_level_1", "political"]}, {"long_name": "United States", "short_name": "US", "types": ["country", "political"]}, {"long_name": "41143", "short_name": "41143", "types": ["postal_code"]}], "formatted_address": "100 Academic Pkwy, Grayson, KY 41143, USA", "geometry": {"location": {"lat": 38.3410097, "lng": -82.9473853}, "location_type": "ROOFTOP", "viewport": {"northeast": {"lat": 38.3423586802915, "lng": -82.94603631970848}, "southwest": {"lat": 38.3396607197085, "lng": -82.94873428029149}}}, "place_id": "ChIJG10C3IssRIgR5d4RSI0fbuk", "types": ["establishment", "point_of_interest", "university"]}]}, "88447708": {"AfN": "kentucky state university", "Location": [{"address_components": [{"long_name": "400", "short_name": "400", "types": ["street_number"]}, {"long_name": "E Main St", "short_name": "E Main St", "types": ["route"]}, {"long_name": "Frankfort", "short_name": "Frankfort", "types": ["locality", "political"]}, {"long_name": "Franklin County", "short_name": "Franklin County", "types": ["administrative_area_level_2", "political"]}, {"long_name": "Kentucky", "short_name": "KY", "types": ["administrative_area_level_1", "political"]}, {"long_name": "United States", "short_name": "US", "types": ["country", "political"]}, {"long_name": "40601", "short_name": "40601", "types": ["postal_code"]}], "formatted_address": "400 E Main St, Frankfort, KY 40601, USA", "geometry": {"location": {"lat": 38.20025770000001, "lng": -84.8558314}, "location_type": "ROOFTOP", "viewport": {"northeast": {"lat": 38.20160668029151, "lng": -84.85448241970849}, "southwest": {"lat": 38.19890871970851, "lng": -84.8571803802915}}}, "place_id": "ChIJ2crF9lVzQogRejS2jpyYsiI", "types": ["establishment", "point_of_interest", "university"]}]}, "2841861": {"AfN": "kenya medical research institute", "Location": [{"address_components": [{"long_name": "# 902", "short_name": "# 902", "types": ["subpremise"]}, {"long_name": "6110", "short_name": "6110", "types": ["street_number"]}, {"long_name": "Executive Boulevard", "short_name": "Executive Blvd", "types": ["route"]}, {"long_name": "Rockville", "short_name": "Rockville", "types": ["locality", "political"]}, {"long_name": "4", "short_name": "4", "types": ["administrative_area_level_3", "political"]}, {"long_name": "Montgomery County", "short_name": "Montgomery County", "types": ["administrative_area_level_2", "political"]}, {"long_name": "Maryland", "short_name": "MD", "types": ["administrative_area_level_1", "political"]}, {"long_name": "United States", "short_name": "US", "types": ["country", "political"]}, {"long_name": "20852", "short_name": "20852", "types": ["postal_code"]}, {"long_name": "3926", "short_name": "3926", "types": ["postal_code_suffix"]}], "formatted_address": "6110 Executive Blvd # 902, Rockville, MD 20852, USA", "geometry": {"location": {"lat": 39.0474745, "lng": -77.1249903}, "location_type": "ROOFTOP", "viewport": {"northeast": {"lat": 39.0488234802915, "lng": -77.12364131970848}, "southwest": {"lat": 39.0461255197085, "lng": -77.1263392802915}}}, "place_id": "ChIJ3wpXejjMt4kRqHXfo-HhNWw", "types": ["establishment", "health", "point_of_interest"]}]}, "153975220": {"AfN": "kenyatta university", "Location": [{"address_components": [{"long_name": "Kenya Drive", "short_name": "Kenya Drive", "types": ["route"]}, {"long_name": "Kahawa North", "short_name": "Kahawa North", "types": ["political", "sublocality", "sublocality_level_1"]}, {"long_name": "Nairobi City", "short_name": "Nairobi City", "types": ["locality", "political"]}, {"long_name": "Kiambu County", "short_name": "Kiambu County", "types": ["administrative_area_level_1", "political"]}, {"long_name": "Kenya", "short_name": "KE", "types": ["country", "political"]}], "formatted_address": "Kenya Drive, Nairobi City, Kenya", "geometry": {"location": {"lat": -1.1766989, "lng": 36.9364858}, "location_type": "GEOMETRIC_CENTER", "viewport": {"northeast": {"lat": -1.175349919708498, "lng": 36.9378347802915}, "southwest": {"lat": -1.178047880291502, "lng": 36.9351368197085}}}, "place_id": "ChIJWy35jG0_LxgRf9ufvwHZi74", "types": ["establishment", "point_of_interest", "university"]}]}, "166972335": {"AfN": "kenyon college", "Location": [{"address_components": [{"long_name": "103", "short_name": "103", "types": ["street_number"]}, {"long_name": "College Road", "short_name": "College Rd", "types": ["route"]}, {"long_name": "Gambier", "short_name": "Gambier", "types": ["locality", "political"]}, {"long_name": "College Township", "short_name": "College Township", "types": ["administrative_area_level_3", "political"]}, {"long_name": "Knox County", "short_name": "Knox County", "types": ["administrative_area_level_2", "political"]}, {"long_name": "Ohio", "short_name": "OH", "types": ["administrative_area_level_1", "political"]}, {"long_name": "United States", "short_name": "US", "types": ["country", "political"]}, {"long_name": "43022", "short_name": "43022", "types": ["postal_code"]}], "formatted_address": "103 College Rd, Gambier, OH 43022, USA", "geometry": {"location": {"lat": 40.3718965, "lng": -82.39830789999999}, "location_type": "ROOFTOP", "viewport": {"northeast": {"lat": 40.3732454802915, "lng": -82.39695891970848}, "southwest": {"lat": 40.3705475197085, "lng": -82.3996568802915}}}, "place_id": "ChIJa8WBbK8yOIgR727Dq4IcsTw", "types": ["establishment", "point_of_interest", "university"]}]}, "36106150": {"AfN": "kerr mcgee", "Location": [{"address_components": [{"long_name": "100", "short_name": "100", "types": ["street_number"]}, {"long_name": "West California Avenue", "short_name": "W California Ave", "types": ["route"]}, {"long_name": "Ridgecrest", "short_name": "Ridgecrest", "types": ["locality", "political"]}, {"long_name": "Kern County", "short_name": "Kern County", "types": ["administrative_area_level_2", "political"]}, {"long_name": "California", "short_name": "CA", "types": ["administrative_area_level_1", "political"]}, {"long_name": "United States", "short_name": "US", "types": ["country", "political"]}, {"long_name": "93555", "short_name": "93555", "types": ["postal_code"]}, {"long_name": "4054", "short_name": "4054", "types": ["postal_code_suffix"]}], "formatted_address": "100 W California Ave, Ridgecrest, CA 93555, USA", "geometry": {"location": {"lat": 35.6201547, "lng": -117.6723182}, "location_type": "ROOFTOP", "viewport": {"northeast": {"lat": 35.6215036802915, "lng": -117.6709692197085}, "southwest": {"lat": 35.6188057197085, "lng": -117.6736671802915}}}, "place_id": "ChIJvc8r2MZswYARYL94V_hFwU0", "types": ["establishment", "point_of_interest"]}]}, "250153783": {"AfN": "kessler foundation", "Location": [{"address_components": [{"long_name": "120", "short_name": "120", "types": ["street_number"]}, {"long_name": "Eagle Rock Avenue", "short_name": "Eagle Rock Ave", "types": ["route"]}, {"long_name": "East Hanover", "short_name": "East Hanover", "types": ["locality", "political"]}, {"long_name": "Morris County", "short_name": "Morris County", "types": ["administrative_area_level_2", "political"]}, {"long_name": "New Jersey", "short_name": "NJ", "types": ["administrative_area_level_1", "political"]}, {"long_name": "United States", "short_name": "US", "types": ["country", "political"]}, {"long_name": "07936", "short_name": "07936", "types": ["postal_code"]}], "formatted_address": "120 Eagle Rock Ave, East Hanover, NJ 07936, USA", "geometry": {"location": {"lat": 40.830291, "lng": -74.33576099999999}, "location_type": "ROOFTOP", "viewport": {"northeast": {"lat": 40.8316399802915, "lng": -74.33441201970848}, "southwest": {"lat": 40.8289420197085, "lng": -74.33710998029149}}}, "place_id": "ChIJcT6zXP6qw4kRMcvZxbbS3uk", "types": ["establishment", "point_of_interest"]}]}, "293380024": {"AfN": "kettering health network", "Location": [{"address_components": [{"long_name": "75", "short_name": "75", "types": ["street_number"]}, {"long_name": "Weller Drive", "short_name": "Weller Dr", "types": ["route"]}, {"long_name": "Tipp City", "short_name": "Tipp City", "types": ["locality", "political"]}, {"long_name": "Monroe Township", "short_name": "Monroe Township", "types": ["administrative_area_level_3", "political"]}, {"long_name": "Miami County", "short_name": "Miami County", "types": ["administrative_area_level_2", "political"]}, {"long_name": "Ohio", "short_name": "OH", "types": ["administrative_area_level_1", "political"]}, {"long_name": "United States", "short_name": "US", "types": ["country", "political"]}, {"long_name": "45371", "short_name": "45371", "types": ["postal_code"]}, {"long_name": "3321", "short_name": "3321", "types": ["postal_code_suffix"]}], "formatted_address": "75 Weller Dr, Tipp City, OH 45371, USA", "geometry": {"location": {"lat": 39.9661248, "lng": -84.19046809999999}, "location_type": "ROOFTOP", "viewport": {"northeast": {"lat": 39.96747378029149, "lng": -84.1891191197085}, "southwest": {"lat": 39.96477581970849, "lng": -84.1918170802915}}}, "place_id": "ChIJz80YhYZ5P4gR6Ws3Ihg7XQQ", "types": ["doctor", "establishment", "health", "point_of_interest"]}]}, "39965400": {"AfN": "kettering university", "Location": [{"address_components": [{"long_name": "1700", "short_name": "1700", "types": ["street_number"]}, {"long_name": "University Avenue", "short_name": "University Ave", "types": ["route"]}, {"long_name": "Flint", "short_name": "Flint", "types": ["locality", "political"]}, {"long_name": "Genesee County", "short_name": "Genesee County", "types": ["administrative_area_level_2", "political"]}, {"long_name": "Michigan", "short_name": "MI", "types": ["administrative_area_level_1", "political"]}, {"long_name": "United States", "short_name": "US", "types": ["country", "political"]}, {"long_name": "48504", "short_name": "48504", "types": ["postal_code"]}], "formatted_address": "1700 University Ave, Flint, MI 48504, USA", "geometry": {"location": {"lat": 43.0115468, "lng": -83.7138531}, "location_type": "ROOFTOP", "viewport": {"northeast": {"lat": 43.01289578029149, "lng": -83.7125041197085}, "southwest": {"lat": 43.0101978197085, "lng": -83.7152020802915}}}, "place_id": "ChIJLx7Nx2SCI4gRzW8R94I3pEw", "types": ["establishment", "point_of_interest", "university"]}]}, "31518983": {"AfN": "keuka college", "Location": [{"address_components": [{"long_name": "141", "short_name": "141", "types": ["street_number"]}, {"long_name": "Central Avenue", "short_name": "Central Ave", "types": ["route"]}, {"long_name": "Keuka Park", "short_name": "Keuka Park", "types": ["locality", "political"]}, {"long_name": "Jerusalem", "short_name": "Jerusalem", "types": ["administrative_area_level_3", "political"]}, {"long_name": "Yates County", "short_name": "Yates County", "types": ["administrative_area_level_2", "political"]}, {"long_name": "New York", "short_name": "NY", "types": ["administrative_area_level_1", "political"]}, {"long_name": "United States", "short_name": "US", "types": ["country", "political"]}, {"long_name": "14478", "short_name": "14478", "types": ["postal_code"]}], "formatted_address": "141 Central Ave, Keuka Park, NY 14478, USA", "geometry": {"location": {"lat": 42.6151505, "lng": -77.09054139999999}, "location_type": "ROOFTOP", "viewport": {"northeast": {"lat": 42.61649948029149, "lng": -77.08919241970848}, "southwest": {"lat": 42.6138015197085, "lng": -77.0918903802915}}}, "place_id": "ChIJETGLx6Lk0IkRVc9LV2xDPAM", "types": ["establishment", "point_of_interest", "university"]}]}, "88621556": {"AfN": "keystone college", "Location": [{"address_components": [{"long_name": "1", "short_name": "1", "types": ["street_number"]}, {"long_name": "College Road", "short_name": "College Rd", "types": ["route"]}, {"long_name": "La Plume", "short_name": "La Plume", "types": ["locality", "political"]}, {"long_name": "Wyoming County", "short_name": "Wyoming County", "types": ["administrative_area_level_2", "political"]}, {"long_name": "Pennsylvania", "short_name": "PA", "types": ["administrative_area_level_1", "political"]}, {"long_name": "United States", "short_name": "US", "types": ["country", "political"]}, {"long_name": "18440", "short_name": "18440", "types": ["postal_code"]}], "formatted_address": "1 College Rd, La Plume, PA 18440, USA", "geometry": {"location": {"lat": 41.5590236, "lng": -75.7774203}, "location_type": "ROOFTOP", "viewport": {"northeast": {"lat": 41.56037258029149, "lng": -75.77607131970849}, "southwest": {"lat": 41.55767461970849, "lng": -75.77876928029151}}}, "place_id": "ChIJ16FGHqQpxYkRBcOafzfogDI", "types": ["establishment", "point_of_interest", "university"]}]}, "176601375": {"AfN": "khalifa university", "Location": [{"address_components": [{"long_name": "Abu Dhabi", "short_name": "Abu Dhabi", "types": ["administrative_area_level_1", "political"]}, {"long_name": "United Arab Emirates", "short_name": "AE", "types": ["country", "political"]}], "formatted_address": "Al Zafranah - Abu Dhabi - United Arab Emirates", "geometry": {"location": {"lat": 24.4473236, "lng": 54.3949236}, "location_type": "GEOMETRIC_CENTER", "viewport": {"northeast": {"lat": 24.4486725802915, "lng": 54.3962725802915}, "southwest": {"lat": 24.44597461970849, "lng": 54.3935746197085}}}, "place_id": "ChIJIxvDIGFoXj4RLhT6ny7fJV0", "types": ["establishment", "point_of_interest", "university"]}]}, "181744264": {"AfN": "kharazmi university", "Location": [{"address_components": [{"long_name": "Tehran", "short_name": "Tehran", "types": ["locality", "political"]}, {"long_name": "Tehran Province", "short_name": "Tehran Province", "types": ["administrative_area_level_1", "political"]}, {"long_name": "Iran", "short_name": "IR", "types": ["country", "political"]}], "formatted_address": "Tehran Province, Tehran, \u062e\u06cc\u0627\u0628\u0627\u0646 \u0627\u0646\u0642\u0644\u0627\u0628\u060c \u062e\u06cc\u0627\u0628\u0627\u0646 \u0645\u0641\u062a\u062d \u062c\u0646\u0648\u0628\u06cc\u060c Iran", "geometry": {"location": {"lat": 35.7037533, "lng": 51.4266929}, "location_type": "GEOMETRIC_CENTER", "viewport": {"northeast": {"lat": 35.7051022802915, "lng": 51.4280418802915}, "southwest": {"lat": 35.7024043197085, "lng": 51.4253439197085}}}, "place_id": "ChIJW-aRXH8Bjj8RQnmTE5epguw", "types": ["establishment", "point_of_interest", "university"]}]}, "179193067": {"AfN": "khon kaen university", "Location": [{"address_components": [{"long_name": "Mueang Khon Kaen District", "short_name": "\u0e2d. \u0e40\u0e21\u0e37\u0e2d\u0e07\u0e02\u0e2d\u0e19\u0e41\u0e01\u0e48\u0e19", "types": ["administrative_area_level_2", "political"]}, {"long_name": "Khon Kaen", "short_name": "\u0e08.\u0e02\u0e2d\u0e19\u0e41\u0e01\u0e48\u0e19", "types": ["administrative_area_level_1", "political"]}, {"long_name": "Thailand", "short_name": "TH", "types": ["country", "political"]}, {"long_name": "40002", "short_name": "40002", "types": ["postal_code"]}], "formatted_address": "123 \u0e2b\u0e21\u0e39\u0e48 16 \u0e2d\u0e32\u0e04\u0e32\u0e23\u0e41\u0e01\u0e48\u0e19\u0e21\u0e2d\u0e14\u0e34\u0e19\u0e41\u0e14\u0e07 \u0e21\u0e2b\u0e32\u0e27\u0e34\u0e17\u0e22\u0e32\u0e25\u0e31\u0e22\u0e02\u0e2d\u0e19\u0e41\u0e01\u0e48\u0e19 Mueang Khon Kaen District, Khon Kaen 40002, Thailand", "geometry": {"location": {"lat": 16.4741162, "lng": 102.8278044}, "location_type": "GEOMETRIC_CENTER", "viewport": {"northeast": {"lat": 16.4754651802915, "lng": 102.8291533802915}, "southwest": {"lat": 16.4727672197085, "lng": 102.8264554197085}}}, "place_id": "ChIJczYqkUKKIjER2SEKil7tNuI", "types": ["establishment", "point_of_interest", "university"]}, {"address_components": [{"long_name": "\u0e40\u0e21\u0e37\u0e2d\u0e07", "short_name": "\u0e40\u0e21\u0e37\u0e2d\u0e07", "types": ["locality", "political"]}, {"long_name": "Khon Kaen", "short_name": "\u0e08.\u0e02\u0e2d\u0e19\u0e41\u0e01\u0e48\u0e19", "types": ["administrative_area_level_1", "political"]}, {"long_name": "Thailand", "short_name": "TH", "types": ["country", "political"]}, {"long_name": "40002", "short_name": "40002", "types": ["postal_code"]}], "formatted_address": "Information Center Building 8th-9th Floor. 123 Mitraphap Rd. \u0e40\u0e21\u0e37\u0e2d\u0e07 Khon Kaen 40002, Thailand", "geometry": {"location": {"lat": 16.47647, "lng": 102.823603}, "location_type": "GEOMETRIC_CENTER", "viewport": {"northeast": {"lat": 16.47781898029151, "lng": 102.8249519802915}, "southwest": {"lat": 16.4751210197085, "lng": 102.8222540197085}}}, "place_id": "ChIJUf7VzY2KIjER5kKje2O6YXM", "types": ["establishment", "point_of_interest"]}]}, "1284277383": {"AfN": "kia motors", "Location": [{"address_components": [{"long_name": "8501", "short_name": "8501", "types": ["street_number"]}, {"long_name": "West Freeway", "short_name": "West Fwy", "types": ["route"]}, {"long_name": "Fort Worth", "short_name": "Fort Worth", "types": ["locality", "political"]}, {"long_name": "Tarrant County", "short_name": "Tarrant County", "types": ["administrative_area_level_2", "political"]}, {"long_name": "Texas", "short_name": "TX", "types": ["administrative_area_level_1", "political"]}, {"long_name": "United States", "short_name": "US", "types": ["country", "political"]}, {"long_name": "76116", "short_name": "76116", "types": ["postal_code"]}], "formatted_address": "8501 West Fwy, Fort Worth, TX 76116, USA", "geometry": {"location": {"lat": 32.73707, "lng": -97.46543299999999}, "location_type": "ROOFTOP", "viewport": {"northeast": {"lat": 32.7384189802915, "lng": -97.46408401970848}, "southwest": {"lat": 32.7357210197085, "lng": -97.46678198029149}}}, "place_id": "ChIJoSzHTekMToYRqV4sOBiist0", "types": ["car_dealer", "establishment", "point_of_interest", "store"]}]}, "1308524038": {"AfN": "kiel institute for the world economy", "Location": [{"address_components": [{"long_name": "66", "short_name": "66", "types": ["street_number"]}, {"long_name": "Kiellinie", "short_name": "Kiellinie", "types": ["route"]}, {"long_name": "Ravensberg - Brunswik - D\u00fcsternbrook", "short_name": "Ravensberg - Brunswik - D\u00fcsternbrook", "types": ["political", "sublocality", "sublocality_level_1"]}, {"long_name": "Kiel", "short_name": "KI", "types": ["locality", "political"]}, {"long_name": "Schleswig-Holstein", "short_name": "SH", "types": ["administrative_area_level_1", "political"]}, {"long_name": "Germany", "short_name": "DE", "types": ["country", "political"]}, {"long_name": "24105", "short_name": "24105", "types": ["postal_code"]}], "formatted_address": "Kiellinie 66, 24105 Kiel, Germany", "geometry": {"location": {"lat": 54.338874, "lng": 10.156259}, "location_type": "ROOFTOP", "viewport": {"northeast": {"lat": 54.3402229802915, "lng": 10.1576079802915}, "southwest": {"lat": 54.3375250197085, "lng": 10.1549100197085}}}, "place_id": "ChIJ3RFD1jlWskcR2ONeYR31TuU", "types": ["establishment", "point_of_interest"]}]}, "918205698": {"AfN": "kier group", "Location": [{"address_components": [{"long_name": "620", "short_name": "620", "types": ["street_number"]}, {"long_name": "8th Avenue", "short_name": "8th Ave", "types": ["route"]}, {"long_name": "Manhattan", "short_name": "Manhattan", "types": ["political", "sublocality", "sublocality_level_1"]}, {"long_name": "New York", "short_name": "New York", "types": ["locality", "political"]}, {"long_name": "New York County", "short_name": "New York County", "types": ["administrative_area_level_2", "political"]}, {"long_name": "New York", "short_name": "NY", "types": ["administrative_area_level_1", "political"]}, {"long_name": "United States", "short_name": "US", "types": ["country", "political"]}, {"long_name": "10018", "short_name": "10018", "types": ["postal_code"]}, {"long_name": "1618", "short_name": "1618", "types": ["postal_code_suffix"]}], "formatted_address": "620 8th Ave, New York, NY 10018, USA", "geometry": {"location": {"lat": 40.7562054, "lng": -73.9899143}, "location_type": "ROOFTOP", "viewport": {"northeast": {"lat": 40.7575543802915, "lng": -73.9885653197085}, "southwest": {"lat": 40.7548564197085, "lng": -73.9912632802915}}}, "place_id": "ChIJx97RSlNYwokRCeuEiP-EQWE", "types": ["establishment", "point_of_interest"]}, {"address_components": [{"long_name": "100", "short_name": "100", "types": ["subpremise"]}, {"long_name": "17757", "short_name": "17757", "types": ["street_number"]}, {"long_name": "U.S. 19", "short_name": "US-19", "types": ["route"]}, {"long_name": "Clearwater", "short_name": "Clearwater", "types": ["locality", "political"]}, {"long_name": "Pinellas County", "short_name": "Pinellas County", "types": ["administrative_area_level_2", "political"]}, {"long_name": "Florida", "short_name": "FL", "types": ["administrative_area_level_1", "political"]}, {"long_name": "United States", "short_name": "US", "types": ["country", "political"]}, {"long_name": "33764", "short_name": "33764", "types": ["postal_code"]}], "formatted_address": "17757 US-19 #100, Clearwater, FL 33764, USA", "geometry": {"location": {"lat": 27.933788, "lng": -82.7292433}, "location_type": "ROOFTOP", "viewport": {"northeast": {"lat": 27.9351369802915, "lng": -82.7278943197085}, "southwest": {"lat": 27.9324390197085, "lng": -82.7305922802915}}}, "place_id": "ChIJlQjPnDLwwogRFWvcMllFKVM", "types": ["establishment", "finance", "insurance_agency", "point_of_interest"]}]}, "113567473": {"AfN": "kigali institute of science and technology", "Location": [{"address_components": [{"long_name": "Kigali", "short_name": "Kigali", "types": ["locality", "political"]}, {"long_name": "Nyarugenge", "short_name": "Nyarugenge", "types": ["political", "sublocality", "sublocality_level_1"]}, {"long_name": "Nyarugenge", "short_name": "Nyarugenge", "types": ["administrative_area_level_2", "political"]}, {"long_name": "Kigali City", "short_name": "Kigali City", "types": ["administrative_area_level_1", "political"]}, {"long_name": "Rwanda", "short_name": "RW", "types": ["country", "political"]}], "formatted_address": "Kigali, Rwanda", "geometry": {"location": {"lat": -1.9568693, "lng": 30.0635843}, "location_type": "GEOMETRIC_CENTER", "viewport": {"northeast": {"lat": -1.955520319708498, "lng": 30.0649332802915}, "southwest": {"lat": -1.958218280291502, "lng": 30.0622353197085}}}, "place_id": "ChIJV21Oyyuk3BkR26oTGUrG2hQ", "types": ["establishment", "point_of_interest", "university"]}]}, "67357951": {"AfN": "kiit university", "Location": [{"address_components": [{"long_name": "Bhubaneswar", "short_name": "Bhubaneswar", "types": ["locality", "political"]}, {"long_name": "Odisha", "short_name": "OD", "types": ["administrative_area_level_1", "political"]}, {"long_name": "India", "short_name": "IN", "types": ["country", "political"]}, {"long_name": "751024", "short_name": "751024", "types": ["postal_code"]}], "formatted_address": "KIIT, Shikhar Chandi Road, Chandaka Industrial Estate, Bajrang Vihar, Patia, Bhubaneswar, Odisha 751024, India", "geometry": {"location": {"lat": 20.3543863, "lng": 85.81465659999999}, "location_type": "GEOMETRIC_CENTER", "viewport": {"northeast": {"lat": 20.3557352802915, "lng": 85.8160055802915}, "southwest": {"lat": 20.35303731970849, "lng": 85.81330761970848}}}, "place_id": "ChIJ1bjaExgJGToRvLzbzRwFM6A", "types": ["establishment", "point_of_interest", "university"]}]}, "13531389": {"AfN": "kilimanjaro christian medical college", "Location": [{"address_components": [{"long_name": "Moshi", "short_name": "Moshi", "types": ["neighborhood", "political"]}, {"long_name": "Moshi Urban", "short_name": "Moshi Urban", "types": ["administrative_area_level_2", "political"]}, {"long_name": "Kilimanjaro Region", "short_name": "Kilimanjaro Region", "types": ["administrative_area_level_1", "political"]}, {"long_name": "Tanzania", "short_name": "TZ", "types": ["country", "political"]}], "formatted_address": "Moshi, Tanzania", "geometry": {"location": {"lat": -3.3208577, "lng": 37.32945309999999}, "location_type": "GEOMETRIC_CENTER", "viewport": {"northeast": {"lat": -3.319508719708498, "lng": 37.3308020802915}, "southwest": {"lat": -3.322206680291502, "lng": 37.3281041197085}}}, "place_id": "ChIJEyoH2efYORgRtH80CvEMVqc", "types": ["establishment", "point_of_interest", "university"]}]}, "197065608": {"AfN": "kimberly clark", "Location": [{"address_components": [{"long_name": "13219", "short_name": "13219", "types": ["street_number"]}, {"long_name": "Kimberly Clark Place", "short_name": "Kimberly Clark Pl", "types": ["route"]}, {"long_name": "Jenks", "short_name": "Jenks", "types": ["locality", "political"]}, {"long_name": "Tulsa County", "short_name": "Tulsa County", "types": ["administrative_area_level_2", "political"]}, {"long_name": "Oklahoma", "short_name": "OK", "types": ["administrative_area_level_1", "political"]}, {"long_name": "United States", "short_name": "US", "types": ["country", "political"]}, {"long_name": "74037", "short_name": "74037", "types": ["postal_code"]}], "formatted_address": "13219 Kimberly Clark Pl, Jenks, OK 74037, USA", "geometry": {"location": {"lat": 35.9668902, "lng": -95.92994499999999}, "location_type": "ROOFTOP", "viewport": {"northeast": {"lat": 35.9682391802915, "lng": -95.92859601970848}, "southwest": {"lat": 35.96554121970851, "lng": -95.93129398029149}}}, "place_id": "ChIJ04UcNUCQtocR8uMaNDZI7xs", "types": ["establishment", "point_of_interest"]}]}, "916559398": {"AfN": "kindai university", "Location": [{"address_components": [{"long_name": "1", "short_name": "1", "types": ["premise"]}, {"long_name": "4", "short_name": "4", "types": ["political", "sublocality", "sublocality_level_4"]}, {"long_name": "3 Chome", "short_name": "3 Chome", "types": ["political", "sublocality", "sublocality_level_3"]}, {"long_name": "Kowakae", "short_name": "Kowakae", "types": ["political", "sublocality", "sublocality_level_2"]}, {"long_name": "Higashi-osaka", "short_name": "Higashi-osaka", "types": ["locality", "political"]}, {"long_name": "Osaka Prefecture", "short_name": "Osaka Prefecture", "types": ["administrative_area_level_1", "political"]}, {"long_name": "Japan", "short_name": "JP", "types": ["country", "political"]}, {"long_name": "577-8502", "short_name": "577-8502", "types": ["postal_code"]}], "formatted_address": "3 Chome-4-1 Kowakae, Higashi-osaka, Osaka Prefecture 577-8502, Japan", "geometry": {"location": {"lat": 34.65123, "lng": 135.587042}, "location_type": "ROOFTOP", "viewport": {"northeast": {"lat": 34.65257898029149, "lng": 135.5883909802915}, "southwest": {"lat": 34.6498810197085, "lng": 135.5856930197085}}}, "place_id": "ChIJKd3HDHbfAGARZMaEjmUeLyI", "types": ["establishment", "point_of_interest", "university"]}]}, "1284598098": {"AfN": "king abdulaziz city for science and technology", "Location": [{"address_components": [{"long_name": "An Nakhil", "short_name": "An Nakhil", "types": ["political", "sublocality", "sublocality_level_1"]}, {"long_name": "Riyadh", "short_name": "Riyadh", "types": ["locality", "political"]}, {"long_name": "Saudi Arabia", "short_name": "SA", "types": ["country", "political"]}, {"long_name": "12371", "short_name": "12371", "types": ["postal_code"]}], "formatted_address": "King Abdulaziz City for Science and Technology, An Nakhil, Riyadh 12371, Saudi Arabia", "geometry": {"location": {"lat": 24.716945, "lng": 46.643329}, "location_type": "GEOMETRIC_CENTER", "viewport": {"northeast": {"lat": 24.7182939802915, "lng": 46.6446779802915}, "southwest": {"lat": 24.7155960197085, "lng": 46.64198001970851}}}, "place_id": "ChIJ1TmKVG4dLz4RF2MCsTNPwrE", "types": ["establishment", "point_of_interest"]}]}, "185163786": {"AfN": "king abdulaziz university", "Location": [{"address_components": [{"long_name": "Al-Malae'b St", "short_name": "Al-Malae'b St", "types": ["route"]}, {"long_name": "Jeddah", "short_name": "Jeddah", "types": ["locality", "political"]}, {"long_name": "Makkah Province", "short_name": "Makkah Province", "types": ["administrative_area_level_1", "political"]}, {"long_name": "Saudi Arabia", "short_name": "SA", "types": ["country", "political"]}, {"long_name": "21589", "short_name": "21589", "types": ["postal_code"]}], "formatted_address": "Al-Malae'b St, Jeddah 21589, Saudi Arabia", "geometry": {"location": {"lat": 21.5016038, "lng": 39.2575481}, "location_type": "GEOMETRIC_CENTER", "viewport": {"northeast": {"lat": 21.5029527802915, "lng": 39.2588970802915}, "southwest": {"lat": 21.5002548197085, "lng": 39.2561991197085}}}, "place_id": "ChIJXf_mOuvNwxURhlhkinn-eyI", "types": ["establishment", "point_of_interest", "university"]}]}, "71920554": {"AfN": "king abdullah university of science and technology", "Location": [{"address_components": [{"long_name": "Thuwal", "short_name": "Thuwal", "types": ["locality", "political"]}, {"long_name": "Makkah Province", "short_name": "Makkah Province", "types": ["administrative_area_level_1", "political"]}, {"long_name": "Saudi Arabia", "short_name": "SA", "types": ["country", "political"]}, {"long_name": "23955", "short_name": "23955", "types": ["postal_code"]}, {"long_name": "23955", "short_name": "23955", "types": ["postal_code_suffix"]}], "formatted_address": "Thuwal 23955, Saudi Arabia", "geometry": {"location": {"lat": 22.309465, "lng": 39.104697}, "location_type": "GEOMETRIC_CENTER", "viewport": {"northeast": {"lat": 22.3108139802915, "lng": 39.1060459802915}, "southwest": {"lat": 22.3081160197085, "lng": 39.10334801970851}}}, "place_id": "ChIJ8aJoV1AcwRURvOYUcgCcEzY", "types": ["establishment", "point_of_interest", "university"]}]}, "134085113": {"AfN": "king fahd university of petroleum and minerals", "Location": [{"address_components": [{"long_name": "University Boulevard", "short_name": "University Blvd", "types": ["route"]}, {"long_name": "King Fahd University of Petroleum and Minerals", "short_name": "KFUPM", "types": ["political", "sublocality", "sublocality_level_1"]}, {"long_name": "Dhahran", "short_name": "Dhahran", "types": ["locality", "political"]}, {"long_name": "Eastern Province", "short_name": "Eastern Province", "types": ["administrative_area_level_1", "political"]}, {"long_name": "Saudi Arabia", "short_name": "SA", "types": ["country", "political"]}, {"long_name": "31261", "short_name": "31261", "types": ["postal_code_suffix"]}], "formatted_address": "University Blvd, King Fahd University of Petroleum and Minerals, Dhahran 31261, Saudi Arabia", "geometry": {"location": {"lat": 26.3071046, "lng": 50.14594229999999}, "location_type": "GEOMETRIC_CENTER", "viewport": {"northeast": {"lat": 26.3084535802915, "lng": 50.14729128029149}, "southwest": {"lat": 26.3057556197085, "lng": 50.1445933197085}}}, "place_id": "ChIJ2RHCtVvmST4Rff9DdG-AWFI", "types": ["establishment", "point_of_interest", "university"]}]}, "4626487": {"AfN": "king faisal university", "Location": [{"address_components": [{"long_name": "Al Hofuf", "short_name": "Al Hofuf", "types": ["locality", "political"]}, {"long_name": "Al Ahsa", "short_name": "Al Ahsa", "types": ["administrative_area_level_2", "political"]}, {"long_name": "Eastern Province", "short_name": "Eastern Province", "types": ["administrative_area_level_1", "political"]}, {"long_name": "Saudi Arabia", "short_name": "SA", "types": ["country", "political"]}], "formatted_address": "Al Hofuf Saudi Arabia", "geometry": {"location": {"lat": 25.3405347, "lng": 49.599911}, "location_type": "GEOMETRIC_CENTER", "viewport": {"northeast": {"lat": 25.3418836802915, "lng": 49.60125998029149}, "southwest": {"lat": 25.3391857197085, "lng": 49.5985620197085}}}, "place_id": "ChIJTYAOX0GRNz4RZgbwKW4ySN8", "types": ["establishment", "point_of_interest", "university"]}]}, "280994": {"AfN": "king george s medical university", "Location": [{"address_components": [{"long_name": "Lucknow", "short_name": "Lucknow", "types": ["locality", "political"]}, {"long_name": "Uttar Pradesh", "short_name": "UP", "types": ["administrative_area_level_1", "political"]}, {"long_name": "India", "short_name": "IN", "types": ["country", "political"]}, {"long_name": "226003", "short_name": "226003", "types": ["postal_code"]}], "formatted_address": "Shah Mina Road, Lucknow, Uttar Pradesh 226003, India", "geometry": {"location": {"lat": 26.8692591, "lng": 80.91624019999999}, "location_type": "GEOMETRIC_CENTER", "viewport": {"northeast": {"lat": 26.8706080802915, "lng": 80.9175891802915}, "southwest": {"lat": 26.8679101197085, "lng": 80.9148912197085}}}, "partial_match": true, "place_id": "ChIJQaffwe39mzkR5_eVVHW3tJk", "types": ["establishment", "point_of_interest", "university"]}]}, "182083151": {"AfN": "king juan carlos university", "Location": [{"address_components": [{"long_name": "M\u00f3stoles", "short_name": "M\u00f3stoles", "types": ["locality", "political"]}, {"long_name": "Madrid", "short_name": "M", "types": ["administrative_area_level_2", "political"]}, {"long_name": "Spain", "short_name": "ES", "types": ["country", "political"]}, {"long_name": "28933", "short_name": "28933", "types": ["postal_code"]}], "formatted_address": "Calle Tulip\u00e1n, s/n, 28933 M\u00f3stoles, Madrid, Spain", "geometry": {"location": {"lat": 40.3359104, "lng": -3.8768434}, "location_type": "GEOMETRIC_CENTER", "viewport": {"northeast": {"lat": 40.3372593802915, "lng": -3.875494419708498}, "southwest": {"lat": 40.3345614197085, "lng": -3.878192380291502}}}, "place_id": "ChIJQ_Vo33qOQQ0RC6lVhEJVF4Q", "types": ["establishment", "point_of_interest", "university"]}]}, "91538806": {"AfN": "king mongkut s institute of technology ladkrabang", "Location": [{"address_components": [{"long_name": "1", "short_name": "1", "types": ["street_number"]}, {"long_name": "Thanon Chalong Krung", "short_name": "Thanon Chalong Krung", "types": ["route"]}, {"long_name": "Khwaeng Lam Prathew", "short_name": "Khwaeng Lam Prathew", "types": ["political", "sublocality", "sublocality_level_2"]}, {"long_name": "Khet Lat Krabang", "short_name": "Khet Lat Krabang", "types": ["political", "sublocality", "sublocality_level_1"]}, {"long_name": "\u0e01\u0e23\u0e38\u0e07\u0e40\u0e17\u0e1e\u0e21\u0e2b\u0e32\u0e19\u0e04\u0e23", "short_name": "\u0e01\u0e23\u0e38\u0e07\u0e40\u0e17\u0e1e\u0e21\u0e2b\u0e32\u0e19\u0e04\u0e23", "types": ["administrative_area_level_1", "political"]}, {"long_name": "Thailand", "short_name": "TH", "types": ["country", "political"]}, {"long_name": "10520", "short_name": "10520", "types": ["postal_code"]}], "formatted_address": "1 Thanon Chalong Krung, Khwaeng Lam Prathew, Khet Lat Krabang, \u0e01\u0e23\u0e38\u0e07\u0e40\u0e17\u0e1e\u0e21\u0e2b\u0e32\u0e19\u0e04\u0e23 10520, Thailand", "geometry": {"location": {"lat": 13.7298956, "lng": 100.7793163}, "location_type": "ROOFTOP", "viewport": {"northeast": {"lat": 13.7312445802915, "lng": 100.7806652802915}, "southwest": {"lat": 13.7285466197085, "lng": 100.7779673197085}}}, "partial_match": true, "place_id": "ChIJ376hiElmHTER0BwiDhiPZ8w", "types": ["establishment", "point_of_interest", "university"]}]}, "82828225": {"AfN": "king mongkut s university of technology north bangkok", "Location": [{"address_components": [{"long_name": "1518", "short_name": "1518", "types": ["street_number"]}, {"long_name": "\u0e16\u0e19\u0e19\u0e1b\u0e23\u0e30\u0e0a\u0e32\u0e23\u0e32\u0e29\u0e0e\u0e23\u0e4c 1", "short_name": "\u0e16\u0e19\u0e19\u0e1b\u0e23\u0e30\u0e0a\u0e32\u0e23\u0e32\u0e29\u0e0e\u0e23\u0e4c 1", "types": ["route"]}, {"long_name": "\u0e41\u0e02\u0e27\u0e07\u0e27\u0e07\u0e28\u0e4c\u0e2a\u0e27\u0e48\u0e32\u0e07", "short_name": "\u0e41\u0e02\u0e27\u0e07\u0e27\u0e07\u0e28\u0e4c\u0e2a\u0e27\u0e48\u0e32\u0e07", "types": ["political", "sublocality", "sublocality_level_2"]}, {"long_name": "\u0e40\u0e02\u0e15\u0e1a\u0e32\u0e07\u0e0b\u0e37\u0e48\u0e2d", "short_name": "\u0e40\u0e02\u0e15\u0e1a\u0e32\u0e07\u0e0b\u0e37\u0e48\u0e2d", "types": ["political", "sublocality", "sublocality_level_1"]}, {"long_name": "\u0e01\u0e23\u0e38\u0e07\u0e40\u0e17\u0e1e\u0e21\u0e2b\u0e32\u0e19\u0e04\u0e23", "short_name": "\u0e01\u0e23\u0e38\u0e07\u0e40\u0e17\u0e1e\u0e21\u0e2b\u0e32\u0e19\u0e04\u0e23", "types": ["administrative_area_level_1", "political"]}, {"long_name": "Thailand", "short_name": "TH", "types": ["country", "political"]}, {"long_name": "10800", "short_name": "10800", "types": ["postal_code"]}], "formatted_address": "1518 \u0e16\u0e19\u0e19\u0e1b\u0e23\u0e30\u0e0a\u0e32\u0e23\u0e32\u0e29\u0e0e\u0e23\u0e4c 1 \u0e41\u0e02\u0e27\u0e07\u0e27\u0e07\u0e28\u0e4c\u0e2a\u0e27\u0e48\u0e32\u0e07 \u0e40\u0e02\u0e15\u0e1a\u0e32\u0e07\u0e0b\u0e37\u0e48\u0e2d \u0e01\u0e23\u0e38\u0e07\u0e40\u0e17\u0e1e\u0e21\u0e2b\u0e32\u0e19\u0e04\u0e23 10800, Thailand", "geometry": {"location": {"lat": 13.8189664, "lng": 100.5143626}, "location_type": "ROOFTOP", "viewport": {"northeast": {"lat": 13.8203153802915, "lng": 100.5157115802915}, "southwest": {"lat": 13.8176174197085, "lng": 100.5130136197085}}}, "partial_match": true, "place_id": "ChIJXwZxIJyb4jAR5aTvpZ2v1Ko", "types": ["establishment", "point_of_interest", "university"]}]}, "60837268": {"AfN": "king mongkut s university of technology thonburi", "Location": [{"address_components": [{"long_name": "126", "short_name": "126", "types": ["street_number"]}, {"long_name": "Pracha Uthit Road", "short_name": "Pracha Uthit Rd", "types": ["route"]}, {"long_name": "Khwaeng Bang Mot", "short_name": "Khwaeng Bang Mot", "types": ["political", "sublocality", "sublocality_level_2"]}, {"long_name": "Khet Thung Khru", "short_name": "Khet Thung Khru", "types": ["political", "sublocality", "sublocality_level_1"]}, {"long_name": "Krung Thep Maha Nakhon", "short_name": "Krung Thep Maha Nakhon", "types": ["administrative_area_level_1", "political"]}, {"long_name": "Thailand", "short_name": "TH", "types": ["country", "political"]}, {"long_name": "10140", "short_name": "10140", "types": ["postal_code"]}], "formatted_address": "126 Pracha Uthit Rd, Khwaeng Bang Mot, Khet Thung Khru, Krung Thep Maha Nakhon 10140, Thailand", "geometry": {"location": {"lat": 13.6517802, "lng": 100.4950075}, "location_type": "ROOFTOP", "viewport": {"northeast": {"lat": 13.6531291802915, "lng": 100.4963564802915}, "southwest": {"lat": 13.6504312197085, "lng": 100.4936585197085}}}, "place_id": "ChIJ8Qxru1Gi4jARrSQz8U_pVvY", "types": ["establishment", "point_of_interest", "university"]}]}, "2607892777": {"AfN": "king s", "Location": [{"address_components": [{"long_name": "A", "short_name": "A", "types": ["subpremise"]}, {"long_name": "3120", "short_name": "3120", "types": ["street_number"]}, {"long_name": "South Sheridan Road", "short_name": "S Sheridan Rd", "types": ["route"]}, {"long_name": "Hoover", "short_name": "Hoover", "types": ["neighborhood", "political"]}, {"long_name": "Tulsa", "short_name": "Tulsa", "types": ["locality", "political"]}, {"long_name": "Tulsa County", "short_name": "Tulsa County", "types": ["administrative_area_level_2", "political"]}, {"long_name": "Oklahoma", "short_name": "OK", "types": ["administrative_area_level_1", "political"]}, {"long_name": "United States", "short_name": "US", "types": ["country", "political"]}, {"long_name": "74145", "short_name": "74145", "types": ["postal_code"]}, {"long_name": "1103", "short_name": "1103", "types": ["postal_code_suffix"]}], "formatted_address": "3120 S Sheridan Rd A, Tulsa, OK 74145, USA", "geometry": {"location": {"lat": 36.1180472, "lng": -95.9051065}, "location_type": "ROOFTOP", "viewport": {"northeast": {"lat": 36.1193961802915, "lng": -95.90375751970849}, "southwest": {"lat": 36.1166982197085, "lng": -95.90645548029151}}}, "place_id": "ChIJg_i5S1PttocRvMuolRep82g", "types": ["electronics_store", "establishment", "point_of_interest", "store"]}]}, "164213776": {"AfN": "king s college", "Location": [{"address_components": [{"long_name": "133", "short_name": "133", "types": ["street_number"]}, {"long_name": "North River Street", "short_name": "N River St", "types": ["route"]}, {"long_name": "Wilkes-Barre", "short_name": "Wilkes-Barre", "types": ["locality", "political"]}, {"long_name": "Luzerne County", "short_name": "Luzerne County", "types": ["administrative_area_level_2", "political"]}, {"long_name": "Pennsylvania", "short_name": "PA", "types": ["administrative_area_level_1", "political"]}, {"long_name": "United States", "short_name": "US", "types": ["country", "political"]}, {"long_name": "18711", "short_name": "18711", "types": ["postal_code"]}, {"long_name": "2404", "short_name": "2404", "types": ["postal_code_suffix"]}], "formatted_address": "133 N River St, Wilkes-Barre, PA 18711, USA", "geometry": {"location": {"lat": 41.2499673, "lng": -75.87928529999999}, "location_type": "ROOFTOP", "viewport": {"northeast": {"lat": 41.2513162802915, "lng": -75.87793631970848}, "southwest": {"lat": 41.2486183197085, "lng": -75.8806342802915}}}, "partial_match": true, "place_id": "ChIJK6Wq1GYaxYkREhsjvcDCajY", "types": ["establishment", "point_of_interest", "university"]}]}, "171165547": {"AfN": "king s college aberdeen", "Location": [{"address_components": [{"long_name": "69", "short_name": "69", "types": ["street_number"]}, {"long_name": "University Road", "short_name": "University Rd", "types": ["route"]}, {"long_name": "Aberdeen", "short_name": "Aberdeen", "types": ["postal_town"]}, {"long_name": "Aberdeen City", "short_name": "Aberdeen City", "types": ["administrative_area_level_2", "political"]}, {"long_name": "Scotland", "short_name": "Scotland", "types": ["administrative_area_level_1", "political"]}, {"long_name": "United Kingdom", "short_name": "GB", "types": ["country", "political"]}, {"long_name": "AB24 3SW", "short_name": "AB24 3SW", "types": ["postal_code"]}], "formatted_address": "69 University Rd, Aberdeen AB24 3SW, UK", "geometry": {"location": {"lat": 57.16400290000001, "lng": -2.1004332}, "location_type": "ROOFTOP", "viewport": {"northeast": {"lat": 57.16535188029151, "lng": -2.099084219708498}, "southwest": {"lat": 57.16265391970851, "lng": -2.101782180291502}}}, "partial_match": true, "place_id": "ChIJJ5fx6g8OhEgRCkAy9X8ppe4", "types": ["establishment", "point_of_interest"]}, {"address_components": [{"long_name": "King's College", "short_name": "King's College", "types": ["premise"]}, {"long_name": "Aberdeen", "short_name": "Aberdeen", "types": ["postal_town"]}, {"long_name": "Aberdeen City", "short_name": "Aberdeen City", "types": ["administrative_area_level_2", "political"]}, {"long_name": "Scotland", "short_name": "Scotland", "types": ["administrative_area_level_1", "political"]}, {"long_name": "United Kingdom", "short_name": "GB", "types": ["country", "political"]}, {"long_name": "AB24 3FX", "short_name": "AB24 3FX", "types": ["postal_code"]}], "formatted_address": "King's College, Aberdeen AB24 3FX, UK", "geometry": {"location": {"lat": 57.16475999999999, "lng": -2.1015257}, "location_type": "ROOFTOP", "viewport": {"northeast": {"lat": 57.16610898029149, "lng": -2.100176719708498}, "southwest": {"lat": 57.16341101970849, "lng": -2.102874680291502}}}, "partial_match": true, "place_id": "ChIJAAAAAAQOhEgRjhBQT3_KpQ8", "types": ["establishment", "point_of_interest", "university"]}]}, "183935753": {"AfN": "king s college london", "Location": [{"address_components": [{"long_name": "Strand", "short_name": "Strand", "types": ["route"]}, {"long_name": "London", "short_name": "London", "types": ["postal_town"]}, {"long_name": "Greater London", "short_name": "Greater London", "types": ["administrative_area_level_2", "political"]}, {"long_name": "England", "short_name": "England", "types": ["administrative_area_level_1", "political"]}, {"long_name": "United Kingdom", "short_name": "GB", "types": ["country", "political"]}, {"long_name": "WC2R 2LS", "short_name": "WC2R 2LS", "types": ["postal_code"]}], "formatted_address": "Strand, London WC2R 2LS, UK", "geometry": {"location": {"lat": 51.5114864, "lng": -0.115997}, "location_type": "GEOMETRIC_CENTER", "viewport": {"northeast": {"lat": 51.5128353802915, "lng": -0.114648019708498}, "southwest": {"lat": 51.5101374197085, "lng": -0.117345980291502}}}, "partial_match": true, "place_id": "ChIJ3VW0o7UEdkgRjZLQfvs-ZLA", "types": ["establishment", "point_of_interest", "university"]}]}, "1319156287": {"AfN": "king s fund", "Location": [{"address_components": [{"long_name": "# 21", "short_name": "# 21", "types": ["subpremise"]}, {"long_name": "5051", "short_name": "5051", "types": ["street_number"]}, {"long_name": "Castello Drive", "short_name": "Castello Dr", "types": ["route"]}, {"long_name": "Central Naples", "short_name": "Central Naples", "types": ["neighborhood", "political"]}, {"long_name": "Naples", "short_name": "Naples", "types": ["locality", "political"]}, {"long_name": "Collier County", "short_name": "Collier County", "types": ["administrative_area_level_2", "political"]}, {"long_name": "Florida", "short_name": "FL", "types": ["administrative_area_level_1", "political"]}, {"long_name": "United States", "short_name": "US", "types": ["country", "political"]}, {"long_name": "34103", "short_name": "34103", "types": ["postal_code"]}, {"long_name": "8983", "short_name": "8983", "types": ["postal_code_suffix"]}], "formatted_address": "5051 Castello Dr # 21, Naples, FL 34103, USA", "geometry": {"location": {"lat": 26.2081174, "lng": -81.79818039999999}, "location_type": "ROOFTOP", "viewport": {"northeast": {"lat": 26.2094663802915, "lng": -81.7968314197085}, "southwest": {"lat": 26.2067684197085, "lng": -81.7995293802915}}}, "partial_match": true, "place_id": "ChIJwf9ULxUe24gRyjhgtqGTX4w", "types": ["establishment", "point_of_interest"]}]}, "61614213": {"AfN": "king s university college", "Location": [{"address_components": [{"long_name": "266", "short_name": "266", "types": ["street_number"]}, {"long_name": "Epworth Avenue", "short_name": "Epworth Ave", "types": ["route"]}, {"long_name": "North London", "short_name": "North London", "types": ["neighborhood", "political"]}, {"long_name": "London", "short_name": "London", "types": ["locality", "political"]}, {"long_name": "Middlesex County", "short_name": "Middlesex County", "types": ["administrative_area_level_2", "political"]}, {"long_name": "Ontario", "short_name": "ON", "types": ["administrative_area_level_1", "political"]}, {"long_name": "Canada", "short_name": "CA", "types": ["country", "political"]}, {"long_name": "N6A 2M3", "short_name": "N6A 2M3", "types": ["postal_code"]}], "formatted_address": "266 Epworth Ave, London, ON N6A 2M3, Canada", "geometry": {"location": {"lat": 43.0124722, "lng": -81.2571159}, "location_type": "ROOFTOP", "viewport": {"northeast": {"lat": 43.01382118029149, "lng": -81.2557669197085}, "southwest": {"lat": 43.01112321970849, "lng": -81.25846488029151}}}, "partial_match": true, "place_id": "ChIJv0SCjwvuLogRu6LuaIDAugM", "types": ["establishment", "point_of_interest", "university"]}]}, "185203018": {"AfN": "king saud bin abdulaziz university for health sciences", "Location": [{"address_components": [{"long_name": "Al Hars Al Watani", "short_name": "Al Hars Al Watani", "types": ["route"]}, {"long_name": "Ar Rimayah", "short_name": "Ar Rimayah", "types": ["political", "sublocality", "sublocality_level_1"]}, {"long_name": "Riyadh", "short_name": "Riyadh", "types": ["locality", "political"]}, {"long_name": "Riyadh Province", "short_name": "Riyadh Province", "types": ["administrative_area_level_1", "political"]}, {"long_name": "Saudi Arabia", "short_name": "SA", "types": ["country", "political"]}, {"long_name": "14611", "short_name": "14611", "types": ["postal_code"]}], "formatted_address": "Al Hars Al Watani, Ar Rimayah, Riyadh 14611, Saudi Arabia", "geometry": {"location": {"lat": 24.7545024, "lng": 46.85331730000001}, "location_type": "GEOMETRIC_CENTER", "viewport": {"northeast": {"lat": 24.7558513802915, "lng": 46.85466628029151}, "southwest": {"lat": 24.7531534197085, "lng": 46.85196831970851}}}, "place_id": "ChIJG7XFyUiqLz4R9xdPtm1YIn4", "types": ["establishment", "point_of_interest", "university"]}]}, "28022161": {"AfN": "king saud university", "Location": [{"address_components": [{"long_name": "King Khalid Road", "short_name": "King Khalid Rd", "types": ["route"]}, {"long_name": "King Saud University", "short_name": "King Saud University", "types": ["political", "sublocality", "sublocality_level_1"]}, {"long_name": "Riyadh", "short_name": "Riyadh", "types": ["locality", "political"]}, {"long_name": "Riyadh Province", "short_name": "Riyadh Province", "types": ["administrative_area_level_1", "political"]}, {"long_name": "Saudi Arabia", "short_name": "SA", "types": ["country", "political"]}], "formatted_address": "King Khalid Rd, King Saud University, Riyadh Saudi Arabia", "geometry": {"location": {"lat": 24.7252026, "lng": 46.6236596}, "location_type": "GEOMETRIC_CENTER", "viewport": {"northeast": {"lat": 24.7265515802915, "lng": 46.62500858029149}, "southwest": {"lat": 24.7238536197085, "lng": 46.6223106197085}}}, "place_id": "ChIJZxtvoH0dLz4R_AtXsvD6Bmc", "types": ["establishment", "point_of_interest", "university"]}]}, "205051169": {"AfN": "kingston university", "Location": [{"address_components": [{"long_name": "3871", "short_name": "3871", "types": ["street_number"]}, {"long_name": "East Colorado Boulevard", "short_name": "E Colorado Blvd", "types": ["route"]}, {"long_name": "Pasadena", "short_name": "Pasadena", "types": ["locality", "political"]}, {"long_name": "Los Angeles County", "short_name": "Los Angeles County", "types": ["administrative_area_level_2", "political"]}, {"long_name": "California", "short_name": "CA", "types": ["administrative_area_level_1", "political"]}, {"long_name": "United States", "short_name": "US", "types": ["country", "political"]}, {"long_name": "91107", "short_name": "91107", "types": ["postal_code"]}], "formatted_address": "3871 E Colorado Blvd, Pasadena, CA 91107, USA", "geometry": {"location": {"lat": 34.147634, "lng": -118.068909}, "location_type": "ROOFTOP", "viewport": {"northeast": {"lat": 34.14898298029149, "lng": -118.0675600197085}, "southwest": {"lat": 34.1462850197085, "lng": -118.0702579802915}}}, "place_id": "ChIJkd1t-trSwoAR4e-faslx4as", "types": ["establishment", "health", "hospital", "point_of_interest", "university"]}]}, "32108227": {"AfN": "kirby institute", "Location": [{"address_components": [{"long_name": "# 201", "short_name": "# 201", "types": ["subpremise"]}, {"long_name": "6027", "short_name": "6027", "types": ["street_number"]}, {"long_name": "Walnut Grove Road", "short_name": "Walnut Grove Rd", "types": ["route"]}, {"long_name": "Memphis", "short_name": "Memphis", "types": ["locality", "political"]}, {"long_name": "Shelby County", "short_name": "Shelby County", "types": ["administrative_area_level_2", "political"]}, {"long_name": "Tennessee", "short_name": "TN", "types": ["administrative_area_level_1", "political"]}, {"long_name": "United States", "short_name": "US", "types": ["country", "political"]}, {"long_name": "38120", "short_name": "38120", "types": ["postal_code"]}, {"long_name": "2127", "short_name": "2127", "types": ["postal_code_suffix"]}], "formatted_address": "6027 Walnut Grove Rd # 201, Memphis, TN 38120, USA", "geometry": {"location": {"lat": 35.1295589, "lng": -89.86159909999999}, "location_type": "ROOFTOP", "viewport": {"northeast": {"lat": 35.1309078802915, "lng": -89.86025011970848}, "southwest": {"lat": 35.1282099197085, "lng": -89.8629480802915}}}, "place_id": "ChIJWw0jaw1-1YcRGoSJNX5tXkg", "types": ["doctor", "establishment", "health", "point_of_interest"]}, {"address_components": [{"long_name": "8000", "short_name": "8000", "types": ["street_number"]}, {"long_name": "Wolf River Boulevard", "short_name": "Wolf River Blvd", "types": ["route"]}, {"long_name": "Germantown", "short_name": "Germantown", "types": ["locality", "political"]}, {"long_name": "Shelby County", "short_name": "Shelby County", "types": ["administrative_area_level_2", "political"]}, {"long_name": "Tennessee", "short_name": "TN", "types": ["administrative_area_level_1", "political"]}, {"long_name": "United States", "short_name": "US", "types": ["country", "political"]}, {"long_name": "38138", "short_name": "38138", "types": ["postal_code"]}], "formatted_address": "8000 Wolf River Blvd, Germantown, TN 38138, USA", "geometry": {"location": {"lat": 35.1115829, "lng": -89.7958862}, "location_type": "ROOFTOP", "viewport": {"northeast": {"lat": 35.1129318802915, "lng": -89.79453721970849}, "southwest": {"lat": 35.1102339197085, "lng": -89.79723518029151}}}, "place_id": "ChIJ7UYN8JObf4gRFIYRPPnNVnw", "types": ["doctor", "establishment", "health", "point_of_interest"]}]}, "45642913": {"AfN": "kirikkale university", "Location": [{"address_components": [{"long_name": "Ankara Yolu 7. Km", "short_name": "Ankara Yolu 7. Km", "types": ["route"]}, {"long_name": "K\u0131r\u0131kkale \u00dcniversitesi", "short_name": "K\u0131r\u0131kkale \u00dcniversitesi", "types": ["administrative_area_level_4", "political"]}, {"long_name": "Yah\u015fihan", "short_name": "Yah\u015fihan", "types": ["administrative_area_level_2", "political"]}, {"long_name": "K\u0131r\u0131kkale", "short_name": "K\u0131r\u0131kkale", "types": ["administrative_area_level_1", "political"]}, {"long_name": "Turkey", "short_name": "TR", "types": ["country", "political"]}, {"long_name": "71450", "short_name": "71450", "types": ["postal_code"]}], "formatted_address": "K\u0131r\u0131kkale \u00dcniversitesi, Ankara Yolu 7. Km, 71450 Yah\u015fihan/K\u0131r\u0131kkale, Turkey", "geometry": {"location": {"lat": 39.8793555, "lng": 33.4458905}, "location_type": "GEOMETRIC_CENTER", "viewport": {"northeast": {"lat": 39.8807044802915, "lng": 33.44723948029149}, "southwest": {"lat": 39.8780065197085, "lng": 33.4445415197085}}}, "place_id": "ChIJeUlhavXggUARTN-Or86EvfU", "types": ["establishment", "point_of_interest", "university"]}, {"address_components": [{"long_name": "Yah\u015fihan", "short_name": "Yah\u015fihan", "types": ["administrative_area_level_2", "political"]}, {"long_name": "K\u0131r\u0131kkale", "short_name": "K\u0131r\u0131kkale", "types": ["administrative_area_level_1", "political"]}, {"long_name": "Turkey", "short_name": "TR", "types": ["country", "political"]}, {"long_name": "71450", "short_name": "71450", "types": ["postal_code"]}], "formatted_address": "Ankara Yolu 7. Km. Yeni\u015fehir, 71450 Yah\u015fihan/K\u0131r\u0131kkale, Turkey", "geometry": {"location": {"lat": 39.883078, "lng": 33.443775}, "location_type": "GEOMETRIC_CENTER", "viewport": {"northeast": {"lat": 39.88442698029149, "lng": 33.4451239802915}, "southwest": {"lat": 39.88172901970849, "lng": 33.4424260197085}}}, "place_id": "ChIJFxXvRvfggUARDKXeRe3C2IA", "types": ["establishment", "point_of_interest", "university"]}]}, "98957242": {"AfN": "kitami institute of technology", "Location": [{"address_components": [{"long_name": "165", "short_name": "165", "types": ["premise"]}, {"long_name": "\u516c\u5712\u753a", "short_name": "\u516c\u5712\u753a", "types": ["political", "sublocality", "sublocality_level_1"]}, {"long_name": "Kitami", "short_name": "Kitami", "types": ["locality", "political"]}, {"long_name": "Hokkaido", "short_name": "Hokkaido", "types": ["administrative_area_level_1", "political"]}, {"long_name": "Japan", "short_name": "JP", "types": ["country", "political"]}, {"long_name": "090-8507", "short_name": "090-8507", "types": ["postal_code"]}], "formatted_address": "Japan, \u3012090-8507 Hokkaido, Kitami, \u516c\u5712\u753a\uff11\uff16\uff15", "geometry": {"location": {"lat": 43.822847, "lng": 143.9051056}, "location_type": "ROOFTOP", "viewport": {"northeast": {"lat": 43.82419598029149, "lng": 143.9064545802915}, "southwest": {"lat": 43.82149801970849, "lng": 143.9037566197085}}}, "place_id": "ChIJm0vgntFWbV8R1B7kY0tB8EI", "types": ["establishment", "point_of_interest", "university"]}]}, "64189623": {"AfN": "kitasato university", "Location": [{"address_components": [{"long_name": "1", "short_name": "1", "types": ["premise"]}, {"long_name": "9", "short_name": "9", "types": ["political", "sublocality", "sublocality_level_4"]}, {"long_name": "5 Chome", "short_name": "5 Chome", "types": ["political", "sublocality", "sublocality_level_3"]}, {"long_name": "Shirokane", "short_name": "Shirokane", "types": ["political", "sublocality", "sublocality_level_2"]}, {"long_name": "Minato", "short_name": "Minato", "types": ["locality", "political"]}, {"long_name": "Tokyo", "short_name": "Tokyo", "types": ["administrative_area_level_1", "political"]}, {"long_name": "Japan", "short_name": "JP", "types": ["country", "political"]}, {"long_name": "108-0072", "short_name": "108-0072", "types": ["postal_code"]}], "formatted_address": "5 Chome-9-1 Shirokane, Minato, Tokyo 108-0072, Japan", "geometry": {"location": {"lat": 35.644758, "lng": 139.72563}, "location_type": "ROOFTOP", "viewport": {"northeast": {"lat": 35.64610698029149, "lng": 139.7269789802915}, "southwest": {"lat": 35.64340901970849, "lng": 139.7242810197085}}}, "place_id": "ChIJT00b3g6LGGARxISOtw0YL8U", "types": ["establishment", "point_of_interest", "university"]}]}, "89004649": {"AfN": "kitech", "Location": [{"address_components": [{"long_name": "10", "short_name": "10", "types": ["subpremise"]}, {"long_name": "200", "short_name": "200", "types": ["street_number"]}, {"long_name": "Valley Drive", "short_name": "Valley Dr", "types": ["route"]}, {"long_name": "Brisbane", "short_name": "Brisbane", "types": ["locality", "political"]}, {"long_name": "San Mateo County", "short_name": "San Mateo County", "types": ["administrative_area_level_2", "political"]}, {"long_name": "California", "short_name": "CA", "types": ["administrative_area_level_1", "political"]}, {"long_name": "United States", "short_name": "US", "types": ["country", "political"]}, {"long_name": "94005", "short_name": "94005", "types": ["postal_code"]}, {"long_name": "1261", "short_name": "1261", "types": ["postal_code_suffix"]}], "formatted_address": "200 Valley Dr #10, Brisbane, CA 94005, USA", "geometry": {"location": {"lat": 37.6880161, "lng": -122.4033991}, "location_type": "ROOFTOP", "viewport": {"northeast": {"lat": 37.68936508029149, "lng": -122.4020501197085}, "southwest": {"lat": 37.6866671197085, "lng": -122.4047480802915}}}, "place_id": "ChIJKSCFAyd5j4ARcOnTFlBiwSk", "types": ["establishment", "point_of_interest"]}, {"address_components": [{"long_name": "2350", "short_name": "2350", "types": ["street_number"]}, {"long_name": "Mission College Boulevard", "short_name": "Mission College Blvd", "types": ["route"]}, {"long_name": "Santa Clara", "short_name": "Santa Clara", "types": ["locality", "political"]}, {"long_name": "Santa Clara County", "short_name": "Santa Clara County", "types": ["administrative_area_level_2", "political"]}, {"long_name": "California", "short_name": "CA", "types": ["administrative_area_level_1", "political"]}, {"long_name": "United States", "short_name": "US", "types": ["country", "political"]}, {"long_name": "95054", "short_name": "95054", "types": ["postal_code"]}], "formatted_address": "2350 Mission College Blvd, Santa Clara, CA 95054, USA", "geometry": {"location": {"lat": 37.387129, "lng": -121.9667504}, "location_type": "ROOFTOP", "viewport": {"northeast": {"lat": 37.3884779802915, "lng": -121.9654014197085}, "southwest": {"lat": 37.38578001970851, "lng": -121.9680993802915}}}, "place_id": "ChIJOd7jnpPJj4ARBrFHkagZrRs", "types": ["establishment", "point_of_interest"]}]}, "74786994": {"AfN": "kitware", "Location": [{"address_components": [{"long_name": "suite g4", "short_name": "suite g4", "types": ["subpremise"]}, {"long_name": "101", "short_name": "101", "types": ["street_number"]}, {"long_name": "East Weaver Street", "short_name": "E Weaver St", "types": ["route"]}, {"long_name": "Carrboro", "short_name": "Carrboro", "types": ["locality", "political"]}, {"long_name": "Chapel Hill", "short_name": "Chapel Hill", "types": ["administrative_area_level_3", "political"]}, {"long_name": "Orange County", "short_name": "Orange County", "types": ["administrative_area_level_2", "political"]}, {"long_name": "North Carolina", "short_name": "NC", "types": ["administrative_area_level_1", "political"]}, {"long_name": "United States", "short_name": "US", "types": ["country", "political"]}, {"long_name": "27510", "short_name": "27510", "types": ["postal_code"]}], "formatted_address": "101 E Weaver St suite g4, Carrboro, NC 27510, USA", "geometry": {"location": {"lat": 35.911157, "lng": -79.071597}, "location_type": "ROOFTOP", "viewport": {"northeast": {"lat": 35.91250598029149, "lng": -79.07024801970849}, "southwest": {"lat": 35.90980801970849, "lng": -79.07294598029151}}}, "place_id": "ChIJB6pjbRnDrIkRZRWfIq_Q0oo", "types": ["establishment", "point_of_interest"]}, {"address_components": [{"long_name": "suite 101", "short_name": "suite 101", "types": ["subpremise"]}, {"long_name": "28", "short_name": "28", "types": ["street_number"]}, {"long_name": "Corporate Drive", "short_name": "Corporate Dr", "types": ["route"]}, {"long_name": "Clifton Park", "short_name": "Clifton Park", "types": ["administrative_area_level_3", "political"]}, {"long_name": "Saratoga County", "short_name": "Saratoga County", "types": ["administrative_area_level_2", "political"]}, {"long_name": "New York", "short_name": "NY", "types": ["administrative_area_level_1", "political"]}, {"long_name": "United States", "short_name": "US", "types": ["country", "political"]}, {"long_name": "12065", "short_name": "12065", "types": ["postal_code"]}], "formatted_address": "28 Corporate Dr suite 101, Clifton Park, NY 12065, USA", "geometry": {"location": {"lat": 42.849596, "lng": -73.759214}, "location_type": "ROOFTOP", "viewport": {"northeast": {"lat": 42.8509449802915, "lng": -73.75786501970849}, "southwest": {"lat": 42.8482470197085, "lng": -73.76056298029151}}}, "place_id": "ChIJSb92BvoT3okRBiywweRxSYM", "types": ["establishment", "point_of_interest"]}]}, "70745867": {"AfN": "kla tencor", "Location": [{"address_components": [{"long_name": "# 100", "short_name": "# 100", "types": ["subpremise"]}, {"long_name": "1717", "short_name": "1717", "types": ["street_number"]}, {"long_name": "Firman Drive", "short_name": "Firman Dr", "types": ["route"]}, {"long_name": "Richardson", "short_name": "Richardson", "types": ["locality", "political"]}, {"long_name": "Dallas County", "short_name": "Dallas County", "types": ["administrative_area_level_2", "political"]}, {"long_name": "Texas", "short_name": "TX", "types": ["administrative_area_level_1", "political"]}, {"long_name": "United States", "short_name": "US", "types": ["country", "political"]}, {"long_name": "75081", "short_name": "75081", "types": ["postal_code"]}, {"long_name": "6739", "short_name": "6739", "types": ["postal_code_suffix"]}], "formatted_address": "1717 Firman Dr # 100, Richardson, TX 75081, USA", "geometry": {"location": {"lat": 32.97076, "lng": -96.7107513}, "location_type": "ROOFTOP", "viewport": {"northeast": {"lat": 32.9721089802915, "lng": -96.7094023197085}, "southwest": {"lat": 32.9694110197085, "lng": -96.71210028029151}}}, "place_id": "ChIJl4hMQSEfTIYRFU4ByaUn7yM", "types": ["establishment", "point_of_interest", "store"]}]}, "75384278": {"AfN": "klein associates", "Location": [{"address_components": [{"long_name": "11", "short_name": "11", "types": ["street_number"]}, {"long_name": "Klein Drive", "short_name": "Klein Dr", "types": ["route"]}, {"long_name": "Salem", "short_name": "Salem", "types": ["locality", "political"]}, {"long_name": "Rockingham County", "short_name": "Rockingham County", "types": ["administrative_area_level_2", "political"]}, {"long_name": "New Hampshire", "short_name": "NH", "types": ["administrative_area_level_1", "political"]}, {"long_name": "United States", "short_name": "US", "types": ["country", "political"]}, {"long_name": "03079", "short_name": "03079", "types": ["postal_code"]}, {"long_name": "1370", "short_name": "1370", "types": ["postal_code_suffix"]}], "formatted_address": "11 Klein Dr, Salem, NH 03079, USA", "geometry": {"location": {"lat": 42.8482999, "lng": -71.20795629999999}, "location_type": "ROOFTOP", "viewport": {"northeast": {"lat": 42.8496488802915, "lng": -71.20660731970848}, "southwest": {"lat": 42.8469509197085, "lng": -71.20930528029149}}}, "place_id": "ChIJCYM4pkNV4okRh48yDZ7BJLg", "types": ["establishment", "point_of_interest"]}]}, "32691308": {"AfN": "kln college of information technology", "Location": [{"address_components": [{"long_name": "Tamil Nadu", "short_name": "Tamil Nadu", "types": ["locality", "political"]}, {"long_name": "Tamil Nadu", "short_name": "TN", "types": ["administrative_area_level_1", "political"]}, {"long_name": "India", "short_name": "IN", "types": ["country", "political"]}, {"long_name": "630612", "short_name": "630612", "types": ["postal_code"]}], "formatted_address": "Pottapalayam, Dist Sivaganga, Tamil Nadu, 630612, India", "geometry": {"location": {"lat": 9.835089, "lng": 78.1590987}, "location_type": "GEOMETRIC_CENTER", "viewport": {"northeast": {"lat": 9.836437980291501, "lng": 78.16044768029151}, "southwest": {"lat": 9.833740019708497, "lng": 78.1577497197085}}}, "place_id": "ChIJjbR0-QLbADsRCgBEDXtVRmM", "types": ["establishment", "point_of_interest", "university"]}]}, "929363937": {"AfN": "kmc controls", "Location": [{"address_components": [{"long_name": "19476", "short_name": "19476", "types": ["street_number"]}, {"long_name": "Industrial Drive", "short_name": "Industrial Dr", "types": ["route"]}, {"long_name": "New Paris", "short_name": "New Paris", "types": ["locality", "political"]}, {"long_name": "Jackson Township", "short_name": "Jackson Township", "types": ["administrative_area_level_3", "political"]}, {"long_name": "Elkhart County", "short_name": "Elkhart County", "types": ["administrative_area_level_2", "political"]}, {"long_name": "Indiana", "short_name": "IN", "types": ["administrative_area_level_1", "political"]}, {"long_name": "United States", "short_name": "US", "types": ["country", "political"]}, {"long_name": "46553", "short_name": "46553", "types": ["postal_code"]}], "formatted_address": "19476 Industrial Dr, New Paris, IN 46553, USA", "geometry": {"location": {"lat": 41.5082599, "lng": -85.8375227}, "location_type": "ROOFTOP", "viewport": {"northeast": {"lat": 41.50960888029149, "lng": -85.8361737197085}, "southwest": {"lat": 41.5069109197085, "lng": -85.8388716802915}}}, "place_id": "ChIJ77VB30KTFogRJr0JaVp76ys", "types": ["establishment", "point_of_interest"]}, {"address_components": [{"long_name": "19514", "short_name": "19514", "types": ["street_number"]}, {"long_name": "Industrial Drive", "short_name": "Industrial Dr", "types": ["route"]}, {"long_name": "New Paris", "short_name": "New Paris", "types": ["locality", "political"]}, {"long_name": "Jackson Township", "short_name": "Jackson Township", "types": ["administrative_area_level_3", "political"]}, {"long_name": "Elkhart County", "short_name": "Elkhart County", "types": ["administrative_area_level_2", "political"]}, {"long_name": "Indiana", "short_name": "IN", "types": ["administrative_area_level_1", "political"]}, {"long_name": "United States", "short_name": "US", "types": ["country", "political"]}, {"long_name": "46553", "short_name": "46553", "types": ["postal_code"]}, {"long_name": "9635", "short_name": "9635", "types": ["postal_code_suffix"]}], "formatted_address": "19514 Industrial Dr, New Paris, IN 46553, USA", "geometry": {"location": {"lat": 41.508282, "lng": -85.836968}, "location_type": "ROOFTOP", "viewport": {"northeast": {"lat": 41.5096309802915, "lng": -85.83561901970849}, "southwest": {"lat": 41.50693301970851, "lng": -85.83831698029151}}}, "place_id": "ChIJ51fR4EKTFogR-Z-wClrb-0Q", "types": ["establishment", "point_of_interest"]}]}, "42387498": {"AfN": "knox college", "Location": [{"address_components": [{"long_name": "2", "short_name": "2", "types": ["street_number"]}, {"long_name": "East South Street", "short_name": "E South St", "types": ["route"]}, {"long_name": "Galesburg", "short_name": "Galesburg", "types": ["locality", "political"]}, {"long_name": "Galesburg City Township", "short_name": "Galesburg City Township", "types": ["administrative_area_level_3", "political"]}, {"long_name": "Knox County", "short_name": "Knox County", "types": ["administrative_area_level_2", "political"]}, {"long_name": "Illinois", "short_name": "IL", "types": ["administrative_area_level_1", "political"]}, {"long_name": "United States", "short_name": "US", "types": ["country", "political"]}, {"long_name": "61401", "short_name": "61401", "types": ["postal_code"]}], "formatted_address": "2 E South St, Galesburg, IL 61401, USA", "geometry": {"location": {"lat": 40.9418892, "lng": -90.3718673}, "location_type": "ROOFTOP", "viewport": {"northeast": {"lat": 40.9432381802915, "lng": -90.37051831970851}, "southwest": {"lat": 40.9405402197085, "lng": -90.37321628029152}}}, "place_id": "ChIJ861CyAu-4YcRYs4qcDWMIBc", "types": ["establishment", "point_of_interest", "university"]}]}, "128309023": {"AfN": "kobe city university of foreign studies", "Location": [{"address_components": [{"long_name": "1", "short_name": "1", "types": ["political", "sublocality", "sublocality_level_4"]}, {"long_name": "9 Chome", "short_name": "9 Chome", "types": ["political", "sublocality", "sublocality_level_3"]}, {"long_name": "Gakuen Higashimachi", "short_name": "Gakuen Higashimachi", "types": ["political", "sublocality", "sublocality_level_2"]}, {"long_name": "Nishi Ward", "short_name": "Nishi Ward", "types": ["political", "sublocality", "sublocality_level_1"]}, {"long_name": "Kobe", "short_name": "Kobe", "types": ["locality", "political"]}, {"long_name": "Hy\u014dgo Prefecture", "short_name": "Hy\u014dgo Prefecture", "types": ["administrative_area_level_1", "political"]}, {"long_name": "Japan", "short_name": "JP", "types": ["country", "political"]}, {"long_name": "651-2187", "short_name": "651-2187", "types": ["postal_code"]}], "formatted_address": "9 Chome-1 Gakuen Higashimachi, Nishi Ward, Kobe, Hy\u014dgo Prefecture 651-2187, Japan", "geometry": {"location": {"lat": 34.67981, "lng": 135.060399}, "location_type": "ROOFTOP", "viewport": {"northeast": {"lat": 34.6811589802915, "lng": 135.0617479802915}, "southwest": {"lat": 34.6784610197085, "lng": 135.0590500197085}}}, "place_id": "ChIJYclaATyBAGAR64ZURKBIgWY", "types": ["establishment", "point_of_interest", "university"]}]}, "87099769": {"AfN": "kobe college", "Location": [{"address_components": [{"long_name": "3335", "short_name": "3335", "types": ["subpremise"]}, {"long_name": "540", "short_name": "540", "types": ["street_number"]}, {"long_name": "Frontage Road", "short_name": "Frontage Rd", "types": ["route"]}, {"long_name": "Northfield", "short_name": "Northfield", "types": ["locality", "political"]}, {"long_name": "Northfield Township", "short_name": "Northfield Township", "types": ["administrative_area_level_3", "political"]}, {"long_name": "Cook County", "short_name": "Cook County", "types": ["administrative_area_level_2", "political"]}, {"long_name": "Illinois", "short_name": "IL", "types": ["administrative_area_level_1", "political"]}, {"long_name": "United States", "short_name": "US", "types": ["country", "political"]}, {"long_name": "60093", "short_name": "60093", "types": ["postal_code"]}], "formatted_address": "540 Frontage Rd #3335, Northfield, IL 60093, USA", "geometry": {"location": {"lat": 42.1065628, "lng": -87.77210889999999}, "location_type": "ROOFTOP", "viewport": {"northeast": {"lat": 42.1079117802915, "lng": -87.77075991970848}, "southwest": {"lat": 42.1052138197085, "lng": -87.7734578802915}}}, "place_id": "ChIJpWI3nyjED4gR0mjU2U1n0YM", "types": ["establishment", "point_of_interest"]}]}, "115849699": {"AfN": "kobe design university", "Location": [{"address_components": [{"long_name": "1-1", "short_name": "1-1", "types": ["premise"]}, {"long_name": "8 Chome", "short_name": "8 Chome", "types": ["political", "sublocality", "sublocality_level_3"]}, {"long_name": "Gakuen Nishimachi", "short_name": "Gakuen Nishimachi", "types": ["political", "sublocality", "sublocality_level_2"]}, {"long_name": "Nishi Ward", "short_name": "Nishi Ward", "types": ["political", "sublocality", "sublocality_level_1"]}, {"long_name": "Kobe", "short_name": "Kobe", "types": ["locality", "political"]}, {"long_name": "Hy\u014dgo Prefecture", "short_name": "Hy\u014dgo Prefecture", "types": ["administrative_area_level_1", "political"]}, {"long_name": "Japan", "short_name": "JP", "types": ["country", "political"]}, {"long_name": "651-2196", "short_name": "651-2196", "types": ["postal_code"]}], "formatted_address": "8 Chome-1-1 Gakuen Nishimachi, Nishi Ward, Kobe, Hy\u014dgo Prefecture 651-2196, Japan", "geometry": {"location": {"lat": 34.67762099999999, "lng": 135.056829}, "location_type": "ROOFTOP", "viewport": {"northeast": {"lat": 34.67896998029149, "lng": 135.0581779802915}, "southwest": {"lat": 34.6762720197085, "lng": 135.0554800197085}}}, "place_id": "ChIJNy8iABaBAGARjgN_HynSqVs", "types": ["establishment", "point_of_interest", "university"]}]}, "197065826": {"AfN": "kobe pharmaceutical university", "Location": [{"address_components": [{"long_name": "1", "short_name": "1", "types": ["premise"]}, {"long_name": "19", "short_name": "19", "types": ["political", "sublocality", "sublocality_level_4"]}, {"long_name": "\uff14\u4e01\u76ee", "short_name": "\uff14\u4e01\u76ee", "types": ["political", "sublocality", "sublocality_level_3"]}, {"long_name": "\u672c\u5c71\u5317\u753a", "short_name": "\u672c\u5c71\u5317\u753a", "types": ["political", "sublocality", "sublocality_level_2"]}, {"long_name": "\u6771\u7058\u533a", "short_name": "\u6771\u7058\u533a", "types": ["political", "sublocality", "sublocality_level_1"]}, {"long_name": "\u795e\u6238\u5e02\u6771\u7058\u533a", "short_name": "\u795e\u6238\u5e02\u6771\u7058\u533a", "types": ["locality", "political"]}, {"long_name": "Hy\u014dgo Prefecture", "short_name": "Hy\u014dgo Prefecture", "types": ["administrative_area_level_1", "political"]}, {"long_name": "Japan", "short_name": "JP", "types": ["country", "political"]}, {"long_name": "658-0003", "short_name": "658-0003", "types": ["postal_code"]}], "formatted_address": "\uff14\u4e01\u76ee-19-1 \u672c\u5c71\u5317\u753a \u6771\u7058\u533a \u795e\u6238\u5e02\u6771\u7058\u533a Hy\u014dgo Prefecture 658-0003, Japan", "geometry": {"location": {"lat": 34.7323338, "lng": 135.2838829}, "location_type": "ROOFTOP", "viewport": {"northeast": {"lat": 34.7336827802915, "lng": 135.2852318802915}, "southwest": {"lat": 34.7309848197085, "lng": 135.2825339197085}}}, "place_id": "ChIJSZ4I5NyMAGAR3ZC-R-Zxf7A", "types": ["establishment", "point_of_interest", "university"]}]}, "65837984": {"AfN": "kobe university", "Location": [{"address_components": [{"long_name": "1", "short_name": "1", "types": ["premise"]}, {"long_name": "1", "short_name": "1", "types": ["political", "sublocality", "sublocality_level_4"]}, {"long_name": "Rokkodaicho", "short_name": "Rokkodaicho", "types": ["political", "sublocality", "sublocality_level_2"]}, {"long_name": "Nada Ward", "short_name": "Nada Ward", "types": ["political", "sublocality", "sublocality_level_1"]}, {"long_name": "Kobe", "short_name": "Kobe", "types": ["locality", "political"]}, {"long_name": "Hy\u014dgo Prefecture", "short_name": "Hy\u014dgo Prefecture", "types": ["administrative_area_level_1", "political"]}, {"long_name": "Japan", "short_name": "JP", "types": ["country", "political"]}, {"long_name": "657-0013", "short_name": "657-0013", "types": ["postal_code"]}], "formatted_address": "1-1 Rokkodaicho, Nada Ward, Kobe, Hy\u014dgo Prefecture 657-0013, Japan", "geometry": {"location": {"lat": 34.7256185, "lng": 135.2353953}, "location_type": "ROOFTOP", "viewport": {"northeast": {"lat": 34.7269674802915, "lng": 135.2367442802915}, "southwest": {"lat": 34.7242695197085, "lng": 135.2340463197085}}}, "place_id": "ChIJm-zpxBCMAGAR_fDhwZICWqs", "types": ["establishment", "point_of_interest", "university"]}]}, "1351752": {"AfN": "koc university", "Location": [{"address_components": [{"long_name": "Rumelifeneri Yolu", "short_name": "Rumelifeneri Yolu", "types": ["route"]}, {"long_name": "Rumelifeneri Mahallesi", "short_name": "Rumelifeneri Mahallesi", "types": ["administrative_area_level_4", "political"]}, {"long_name": "Sar\u0131yer", "short_name": "Sar\u0131yer", "types": ["administrative_area_level_3", "political"]}, {"long_name": "Sar\u0131yer", "short_name": "Sar\u0131yer", "types": ["administrative_area_level_2", "political"]}, {"long_name": "\u0130stanbul", "short_name": "\u0130stanbul", "types": ["administrative_area_level_1", "political"]}, {"long_name": "Turkey", "short_name": "TR", "types": ["country", "political"]}, {"long_name": "34450", "short_name": "34450", "types": ["postal_code"]}], "formatted_address": "Rumelifeneri Mahallesi, Rumelifeneri Yolu, 34450 Sar\u0131yer/\u0130stanbul, Turkey", "geometry": {"location": {"lat": 41.19779640000001, "lng": 29.06738349999999}, "location_type": "GEOMETRIC_CENTER", "viewport": {"northeast": {"lat": 41.19914538029151, "lng": 29.06873248029149}, "southwest": {"lat": 41.19644741970851, "lng": 29.0660345197085}}}, "place_id": "ChIJLx5P-5Pgn0ARUFOEXCiJG7U", "types": ["establishment", "point_of_interest", "university"]}]}, "51826884": {"AfN": "kocaeli university", "Location": [{"address_components": [{"long_name": "515", "short_name": "515", "types": ["street_number"]}, {"long_name": "Baki Komsuo\u011flu bulvar\u0131", "short_name": "Baki Komsuo\u011flu bulvar\u0131", "types": ["route"]}, {"long_name": "Kabao\u011flu Mahallesi", "short_name": "Kabao\u011flu Mahallesi", "types": ["administrative_area_level_4", "political"]}, {"long_name": "Umuttepe \u0130zmit", "short_name": "Umuttepe \u0130zmit", "types": ["administrative_area_level_3", "political"]}, {"long_name": "\u0130zmit", "short_name": "\u0130zmit", "types": ["administrative_area_level_2", "political"]}, {"long_name": "Kocaeli", "short_name": "Kocaeli", "types": ["administrative_area_level_1", "political"]}, {"long_name": "Turkey", "short_name": "TR", "types": ["country", "political"]}, {"long_name": "41380", "short_name": "41380", "types": ["postal_code"]}], "formatted_address": "Kabao\u011flu Mahallesi, Baki Komsuo\u011flu bulvar\u0131 No:515, 41380 Umuttepe \u0130zmit/\u0130zmit/Kocaeli, Turkey", "geometry": {"location": {"lat": 40.8223347, "lng": 29.9217153}, "location_type": "ROOFTOP", "viewport": {"northeast": {"lat": 40.8236836802915, "lng": 29.9230642802915}, "southwest": {"lat": 40.8209857197085, "lng": 29.9203663197085}}}, "place_id": "ChIJRf4p9q1byxQRVYdOI0moH8g", "types": ["establishment", "point_of_interest", "university"]}]}, "35568498": {"AfN": "kochi university of technology", "Location": [{"address_components": [{"long_name": "185", "short_name": "185", "types": ["political", "sublocality", "sublocality_level_4"]}, {"long_name": "\u5bae\u30ce\u53e3", "short_name": "\u5bae\u30ce\u53e3", "types": ["political", "sublocality", "sublocality_level_3"]}, {"long_name": "\u571f\u4f50\u5c71\u7530\u753a", "short_name": "\u571f\u4f50\u5c71\u7530\u753a", "types": ["political", "sublocality", "sublocality_level_2"]}, {"long_name": "\u9999\u7f8e\u5e02", "short_name": "\u9999\u7f8e\u5e02", "types": ["locality", "political"]}, {"long_name": "\u9ad8\u77e5\u770c", "short_name": "\u9ad8\u77e5\u770c", "types": ["administrative_area_level_1", "political"]}, {"long_name": "Japan", "short_name": "JP", "types": ["country", "political"]}, {"long_name": "782-8502", "short_name": "782-8502", "types": ["postal_code"]}], "formatted_address": "\u5bae\u30ce\u53e3-185 \u571f\u4f50\u5c71\u7530\u753a \u9999\u7f8e\u5e02 \u9ad8\u77e5\u770c 782-8502, Japan", "geometry": {"location": {"lat": 33.620596, "lng": 133.719836}, "location_type": "ROOFTOP", "viewport": {"northeast": {"lat": 33.6219449802915, "lng": 133.7211849802915}, "southwest": {"lat": 33.6192470197085, "lng": 133.7184870197085}}}, "place_id": "ChIJ9fTECaT-UTURSMd1SKNbi7U", "types": ["establishment", "point_of_interest", "university"]}]}, "116465919": {"AfN": "kogakuin university", "Location": [{"address_components": [{"long_name": "2", "short_name": "2", "types": ["premise"]}, {"long_name": "24", "short_name": "24", "types": ["political", "sublocality", "sublocality_level_4"]}, {"long_name": "1 Chome", "short_name": "1 Chome", "types": ["political", "sublocality", "sublocality_level_3"]}, {"long_name": "Nishishinjuku", "short_name": "Nishishinjuku", "types": ["political", "sublocality", "sublocality_level_2"]}, {"long_name": "Shinjuku", "short_name": "Shinjuku", "types": ["locality", "political"]}, {"long_name": "Tokyo", "short_name": "Tokyo", "types": ["administrative_area_level_1", "political"]}, {"long_name": "Japan", "short_name": "JP", "types": ["country", "political"]}, {"long_name": "163-8677", "short_name": "163-8677", "types": ["postal_code"]}], "formatted_address": "1 Chome-24-2 Nishishinjuku, Shinjuku, Tokyo 163-8677, Japan", "geometry": {"location": {"lat": 35.6904628, "lng": 139.6954429}, "location_type": "ROOFTOP", "viewport": {"northeast": {"lat": 35.69181178029149, "lng": 139.6967918802915}, "southwest": {"lat": 35.6891138197085, "lng": 139.6940939197085}}}, "place_id": "ChIJlx8yEdSMGGARSkyqVRIzmUc", "types": ["establishment", "point_of_interest", "university"]}]}, "178777954": {"AfN": "kohat university of science and technology", "Location": [{"address_components": [{"long_name": "Pakistan", "short_name": "PK", "types": ["country", "political"]}], "formatted_address": "Bannu Road, Near Jarma Bridge, Pakistan", "geometry": {"location": {"lat": 33.5232835, "lng": 71.44589169999999}, "location_type": "GEOMETRIC_CENTER", "viewport": {"northeast": {"lat": 33.5246324802915, "lng": 71.4472406802915}, "southwest": {"lat": 33.5219345197085, "lng": 71.4445427197085}}}, "place_id": "ChIJN3JGGiTs2DgREPEYCb-aQPc", "types": ["establishment", "point_of_interest", "university"]}]}, "905002128": {"AfN": "kolej mara seremban", "Location": [{"address_components": [{"long_name": "Jalan Aminuddin Baki", "short_name": "Jalan Aminuddin Baki", "types": ["route"]}, {"long_name": "Seremban", "short_name": "Seremban", "types": ["political", "sublocality", "sublocality_level_1"]}, {"long_name": "Seremban", "short_name": "Seremban", "types": ["locality", "political"]}, {"long_name": "Negeri Sembilan", "short_name": "Negeri Sembilan", "types": ["administrative_area_level_1", "political"]}, {"long_name": "Malaysia", "short_name": "MY", "types": ["country", "political"]}, {"long_name": "70100", "short_name": "70100", "types": ["postal_code"]}], "formatted_address": "Jalan Aminuddin Baki, Seremban, 70100 Seremban, Negeri Sembilan, Malaysia", "geometry": {"location": {"lat": 2.718346, "lng": 101.951357}, "location_type": "GEOMETRIC_CENTER", "viewport": {"northeast": {"lat": 2.719694980291502, "lng": 101.9527059802915}, "southwest": {"lat": 2.716997019708498, "lng": 101.9500080197085}}}, "place_id": "ChIJvV_6-ondzTERRSO4pwRmBmw", "types": ["establishment", "point_of_interest", "school"]}]}, "1971141": {"AfN": "kolling institute of medical research", "Location": [{"address_components": [{"long_name": "St Leonards", "short_name": "St Leonards", "types": ["locality", "political"]}, {"long_name": "New South Wales", "short_name": "NSW", "types": ["administrative_area_level_1", "political"]}, {"long_name": "Australia", "short_name": "AU", "types": ["country", "political"]}, {"long_name": "2065", "short_name": "2065", "types": ["postal_code"]}], "formatted_address": "Royal North Shore Hospital, Pacific Hwy, St Leonards NSW 2065, Australia", "geometry": {"location": {"lat": -33.8205832, "lng": 151.1910288},