{"58590764": {"AfN": "southern california edison", "Location": [{"address_components": [{"long_name": "2244", "short_name": "2244", "types": ["street_number"]}, {"long_name": "Walnut Grove Avenue", "short_name": "Walnut Grove Ave", "types": ["route"]}, {"long_name": "Garvey", "short_name": "Garvey", "types": ["neighborhood", "political"]}, {"long_name": "Rosemead", "short_name": "Rosemead", "types": ["locality", "political"]}, {"long_name": "Los Angeles County", "short_name": "Los Angeles County", "types": ["administrative_area_level_2", "political"]}, {"long_name": "California", "short_name": "CA", "types": ["administrative_area_level_1", "political"]}, {"long_name": "United States", "short_name": "US", "types": ["country", "political"]}, {"long_name": "91770", "short_name": "91770", "types": ["postal_code"]}], "formatted_address": "2244 Walnut Grove Ave, Rosemead, CA 91770, USA", "geometry": {"location": {"lat": 34.0539466, "lng": -118.0808098}, "location_type": "ROOFTOP", "viewport": {"northeast": {"lat": 34.0552955802915, "lng": -118.0794608197085}, "southwest": {"lat": 34.0525976197085, "lng": -118.0821587802915}}}, "place_id": "ChIJ63Ac9W7QwoARUtCm6Pgcldw", "types": ["establishment", "point_of_interest"]}]}, "64813649": {"AfN": "southern california gas company", "Location": [{"address_components": [{"long_name": "1919", "short_name": "1919", "types": ["street_number"]}, {"long_name": "South State College Boulevard", "short_name": "S State College Blvd", "types": ["route"]}, {"long_name": "Anaheim Resort", "short_name": "Anaheim Resort", "types": ["neighborhood", "political"]}, {"long_name": "Anaheim", "short_name": "Anaheim", "types": ["locality", "political"]}, {"long_name": "Orange County", "short_name": "Orange County", "types": ["administrative_area_level_2", "political"]}, {"long_name": "California", "short_name": "CA", "types": ["administrative_area_level_1", "political"]}, {"long_name": "United States", "short_name": "US", "types": ["country", "political"]}, {"long_name": "92806", "short_name": "92806", "types": ["postal_code"]}, {"long_name": "6114", "short_name": "6114", "types": ["postal_code_suffix"]}], "formatted_address": "1919 S State College Blvd, Anaheim, CA 92806, USA", "geometry": {"location": {"lat": 33.8011298, "lng": -117.8896553}, "location_type": "ROOFTOP", "viewport": {"northeast": {"lat": 33.80247878029149, "lng": -117.8883063197085}, "southwest": {"lat": 33.7997808197085, "lng": -117.8910042802915}}}, "place_id": "ChIJWbQVcZrX3IARa7ccmV7R6aE", "types": ["establishment", "point_of_interest"]}]}, "206578319": {"AfN": "southern company", "Location": [{"address_components": [{"long_name": "600", "short_name": "600", "types": ["street_number"]}, {"long_name": "18th Street North", "short_name": "18th St N", "types": ["route"]}, {"long_name": "Fountain Heights", "short_name": "Fountain Heights", "types": ["neighborhood", "political"]}, {"long_name": "Birmingham", "short_name": "Birmingham", "types": ["locality", "political"]}, {"long_name": "Jefferson County", "short_name": "Jefferson County", "types": ["administrative_area_level_2", "political"]}, {"long_name": "Alabama", "short_name": "AL", "types": ["administrative_area_level_1", "political"]}, {"long_name": "United States", "short_name": "US", "types": ["country", "political"]}, {"long_name": "35203", "short_name": "35203", "types": ["postal_code"]}], "formatted_address": "600 18th St N, Birmingham, AL 35203, USA", "geometry": {"location": {"lat": 33.5180768, "lng": -86.81289579999999}, "location_type": "ROOFTOP", "viewport": {"northeast": {"lat": 33.5194257802915, "lng": -86.8115468197085}, "southwest": {"lat": 33.5167278197085, "lng": -86.8142447802915}}}, "place_id": "ChIJVXvb1o8biYgRNhsrMAP9X5Y", "types": ["establishment", "point_of_interest"]}]}, "35462925": {"AfN": "southern connecticut state university", "Location": [{"address_components": [{"long_name": "501", "short_name": "501", "types": ["street_number"]}, {"long_name": "Crescent Street", "short_name": "Crescent St", "types": ["route"]}, {"long_name": "Beaver Hills", "short_name": "Beaver Hills", "types": ["neighborhood", "political"]}, {"long_name": "New Haven", "short_name": "New Haven", "types": ["locality", "political"]}, {"long_name": "New Haven County", "short_name": "New Haven County", "types": ["administrative_area_level_2", "political"]}, {"long_name": "Connecticut", "short_name": "CT", "types": ["administrative_area_level_1", "political"]}, {"long_name": "United States", "short_name": "US", "types": ["country", "political"]}, {"long_name": "06515", "short_name": "06515", "types": ["postal_code"]}], "formatted_address": "501 Crescent St, New Haven, CT 06515, USA", "geometry": {"location": {"lat": 41.332566, "lng": -72.947462}, "location_type": "ROOFTOP", "viewport": {"northeast": {"lat": 41.3339149802915, "lng": -72.9461130197085}, "southwest": {"lat": 41.3312170197085, "lng": -72.94881098029151}}}, "place_id": "ChIJ7T8URHbZ54kRfdCTR_6AvCQ", "types": ["establishment", "point_of_interest", "university"]}]}, "66809481": {"AfN": "southern cross university", "Location": [{"address_components": [{"long_name": "Military Road", "short_name": "Military Rd", "types": ["route"]}, {"long_name": "East Lismore", "short_name": "East Lismore", "types": ["locality", "political"]}, {"long_name": "Lismore City Council", "short_name": "Lismore", "types": ["administrative_area_level_2", "political"]}, {"long_name": "New South Wales", "short_name": "NSW", "types": ["administrative_area_level_1", "political"]}, {"long_name": "Australia", "short_name": "AU", "types": ["country", "political"]}, {"long_name": "2480", "short_name": "2480", "types": ["postal_code"]}], "formatted_address": "Military Rd, East Lismore NSW 2480, Australia", "geometry": {"location": {"lat": -28.81799, "lng": 153.297815}, "location_type": "GEOMETRIC_CENTER", "viewport": {"northeast": {"lat": -28.8166410197085, "lng": 153.2991639802915}, "southwest": {"lat": -28.8193389802915, "lng": 153.2964660197085}}}, "place_id": "ChIJeX9C2f-dkGsR7UUU7AoRjE0", "types": ["establishment", "point_of_interest", "university"]}]}, "137534880": {"AfN": "southern federal university", "Location": [{"address_components": [{"long_name": "105", "short_name": "105", "types": ["street_number"]}, {"long_name": "Bol'shaya Sadovaya Ulitsa", "short_name": "Bol'shaya Sadovaya Ulitsa", "types": ["route"]}, {"long_name": "Rostov", "short_name": "Rostov", "types": ["locality", "political"]}, {"long_name": "Gorod Rostov-On-Don", "short_name": "Gorod Rostov-On-Don", "types": ["administrative_area_level_2", "political"]}, {"long_name": "Rostovskaya oblast'", "short_name": "Rostovskaya oblast'", "types": ["administrative_area_level_1", "political"]}, {"long_name": "Russia", "short_name": "RU", "types": ["country", "political"]}, {"long_name": "344006", "short_name": "344006", "types": ["postal_code"]}], "formatted_address": "Bol'shaya Sadovaya Ulitsa, 105, Rostov, Rostovskaya oblast', Russia, 344006", "geometry": {"location": {"lat": 47.2247678, "lng": 39.72859589999999}, "location_type": "ROOFTOP", "viewport": {"northeast": {"lat": 47.2261167802915, "lng": 39.72994488029149}, "southwest": {"lat": 47.2234188197085, "lng": 39.7272469197085}}}, "place_id": "ChIJveIK45-540ARHAFBDksEhsU", "types": ["establishment", "point_of_interest", "university"]}]}, "110378019": {"AfN": "southern illinois university carbondale", "Location": [{"address_components": [{"long_name": "1263", "short_name": "1263", "types": ["street_number"]}, {"long_name": "Lincoln Drive", "short_name": "Lincoln Dr", "types": ["route"]}, {"long_name": "Carbondale", "short_name": "Carbondale", "types": ["locality", "political"]}, {"long_name": "Carbondale Township", "short_name": "Carbondale Township", "types": ["administrative_area_level_3", "political"]}, {"long_name": "Jackson County", "short_name": "Jackson County", "types": ["administrative_area_level_2", "political"]}, {"long_name": "Illinois", "short_name": "IL", "types": ["administrative_area_level_1", "political"]}, {"long_name": "United States", "short_name": "US", "types": ["country", "political"]}, {"long_name": "62901", "short_name": "62901", "types": ["postal_code"]}], "formatted_address": "1263 Lincoln Dr, Carbondale, IL 62901, USA", "geometry": {"location": {"lat": 37.7090577, "lng": -89.22491339999999}, "location_type": "ROOFTOP", "viewport": {"northeast": {"lat": 37.7104066802915, "lng": -89.22356441970848}, "southwest": {"lat": 37.7077087197085, "lng": -89.22626238029149}}}, "place_id": "ChIJA_wI6TwSd4gR0zAAt4nEmJY", "types": ["establishment", "point_of_interest", "university"]}]}, "87547150": {"AfN": "southern illinois university edwardsville", "Location": [{"address_components": [{"long_name": "1", "short_name": "1", "types": ["street_number"]}, {"long_name": "Hairpin Drive", "short_name": "Hairpin Dr", "types": ["route"]}, {"long_name": "Edwardsville", "short_name": "Edwardsville", "types": ["locality", "political"]}, {"long_name": "Edwardsville Township", "short_name": "Edwardsville Township", "types": ["administrative_area_level_3", "political"]}, {"long_name": "Madison County", "short_name": "Madison County", "types": ["administrative_area_level_2", "political"]}, {"long_name": "Illinois", "short_name": "IL", "types": ["administrative_area_level_1", "political"]}, {"long_name": "United States", "short_name": "US", "types": ["country", "political"]}, {"long_name": "62025", "short_name": "62025", "types": ["postal_code"]}], "formatted_address": "1 Hairpin Dr, Edwardsville, IL 62025, USA", "geometry": {"location": {"lat": 38.793103, "lng": -89.995654}, "location_type": "ROOFTOP", "viewport": {"northeast": {"lat": 38.7944519802915, "lng": -89.99430501970849}, "southwest": {"lat": 38.7917540197085, "lng": -89.99700298029151}}}, "place_id": "ChIJZWOKnHX4dYgRNigupp9DQ3s", "types": ["establishment", "point_of_interest", "university"]}]}, "196729704": {"AfN": "southern illinois university school of medicine", "Location": [{"address_components": [{"long_name": "801", "short_name": "801", "types": ["street_number"]}, {"long_name": "North Rutledge Street", "short_name": "N Rutledge St", "types": ["route"]}, {"long_name": "Oak Ridge", "short_name": "Oak Ridge", "types": ["neighborhood", "political"]}, {"long_name": "Springfield", "short_name": "Springfield", "types": ["locality", "political"]}, {"long_name": "Capital Township", "short_name": "Capital Township", "types": ["administrative_area_level_3", "political"]}, {"long_name": "Sangamon County", "short_name": "Sangamon County", "types": ["administrative_area_level_2", "political"]}, {"long_name": "Illinois", "short_name": "IL", "types": ["administrative_area_level_1", "political"]}, {"long_name": "United States", "short_name": "US", "types": ["country", "political"]}, {"long_name": "62702", "short_name": "62702", "types": ["postal_code"]}, {"long_name": "4968", "short_name": "4968", "types": ["postal_code_suffix"]}], "formatted_address": "801 N Rutledge St, Springfield, IL 62702, USA", "geometry": {"location": {"lat": 39.8102131, "lng": -89.6576482}, "location_type": "ROOFTOP", "viewport": {"northeast": {"lat": 39.81156208029149, "lng": -89.6562992197085}, "southwest": {"lat": 39.8088641197085, "lng": -89.65899718029151}}}, "place_id": "ChIJs9kbb9E5dYgRADR7_nth5L8", "types": ["establishment", "health", "point_of_interest", "school", "university"]}, {"address_components": [{"long_name": "2800", "short_name": "2800", "types": ["street_number"]}, {"long_name": "College Avenue", "short_name": "College Ave", "types": ["route"]}, {"long_name": "Alton", "short_name": "Alton", "types": ["locality", "political"]}, {"long_name": "Alton Township", "short_name": "Alton Township", "types": ["administrative_area_level_3", "political"]}, {"long_name": "Madison County", "short_name": "Madison County", "types": ["administrative_area_level_2", "political"]}, {"long_name": "Illinois", "short_name": "IL", "types": ["administrative_area_level_1", "political"]}, {"long_name": "United States", "short_name": "US", "types": ["country", "political"]}, {"long_name": "62002", "short_name": "62002", "types": ["postal_code"]}, {"long_name": "4742", "short_name": "4742", "types": ["postal_code_suffix"]}], "formatted_address": "2800 College Ave, Alton, IL 62002, USA", "geometry": {"location": {"lat": 38.90293399999999, "lng": -90.14320939999999}, "location_type": "ROOFTOP", "viewport": {"northeast": {"lat": 38.9042829802915, "lng": -90.14186041970848}, "southwest": {"lat": 38.9015850197085, "lng": -90.14455838029149}}}, "place_id": "ChIJZSKf_FVb34cRXFEmciNU3PA", "types": ["establishment", "health", "point_of_interest", "school", "university"]}]}, "58200834": {"AfN": "southern medical university", "Location": [{"address_components": [{"long_name": "Baiyun", "short_name": "Baiyun", "types": ["political", "sublocality", "sublocality_level_1"]}, {"long_name": "Guangzhou", "short_name": "Guangzhou", "types": ["locality", "political"]}, {"long_name": "Guangdong", "short_name": "Guangdong", "types": ["administrative_area_level_1", "political"]}, {"long_name": "China", "short_name": "CN", "types": ["country", "political"]}], "formatted_address": "China, Guangdong, Guangzhou, Baiyun, \u6c99\u592a\u8def1838\u53f7", "geometry": {"location": {"lat": 23.182586, "lng": 113.334184}, "location_type": "GEOMETRIC_CENTER", "viewport": {"northeast": {"lat": 23.1839349802915, "lng": 113.3355329802915}, "southwest": {"lat": 23.1812370197085, "lng": 113.3328350197085}}}, "place_id": "ChIJowW0SSv8AjQR7A4uUxyeHJA", "types": ["establishment", "point_of_interest", "university"]}]}, "178169726": {"AfN": "southern methodist university", "Location": [{"address_components": [{"long_name": "Dallas", "short_name": "Dallas", "types": ["locality", "political"]}, {"long_name": "Park Cities", "short_name": "Park Cities", "types": ["neighborhood", "political"]}, {"long_name": "Dallas County", "short_name": "Dallas County", "types": ["administrative_area_level_2", "political"]}, {"long_name": "Texas", "short_name": "TX", "types": ["administrative_area_level_1", "political"]}, {"long_name": "United States", "short_name": "US", "types": ["country", "political"]}, {"long_name": "75205", "short_name": "75205", "types": ["postal_code"]}], "formatted_address": "Dallas, TX 75205, USA", "geometry": {"location": {"lat": 32.8412178, "lng": -96.78451749999999}, "location_type": "GEOMETRIC_CENTER", "viewport": {"northeast": {"lat": 32.8425667802915, "lng": -96.7831685197085}, "southwest": {"lat": 32.8398688197085, "lng": -96.7858664802915}}}, "place_id": "ChIJFU7ARwSfToYRLlSZG7jKX8A", "types": ["establishment", "point_of_interest", "university"]}]}, "1196224": {"AfN": "southern nazarene university", "Location": [{"address_components": [{"long_name": "6729", "short_name": "6729", "types": ["street_number"]}, {"long_name": "Northwest 39th Expressway", "short_name": "NW 39th Expy", "types": ["route"]}, {"long_name": "Central Oklahoma City", "short_name": "Central Oklahoma City", "types": ["neighborhood", "political"]}, {"long_name": "Bethany", "short_name": "Bethany", "types": ["locality", "political"]}, {"long_name": "Oklahoma County", "short_name": "Oklahoma County", "types": ["administrative_area_level_2", "political"]}, {"long_name": "Oklahoma", "short_name": "OK", "types": ["administrative_area_level_1", "political"]}, {"long_name": "United States", "short_name": "US", "types": ["country", "political"]}, {"long_name": "73008", "short_name": "73008", "types": ["postal_code"]}, {"long_name": "2694", "short_name": "2694", "types": ["postal_code_suffix"]}], "formatted_address": "6729 NW 39th Expy, Bethany, OK 73008, USA", "geometry": {"location": {"lat": 35.513507, "lng": -97.629217}, "location_type": "ROOFTOP", "viewport": {"northeast": {"lat": 35.5148559802915, "lng": -97.6278680197085}, "southwest": {"lat": 35.5121580197085, "lng": -97.63056598029151}}}, "place_id": "ChIJHYsS70IFsocRacAsVM3VgCk", "types": ["establishment", "point_of_interest", "university"]}]}, "1309016818": {"AfN": "southern nevada water authority", "Location": [{"address_components": [{"long_name": "1001", "short_name": "1001", "types": ["street_number"]}, {"long_name": "South Valley View Boulevard", "short_name": "S Valley View Blvd", "types": ["route"]}, {"long_name": "Palomino Area", "short_name": "Palomino Area", "types": ["neighborhood", "political"]}, {"long_name": "Las Vegas", "short_name": "Las Vegas", "types": ["locality", "political"]}, {"long_name": "Clark County", "short_name": "Clark County", "types": ["administrative_area_level_2", "political"]}, {"long_name": "Nevada", "short_name": "NV", "types": ["administrative_area_level_1", "political"]}, {"long_name": "United States", "short_name": "US", "types": ["country", "political"]}, {"long_name": "89107", "short_name": "89107", "types": ["postal_code"]}, {"long_name": "4447", "short_name": "4447", "types": ["postal_code_suffix"]}], "formatted_address": "1001 S Valley View Blvd, Las Vegas, NV 89107, USA", "geometry": {"location": {"lat": 36.15966, "lng": -115.1917576}, "location_type": "ROOFTOP", "viewport": {"northeast": {"lat": 36.16100898029149, "lng": -115.1904086197085}, "southwest": {"lat": 36.15831101970849, "lng": -115.1931065802915}}}, "place_id": "ChIJU1XlLWPByIARfBFrqKGDTZA", "types": ["establishment", "local_government_office", "point_of_interest"]}]}, "33308869": {"AfN": "southern new hampshire university", "Location": [{"address_components": [{"long_name": "2500", "short_name": "2500", "types": ["street_number"]}, {"long_name": "North River Road", "short_name": "N River Rd", "types": ["route"]}, {"long_name": "South Hooksett", "short_name": "South Hooksett", "types": ["neighborhood", "political"]}, {"long_name": "Hooksett", "short_name": "Hooksett", "types": ["locality", "political"]}, {"long_name": "Hooksett", "short_name": "Hooksett", "types": ["administrative_area_level_3", "political"]}, {"long_name": "Merrimack County", "short_name": "Merrimack County", "types": ["administrative_area_level_2", "political"]}, {"long_name": "New Hampshire", "short_name": "NH", "types": ["administrative_area_level_1", "political"]}, {"long_name": "United States", "short_name": "US", "types": ["country", "political"]}, {"long_name": "03106", "short_name": "03106", "types": ["postal_code"]}], "formatted_address": "2500 N River Rd, Hooksett, NH 03106, USA", "geometry": {"location": {"lat": 43.0407729, "lng": -71.4531836}, "location_type": "ROOFTOP", "viewport": {"northeast": {"lat": 43.0421218802915, "lng": -71.45183461970849}, "southwest": {"lat": 43.0394239197085, "lng": -71.4545325802915}}}, "place_id": "ChIJLWcsGJVF4okRnlf9v_TJ-Ro", "types": ["establishment", "point_of_interest", "university"]}]}, "75909800": {"AfN": "southern oregon university", "Location": [{"address_components": [{"long_name": "1250", "short_name": "1250", "types": ["street_number"]}, {"long_name": "Siskiyou Boulevard", "short_name": "Siskiyou Blvd", "types": ["route"]}, {"long_name": "Ashland", "short_name": "Ashland", "types": ["locality", "political"]}, {"long_name": "Jackson County", "short_name": "Jackson County", "types": ["administrative_area_level_2", "political"]}, {"long_name": "Oregon", "short_name": "OR", "types": ["administrative_area_level_1", "political"]}, {"long_name": "United States", "short_name": "US", "types": ["country", "political"]}, {"long_name": "97520", "short_name": "97520", "types": ["postal_code"]}], "formatted_address": "1250 Siskiyou Blvd, Ashland, OR 97520, USA", "geometry": {"location": {"lat": 42.1859996, "lng": -122.6959071}, "location_type": "ROOFTOP", "viewport": {"northeast": {"lat": 42.1873485802915, "lng": -122.6945581197085}, "southwest": {"lat": 42.1846506197085, "lng": -122.6972560802915}}}, "place_id": "ChIJnaZeYqMMz1QRncwVeD-cAKs", "types": ["establishment", "point_of_interest", "university"]}]}, "206426949": {"AfN": "southern polytechnic state university", "Location": [{"address_components": [{"long_name": "1100", "short_name": "1100", "types": ["street_number"]}, {"long_name": "South Marietta Parkway Southeast", "short_name": "South Marietta Pkwy SE", "types": ["route"]}, {"long_name": "Marietta", "short_name": "Marietta", "types": ["locality", "political"]}, {"long_name": "Cobb County", "short_name": "Cobb County", "types": ["administrative_area_level_2", "political"]}, {"long_name": "Georgia", "short_name": "GA", "types": ["administrative_area_level_1", "political"]}, {"long_name": "United States", "short_name": "US", "types": ["country", "political"]}, {"long_name": "30060", "short_name": "30060", "types": ["postal_code"]}], "formatted_address": "1100 South Marietta Pkwy SE, Marietta, GA 30060, USA", "geometry": {"location": {"lat": 33.9383387, "lng": -84.5197931}, "location_type": "ROOFTOP", "viewport": {"northeast": {"lat": 33.9396876802915, "lng": -84.51844411970849}, "southwest": {"lat": 33.9369897197085, "lng": -84.52114208029151}}}, "place_id": "ChIJJyAxEFUR9YgRnPs6cPl2zoE", "types": ["establishment", "point_of_interest", "university"]}]}, "108109523": {"AfN": "southern research institute", "Location": [{"address_components": [{"long_name": "2000", "short_name": "2000", "types": ["street_number"]}, {"long_name": "9th Avenue South", "short_name": "9th Ave S", "types": ["route"]}, {"long_name": "Five Points South", "short_name": "Five Points South", "types": ["neighborhood", "political"]}, {"long_name": "Birmingham", "short_name": "Birmingham", "types": ["locality", "political"]}, {"long_name": "Jefferson County", "short_name": "Jefferson County", "types": ["administrative_area_level_2", "political"]}, {"long_name": "Alabama", "short_name": "AL", "types": ["administrative_area_level_1", "political"]}, {"long_name": "United States", "short_name": "US", "types": ["country", "political"]}, {"long_name": "35205", "short_name": "35205", "types": ["postal_code"]}, {"long_name": "2708", "short_name": "2708", "types": ["postal_code_suffix"]}], "formatted_address": "2000 9th Ave S, Birmingham, AL 35205, USA", "geometry": {"location": {"lat": 33.503173, "lng": -86.79733399999999}, "location_type": "ROOFTOP", "viewport": {"northeast": {"lat": 33.5045219802915, "lng": -86.79598501970848}, "southwest": {"lat": 33.5018240197085, "lng": -86.79868298029149}}}, "place_id": "ChIJUU8k8sYbiYgRE1m6SJ1OR40", "types": ["establishment", "point_of_interest"]}]}, "145610796": {"AfN": "southern university and a m college", "Location": [{"address_components": [{"long_name": "801", "short_name": "801", "types": ["street_number"]}, {"long_name": "Harding Boulevard", "short_name": "Harding Blvd", "types": ["route"]}, {"long_name": "Baton Rouge", "short_name": "Baton Rouge", "types": ["locality", "political"]}, {"long_name": "2", "short_name": "2", "types": ["administrative_area_level_3", "political"]}, {"long_name": "East Baton Rouge Parish", "short_name": "East Baton Rouge Parish", "types": ["administrative_area_level_2", "political"]}, {"long_name": "Louisiana", "short_name": "LA", "types": ["administrative_area_level_1", "political"]}, {"long_name": "United States", "short_name": "US", "types": ["country", "political"]}, {"long_name": "70807", "short_name": "70807", "types": ["postal_code"]}], "formatted_address": "801 Harding Blvd, Baton Rouge, LA 70807, USA", "geometry": {"location": {"lat": 30.5267645, "lng": -91.1935768}, "location_type": "ROOFTOP", "viewport": {"northeast": {"lat": 30.5281134802915, "lng": -91.19222781970849}, "southwest": {"lat": 30.5254155197085, "lng": -91.19492578029151}}}, "place_id": "ChIJt12yNoufJoYRWKaZLod_BYI", "types": ["establishment", "point_of_interest", "university"]}]}, "110496330": {"AfN": "southern utah university", "Location": [{"address_components": [{"long_name": "351", "short_name": "351", "types": ["street_number"]}, {"long_name": "West University Boulevard", "short_name": "W University Blvd", "types": ["route"]}, {"long_name": "Cedar City", "short_name": "Cedar City", "types": ["locality", "political"]}, {"long_name": "Iron County", "short_name": "Iron County", "types": ["administrative_area_level_2", "political"]}, {"long_name": "Utah", "short_name": "UT", "types": ["administrative_area_level_1", "political"]}, {"long_name": "United States", "short_name": "US", "types": ["country", "political"]}, {"long_name": "84720", "short_name": "84720", "types": ["postal_code"]}], "formatted_address": "351 W University Blvd, Cedar City, UT 84720, USA", "geometry": {"location": {"lat": 37.676444, "lng": -113.071332}, "location_type": "ROOFTOP", "viewport": {"northeast": {"lat": 37.67779298029149, "lng": -113.0699830197085}, "southwest": {"lat": 37.67509501970849, "lng": -113.0726809802915}}}, "place_id": "ChIJfd_0871htYAR3Ee3JYI7pOg", "types": ["establishment", "point_of_interest", "university"]}]}, "345918524": {"AfN": "southwest bahia state university", "Location": [{"address_components": [{"long_name": "Itapetinga", "short_name": "Itapetinga", "types": ["administrative_area_level_2", "political"]}, {"long_name": "Bahia", "short_name": "BA", "types": ["administrative_area_level_1", "political"]}, {"long_name": "Brazil", "short_name": "BR", "types": ["country", "political"]}, {"long_name": "45700-000", "short_name": "45700-000", "types": ["postal_code"]}], "formatted_address": "Estrada Itapetinga/Itamb\u00e9 - s/n, Itapetinga - BA, 45700-000, Brazil", "geometry": {"location": {"lat": -15.2550535, "lng": -40.2709711}, "location_type": "GEOMETRIC_CENTER", "viewport": {"northeast": {"lat": -15.2537045197085, "lng": -40.2696221197085}, "southwest": {"lat": -15.2564024802915, "lng": -40.27232008029149}}}, "place_id": "ChIJAQAAAAADSAcRuz3cfW9b7o4", "types": ["establishment", "point_of_interest", "university"]}]}, "1307786651": {"AfN": "southwest florida water management district", "Location": [{"address_components": [{"long_name": "6750", "short_name": "6750", "types": ["street_number"]}, {"long_name": "Fruitville Road", "short_name": "Fruitville Rd", "types": ["route"]}, {"long_name": "Sarasota", "short_name": "Sarasota", "types": ["locality", "political"]}, {"long_name": "Sarasota County", "short_name": "Sarasota County", "types": ["administrative_area_level_2", "political"]}, {"long_name": "Florida", "short_name": "FL", "types": ["administrative_area_level_1", "political"]}, {"long_name": "United States", "short_name": "US", "types": ["country", "political"]}, {"long_name": "34240", "short_name": "34240", "types": ["postal_code"]}, {"long_name": "9711", "short_name": "9711", "types": ["postal_code_suffix"]}], "formatted_address": "6750 Fruitville Rd, Sarasota, FL 34240, USA", "geometry": {"location": {"lat": 27.3376895, "lng": -82.43524239999999}, "location_type": "ROOFTOP", "viewport": {"northeast": {"lat": 27.3390384802915, "lng": -82.43389341970848}, "southwest": {"lat": 27.3363405197085, "lng": -82.4365913802915}}}, "place_id": "ChIJi9QyIXlHw4gRLGHh7Fy5XpU", "types": ["establishment", "point_of_interest"]}]}, "25399270": {"AfN": "southwest forestry university", "Location": [{"address_components": [{"long_name": "Bohai Road", "short_name": "Bohai Rd", "types": ["route"]}, {"long_name": "Panlong Qu", "short_name": "Panlong Qu", "types": ["political", "sublocality", "sublocality_level_1"]}, {"long_name": "Kunming Shi", "short_name": "Kunming Shi", "types": ["locality", "political"]}, {"long_name": "Yunnan Sheng", "short_name": "Yunnan Sheng", "types": ["administrative_area_level_1", "political"]}, {"long_name": "China", "short_name": "CN", "types": ["country", "political"]}, {"long_name": "650000", "short_name": "650000", "types": ["postal_code"]}], "formatted_address": "Bohai Rd, Panlong Qu, Kunming Shi, Yunnan Sheng, China, 650000", "geometry": {"location": {"lat": 25.063993, "lng": 102.754576}, "location_type": "GEOMETRIC_CENTER", "viewport": {"northeast": {"lat": 25.0653419802915, "lng": 102.7559249802915}, "southwest": {"lat": 25.0626440197085, "lng": 102.7532270197085}}}, "place_id": "ChIJO852MKqB0DYRErSqzrgtdq0", "types": ["establishment", "point_of_interest", "university"]}]}, "4800084": {"AfN": "southwest jiaotong university", "Location": [{"address_components": [{"long_name": "1", "short_name": "1", "types": ["street_number"]}, {"long_name": "Jingqu Road", "short_name": "Jingqu Rd", "types": ["route"]}, {"long_name": "Emeishan Shi", "short_name": "Emeishan Shi", "types": ["political", "sublocality", "sublocality_level_1"]}, {"long_name": "Leshan Shi", "short_name": "Leshan Shi", "types": ["locality", "political"]}, {"long_name": "Sichuan Sheng", "short_name": "Sichuan Sheng", "types": ["administrative_area_level_1", "political"]}, {"long_name": "China", "short_name": "CN", "types": ["country", "political"]}], "formatted_address": "1 Jingqu Rd, Emeishan Shi, Leshan Shi, Sichuan Sheng, China", "geometry": {"location": {"lat": 29.567872, "lng": 103.452145}, "location_type": "ROOFTOP", "viewport": {"northeast": {"lat": 29.5692209802915, "lng": 103.4534939802915}, "southwest": {"lat": 29.5665230197085, "lng": 103.4507960197085}}}, "place_id": "ChIJm0ef21D55TYRM1F0DOuNsZU", "types": ["establishment", "point_of_interest", "university"]}]}, "165745306": {"AfN": "southwest petroleum university", "Location": [{"address_components": [{"long_name": "8", "short_name": "8", "types": ["street_number"]}, {"long_name": "Xindu Avenue", "short_name": "Xindu Ave", "types": ["route"]}, {"long_name": "Xindu Qu", "short_name": "Xindu Qu", "types": ["political", "sublocality", "sublocality_level_1"]}, {"long_name": "Chengdu Shi", "short_name": "Chengdu Shi", "types": ["locality", "political"]}, {"long_name": "Sichuan Sheng", "short_name": "Sichuan Sheng", "types": ["administrative_area_level_1", "political"]}, {"long_name": "China", "short_name": "CN", "types": ["country", "political"]}], "formatted_address": "8 Xindu Ave, Xindu Qu, Chengdu Shi, Sichuan Sheng, China", "geometry": {"location": {"lat": 30.821792, "lng": 104.183563}, "location_type": "ROOFTOP", "viewport": {"northeast": {"lat": 30.82314098029149, "lng": 104.1849119802915}, "southwest": {"lat": 30.8204430197085, "lng": 104.1822140197085}}}, "place_id": "ChIJyd9HDw3W7zYRPrc235f1t28", "types": ["establishment", "point_of_interest", "university"]}]}, "1290463931": {"AfN": "southwest research institute", "Location": [{"address_components": [{"long_name": "6220", "short_name": "6220", "types": ["street_number"]}, {"long_name": "Culebra Road", "short_name": "Culebra Rd", "types": ["route"]}, {"long_name": "Inner West Side", "short_name": "Inner West Side", "types": ["neighborhood", "political"]}, {"long_name": "San Antonio", "short_name": "San Antonio", "types": ["locality", "political"]}, {"long_name": "Bexar County", "short_name": "Bexar County", "types": ["administrative_area_level_2", "political"]}, {"long_name": "Texas", "short_name": "TX", "types": ["administrative_area_level_1", "political"]}, {"long_name": "United States", "short_name": "US", "types": ["country", "political"]}, {"long_name": "78238", "short_name": "78238", "types": ["postal_code"]}], "formatted_address": "6220 Culebra Rd, San Antonio, TX 78238, USA", "geometry": {"location": {"lat": 29.4521256, "lng": -98.6102811}, "location_type": "ROOFTOP", "viewport": {"northeast": {"lat": 29.4534745802915, "lng": -98.6089321197085}, "southwest": {"lat": 29.4507766197085, "lng": -98.6116300802915}}}, "place_id": "ChIJ_8dKB1pcXIYRFmNk_SK8hQI", "types": ["establishment", "point_of_interest"]}]}, "142108993": {"AfN": "southwest university", "Location": [{"address_components": [{"long_name": "1414", "short_name": "1414", "types": ["street_number"]}, {"long_name": "Geronimo Drive", "short_name": "Geronimo Dr", "types": ["route"]}, {"long_name": "El Paso", "short_name": "El Paso", "types": ["locality", "political"]}, {"long_name": "El Paso County", "short_name": "El Paso County", "types": ["administrative_area_level_2", "political"]}, {"long_name": "Texas", "short_name": "TX", "types": ["administrative_area_level_1", "political"]}, {"long_name": "United States", "short_name": "US", "types": ["country", "political"]}, {"long_name": "79925", "short_name": "79925", "types": ["postal_code"]}, {"long_name": "1814", "short_name": "1814", "types": ["postal_code_suffix"]}], "formatted_address": "1414 Geronimo Dr, El Paso, TX 79925, USA", "geometry": {"location": {"lat": 31.788283, "lng": -106.412974}, "location_type": "ROOFTOP", "viewport": {"northeast": {"lat": 31.7896319802915, "lng": -106.4116250197085}, "southwest": {"lat": 31.7869340197085, "lng": -106.4143229802915}}}, "place_id": "ChIJn5KGL0Za54YRUf3X6M3p3Mg", "types": ["establishment", "point_of_interest", "university"]}]}, "1297991670": {"AfN": "southwest university of science and technology", "Location": [{"address_components": [{"long_name": "59\u53f7", "short_name": "59\u53f7", "types": ["street_number"]}, {"long_name": "\u9752\u9f99\u5927\u9053\u4e2d\u6bb5", "short_name": "\u9752\u9f99\u5927\u9053\u4e2d\u6bb5", "types": ["route"]}, {"long_name": "Fucheng Qu", "short_name": "Fucheng Qu", "types": ["political", "sublocality", "sublocality_level_1"]}, {"long_name": "Mianyang Shi", "short_name": "Mianyang Shi", "types": ["locality", "political"]}, {"long_name": "Sichuan Sheng", "short_name": "Sichuan Sheng", "types": ["administrative_area_level_1", "political"]}, {"long_name": "China", "short_name": "CN", "types": ["country", "political"]}], "formatted_address": "China, Sichuan Sheng, Mianyang Shi, Fucheng Qu, \u9752\u9f99\u5927\u9053\u4e2d\u6bb559\u53f7", "geometry": {"location": {"lat": 31.534842, "lng": 104.690246}, "location_type": "ROOFTOP", "viewport": {"northeast": {"lat": 31.53619098029149, "lng": 104.6915949802915}, "southwest": {"lat": 31.5334930197085, "lng": 104.6888970197085}}}, "place_id": "ChIJuaDsghB18TYRno9IdOBboT0", "types": ["establishment", "point_of_interest", "university"]}]}, "47636678": {"AfN": "southwestern law school", "Location": [{"address_components": [{"long_name": "3050", "short_name": "3050", "types": ["street_number"]}, {"long_name": "Wilshire Boulevard", "short_name": "Wilshire Blvd", "types": ["route"]}, {"long_name": "Central LA", "short_name": "Central LA", "types": ["neighborhood", "political"]}, {"long_name": "Los Angeles", "short_name": "Los Angeles", "types": ["locality", "political"]}, {"long_name": "Los Angeles County", "short_name": "Los Angeles County", "types": ["administrative_area_level_2", "political"]}, {"long_name": "California", "short_name": "CA", "types": ["administrative_area_level_1", "political"]}, {"long_name": "United States", "short_name": "US", "types": ["country", "political"]}, {"long_name": "90010", "short_name": "90010", "types": ["postal_code"]}, {"long_name": "1106", "short_name": "1106", "types": ["postal_code_suffix"]}], "formatted_address": "3050 Wilshire Blvd, Los Angeles, CA 90010, USA", "geometry": {"location": {"lat": 34.0614, "lng": -118.288488}, "location_type": "ROOFTOP", "viewport": {"northeast": {"lat": 34.0627489802915, "lng": -118.2871390197085}, "southwest": {"lat": 34.0600510197085, "lng": -118.2898369802915}}}, "place_id": "ChIJ3eR0rJq4woARKj8PohbVEvs", "types": ["establishment", "point_of_interest", "university"]}]}, "8616870": {"AfN": "southwestern university", "Location": [{"address_components": [{"long_name": "1001", "short_name": "1001", "types": ["street_number"]}, {"long_name": "East University Avenue", "short_name": "E University Ave", "types": ["route"]}, {"long_name": "Georgetown", "short_name": "Georgetown", "types": ["locality", "political"]}, {"long_name": "Williamson County", "short_name": "Williamson County", "types": ["administrative_area_level_2", "political"]}, {"long_name": "Texas", "short_name": "TX", "types": ["administrative_area_level_1", "political"]}, {"long_name": "United States", "short_name": "US", "types": ["country", "political"]}, {"long_name": "78626", "short_name": "78626", "types": ["postal_code"]}], "formatted_address": "1001 E University Ave, Georgetown, TX 78626, USA", "geometry": {"location": {"lat": 30.6349251, "lng": -97.66512680000001}, "location_type": "ROOFTOP", "viewport": {"northeast": {"lat": 30.6362740802915, "lng": -97.66377781970851}, "southwest": {"lat": 30.6335761197085, "lng": -97.66647578029152}}}, "place_id": "ChIJbT-9R07WRIYRs0rIFBl0QNI", "types": ["establishment", "point_of_interest", "university"]}]}, "204831749": {"AfN": "southwestern university of finance and economics", "Location": [{"address_components": [{"long_name": "55", "short_name": "55", "types": ["street_number"]}, {"long_name": "Guanghuacun Street", "short_name": "Guanghuacun St", "types": ["route"]}, {"long_name": "Qingyang", "short_name": "Qingyang", "types": ["political", "sublocality", "sublocality_level_1"]}, {"long_name": "Chengdu", "short_name": "Chengdu", "types": ["locality", "political"]}, {"long_name": "Sichuan", "short_name": "Sichuan", "types": ["administrative_area_level_1", "political"]}, {"long_name": "China", "short_name": "CN", "types": ["country", "political"]}], "formatted_address": "China, Sichuan, Chengdu, Qingyang, Guanghuacun St, 55\u53f7\u964416", "geometry": {"location": {"lat": 30.662819, "lng": 104.016322}, "location_type": "ROOFTOP", "viewport": {"northeast": {"lat": 30.6641679802915, "lng": 104.0176709802915}, "southwest": {"lat": 30.6614700197085, "lng": 104.0149730197085}}}, "place_id": "ChIJzRXHe6PE7zYRVNDcmsOeK78", "types": ["establishment", "point_of_interest", "university"]}]}, "1339224429": {"AfN": "space and naval warfare systems center pacific", "Location": [{"address_components": [{"long_name": "53560", "short_name": "53560", "types": ["street_number"]}, {"long_name": "Hull Street", "short_name": "Hull St", "types": ["route"]}, {"long_name": "Point Loma", "short_name": "Point Loma", "types": ["neighborhood", "political"]}, {"long_name": "San Diego", "short_name": "San Diego", "types": ["locality", "political"]}, {"long_name": "San Diego County", "short_name": "San Diego County", "types": ["administrative_area_level_2", "political"]}, {"long_name": "California", "short_name": "CA", "types": ["administrative_area_level_1", "political"]}, {"long_name": "United States", "short_name": "US", "types": ["country", "political"]}, {"long_name": "92152", "short_name": "92152", "types": ["postal_code"]}, {"long_name": "5001", "short_name": "5001", "types": ["postal_code_suffix"]}], "formatted_address": "53560 Hull St, San Diego, CA 92152, USA", "geometry": {"location": {"lat": 32.708658, "lng": -117.2472491}, "location_type": "ROOFTOP", "viewport": {"northeast": {"lat": 32.7100069802915, "lng": -117.2459001197085}, "southwest": {"lat": 32.7073090197085, "lng": -117.2485980802915}}}, "place_id": "ChIJc5xMRPSr3oARTddTdR-jLZ4", "types": ["establishment", "point_of_interest"]}]}, "122697084": {"AfN": "space research centre", "Location": [{"address_components": [{"long_name": "2101", "short_name": "2101", "types": ["street_number"]}, {"long_name": "East Nasa Parkway", "short_name": "E NASA Pkwy", "types": ["route"]}, {"long_name": "Clear Lake", "short_name": "Clear Lake", "types": ["neighborhood", "political"]}, {"long_name": "Houston", "short_name": "Houston", "types": ["locality", "political"]}, {"long_name": "Harris County", "short_name": "Harris County", "types": ["administrative_area_level_2", "political"]}, {"long_name": "Texas", "short_name": "TX", "types": ["administrative_area_level_1", "political"]}, {"long_name": "United States", "short_name": "US", "types": ["country", "political"]}, {"long_name": "77058", "short_name": "77058", "types": ["postal_code"]}], "formatted_address": "2101 E NASA Pkwy, Houston, TX 77058, USA", "geometry": {"location": {"lat": 29.5626939, "lng": -95.0919852}, "location_type": "ROOFTOP", "viewport": {"northeast": {"lat": 29.5640428802915, "lng": -95.09063621970849}, "southwest": {"lat": 29.5613449197085, "lng": -95.0933341802915}}}, "place_id": "ChIJc29kHLCdQIYRpK0NUf9HKCE", "types": ["establishment", "point_of_interest"]}]}, "1298453700": {"AfN": "space science institute", "Location": [{"address_components": [{"long_name": "# 205", "short_name": "# 205", "types": ["subpremise"]}, {"long_name": "4750", "short_name": "4750", "types": ["street_number"]}, {"long_name": "Walnut Street", "short_name": "Walnut St", "types": ["route"]}, {"long_name": "Boulder", "short_name": "Boulder", "types": ["locality", "political"]}, {"long_name": "Boulder County", "short_name": "Boulder County", "types": ["administrative_area_level_2", "political"]}, {"long_name": "Colorado", "short_name": "CO", "types": ["administrative_area_level_1", "political"]}, {"long_name": "United States", "short_name": "US", "types": ["country", "political"]}, {"long_name": "80301", "short_name": "80301", "types": ["postal_code"]}, {"long_name": "2532", "short_name": "2532", "types": ["postal_code_suffix"]}], "formatted_address": "4750 Walnut St # 205, Boulder, CO 80301, USA", "geometry": {"location": {"lat": 40.0182222, "lng": -105.2410366}, "location_type": "ROOFTOP", "viewport": {"northeast": {"lat": 40.0195711802915, "lng": -105.2396876197085}, "southwest": {"lat": 40.0168732197085, "lng": -105.2423855802915}}}, "place_id": "ChIJJXK-uufta4cR2oNqkzmaeak", "types": ["establishment", "point_of_interest"]}]}, "86773799": {"AfN": "space sciences laboratory", "Location": [{"address_components": [{"long_name": "Space Sciences Laboratory at University of California", "short_name": "Space Sciences Laboratory at University of California", "types": ["premise"]}, {"long_name": "Gauss Way", "short_name": "Gauss Way", "types": ["route"]}, {"long_name": "Berkeley", "short_name": "Berkeley", "types": ["locality", "political"]}, {"long_name": "California", "short_name": "CA", "types": ["administrative_area_level_1", "political"]}, {"long_name": "United States", "short_name": "US", "types": ["country", "political"]}, {"long_name": "94720", "short_name": "94720", "types": ["postal_code"]}], "formatted_address": "5071, Space Sciences Laboratory at University of California, Gauss Way, Berkeley, CA 94720, United States", "geometry": {"location": {"lat": 37.8805941, "lng": -122.2447958}, "location_type": "ROOFTOP", "viewport": {"northeast": {"lat": 37.88194308029149, "lng": -122.2434468197085}, "southwest": {"lat": 37.8792451197085, "lng": -122.2461447802915}}}, "place_id": "ChIJFY9cDT98hYAR3zISDhJikIE", "types": ["establishment", "point_of_interest"]}]}, "122274255": {"AfN": "space telescope european coordinating facility", "Location": []}, "1297127228": {"AfN": "space telescope science institute", "Location": [{"address_components": [{"long_name": "3700", "short_name": "3700", "types": ["street_number"]}, {"long_name": "San Martin Drive", "short_name": "San Martin Dr", "types": ["route"]}, {"long_name": "Johns-Hopkins - Homewood", "short_name": "Johns-Hopkins - Homewood", "types": ["neighborhood", "political"]}, {"long_name": "Baltimore", "short_name": "Baltimore", "types": ["locality", "political"]}, {"long_name": "Maryland", "short_name": "MD", "types": ["administrative_area_level_1", "political"]}, {"long_name": "United States", "short_name": "US", "types": ["country", "political"]}, {"long_name": "21218", "short_name": "21218", "types": ["postal_code"]}, {"long_name": "2463", "short_name": "2463", "types": ["postal_code_suffix"]}], "formatted_address": "3700 San Martin Dr, Baltimore, MD 21218, USA", "geometry": {"location": {"lat": 39.3327283, "lng": -76.6232773}, "location_type": "ROOFTOP", "viewport": {"northeast": {"lat": 39.3340772802915, "lng": -76.6219283197085}, "southwest": {"lat": 39.3313793197085, "lng": -76.62462628029151}}}, "place_id": "ChIJe0_8JSEFyIkRK41fPeUagc8", "types": ["establishment", "point_of_interest"]}]}, "134820265": {"AfN": "spanish national research council", "Location": []}, "1292697047": {"AfN": "sparta inc", "Location": [{"address_components": [{"long_name": "United States", "short_name": "US", "types": ["country", "political"]}], "formatted_address": "United States", "geometry": {"bounds": {"northeast": {"lat": 71.5388001, "lng": -66.885417}, "southwest": {"lat": 18.7763, "lng": 170.5957}}, "location": {"lat": 37.09024, "lng": -95.712891}, "location_type": "APPROXIMATE", "viewport": {"northeast": {"lat": 49.38, "lng": -66.94}, "southwest": {"lat": 25.82, "lng": -124.39}}}, "place_id": "ChIJCzYy5IS16lQRQrfeQ5K5Oxw", "types": ["country", "political"]}]}, "178975111": {"AfN": "spectral sciences incorporated", "Location": [{"address_components": [{"long_name": "4", "short_name": "4", "types": ["street_number"]}, {"long_name": "4th Avenue", "short_name": "4th Ave", "types": ["route"]}, {"long_name": "Burlington", "short_name": "Burlington", "types": ["locality", "political"]}, {"long_name": "Middlesex County", "short_name": "Middlesex County", "types": ["administrative_area_level_2", "political"]}, {"long_name": "Massachusetts", "short_name": "MA", "types": ["administrative_area_level_1", "political"]}, {"long_name": "United States", "short_name": "US", "types": ["country", "political"]}, {"long_name": "01803", "short_name": "01803", "types": ["postal_code"]}, {"long_name": "3304", "short_name": "3304", "types": ["postal_code_suffix"]}], "formatted_address": "4 4th Ave, Burlington, MA 01803, USA", "geometry": {"location": {"lat": 42.4910136, "lng": -71.22691259999999}, "location_type": "ROOFTOP", "viewport": {"northeast": {"lat": 42.49236258029149, "lng": -71.22556361970848}, "southwest": {"lat": 42.4896646197085, "lng": -71.22826158029149}}}, "place_id": "ChIJI21Q3U2e44kRJrW3yyeLAU0", "types": ["establishment", "point_of_interest"]}]}, "146183641": {"AfN": "spectrum health", "Location": [{"address_components": [{"long_name": "2009", "short_name": "2009", "types": ["street_number"]}, {"long_name": "Holton Road", "short_name": "Holton Rd", "types": ["route"]}, {"long_name": "Muskegon", "short_name": "Muskegon", "types": ["locality", "political"]}, {"long_name": "Muskegon County", "short_name": "Muskegon County", "types": ["administrative_area_level_2", "political"]}, {"long_name": "Michigan", "short_name": "MI", "types": ["administrative_area_level_1", "political"]}, {"long_name": "United States", "short_name": "US", "types": ["country", "political"]}, {"long_name": "49445", "short_name": "49445", "types": ["postal_code"]}], "formatted_address": "2009 Holton Rd, Muskegon, MI 49445, USA", "geometry": {"location": {"lat": 43.2900054, "lng": -86.214596}, "location_type": "ROOFTOP", "viewport": {"northeast": {"lat": 43.29135438029149, "lng": -86.21324701970849}, "southwest": {"lat": 43.2886564197085, "lng": -86.21594498029151}}}, "place_id": "ChIJZYpx8N1iGYgREg9-oAaYCI8", "types": ["doctor", "establishment", "health", "point_of_interest"]}]}, "118458328": {"AfN": "spelman college", "Location": [{"address_components": [{"long_name": "350", "short_name": "350", "types": ["street_number"]}, {"long_name": "Spelman Lane", "short_name": "Spelman Ln", "types": ["route"]}, {"long_name": "Atlanta University Center", "short_name": "Atlanta University Center", "types": ["neighborhood", "political"]}, {"long_name": "Atlanta", "short_name": "Atlanta", "types": ["locality", "political"]}, {"long_name": "Fulton County", "short_name": "Fulton County", "types": ["administrative_area_level_2", "political"]}, {"long_name": "Georgia", "short_name": "GA", "types": ["administrative_area_level_1", "political"]}, {"long_name": "United States", "short_name": "US", "types": ["country", "political"]}, {"long_name": "30314", "short_name": "30314", "types": ["postal_code"]}, {"long_name": "4399", "short_name": "4399", "types": ["postal_code_suffix"]}], "formatted_address": "350 Spelman Ln, Atlanta, GA 30314, USA", "geometry": {"location": {"lat": 33.7463597, "lng": -84.41229340000001}, "location_type": "ROOFTOP", "viewport": {"northeast": {"lat": 33.7477086802915, "lng": -84.41094441970851}, "southwest": {"lat": 33.7450107197085, "lng": -84.41364238029152}}}, "place_id": "ChIJe4xn2m4D9YgRFn9Ne-W_0fg", "types": ["establishment", "point_of_interest", "university"]}]}, "873402609": {"AfN": "spoon river college", "Location": [{"address_components": [{"long_name": "23235", "short_name": "23235", "types": ["street_number"]}, {"long_name": "N County Highway 22", "short_name": "County Rd 22", "types": ["route"]}, {"long_name": "Canton", "short_name": "Canton", "types": ["locality", "political"]}, {"long_name": "Buckheart Township", "short_name": "Buckheart Township", "types": ["administrative_area_level_3", "political"]}, {"long_name": "Fulton County", "short_name": "Fulton County", "types": ["administrative_area_level_2", "political"]}, {"long_name": "Illinois", "short_name": "IL", "types": ["administrative_area_level_1", "political"]}, {"long_name": "United States", "short_name": "US", "types": ["country", "political"]}, {"long_name": "61520", "short_name": "61520", "types": ["postal_code"]}], "formatted_address": "23235 N County Highway 22, Canton, IL 61520, USA", "geometry": {"location": {"lat": 40.527696, "lng": -90.07226899999999}, "location_type": "ROOFTOP", "viewport": {"northeast": {"lat": 40.52904498029149, "lng": -90.0709200197085}, "southwest": {"lat": 40.5263470197085, "lng": -90.0736179802915}}}, "place_id": "ChIJ91HrgTMp4IcRlNJrFTRAdfc", "types": ["establishment", "point_of_interest", "university"]}]}, "164141967": {"AfN": "spring arbor university", "Location": [{"address_components": [{"long_name": "106", "short_name": "106", "types": ["street_number"]}, {"long_name": "East Main Street", "short_name": "E Main St", "types": ["route"]}, {"long_name": "Spring Arbor", "short_name": "Spring Arbor", "types": ["locality", "political"]}, {"long_name": "Spring Arbor Township", "short_name": "Spring Arbor Township", "types": ["administrative_area_level_3", "political"]}, {"long_name": "Jackson County", "short_name": "Jackson County", "types": ["administrative_area_level_2", "political"]}, {"long_name": "Michigan", "short_name": "MI", "types": ["administrative_area_level_1", "political"]}, {"long_name": "United States", "short_name": "US", "types": ["country", "political"]}, {"long_name": "49283", "short_name": "49283", "types": ["postal_code"]}, {"long_name": "9701", "short_name": "9701", "types": ["postal_code_suffix"]}], "formatted_address": "106 E Main St, Spring Arbor, MI 49283, USA", "geometry": {"location": {"lat": 42.2078734, "lng": -84.5563208}, "location_type": "ROOFTOP", "viewport": {"northeast": {"lat": 42.2092223802915, "lng": -84.55497181970848}, "southwest": {"lat": 42.2065244197085, "lng": -84.5576697802915}}}, "place_id": "ChIJF1tbDNC3JIgRzN6L7WIQAb0", "types": ["establishment", "point_of_interest", "university"]}]}, "1313014049": {"AfN": "springer science business media", "Location": [{"address_components": [{"long_name": "233", "short_name": "233", "types": ["street_number"]}, {"long_name": "Spring Street", "short_name": "Spring St", "types": ["route"]}, {"long_name": "Manhattan", "short_name": "Manhattan", "types": ["political", "sublocality", "sublocality_level_1"]}, {"long_name": "New York", "short_name": "New York", "types": ["locality", "political"]}, {"long_name": "New York County", "short_name": "New York County", "types": ["administrative_area_level_2", "political"]}, {"long_name": "New York", "short_name": "NY", "types": ["administrative_area_level_1", "political"]}, {"long_name": "United States", "short_name": "US", "types": ["country", "political"]}, {"long_name": "10013", "short_name": "10013", "types": ["postal_code"]}], "formatted_address": "233 Spring St, New York, NY 10013, USA", "geometry": {"location": {"lat": 40.72582200000001, "lng": -74.004834}, "location_type": "ROOFTOP", "viewport": {"northeast": {"lat": 40.72717098029151, "lng": -74.0034850197085}, "southwest": {"lat": 40.72447301970851, "lng": -74.00618298029151}}}, "place_id": "ChIJkwWY54xZwokRue8QR4dskng", "types": ["establishment", "point_of_interest"]}]}, "888934510": {"AfN": "springfield college", "Location": [{"address_components": [{"long_name": "263", "short_name": "263", "types": ["street_number"]}, {"long_name": "Alden Street", "short_name": "Alden St", "types": ["route"]}, {"long_name": "Upper Hill", "short_name": "Upper Hill", "types": ["neighborhood", "political"]}, {"long_name": "Springfield", "short_name": "Springfield", "types": ["locality", "political"]}, {"long_name": "Hampden County", "short_name": "Hampden County", "types": ["administrative_area_level_2", "political"]}, {"long_name": "Massachusetts", "short_name": "MA", "types": ["administrative_area_level_1", "political"]}, {"long_name": "United States", "short_name": "US", "types": ["country", "political"]}, {"long_name": "01109", "short_name": "01109", "types": ["postal_code"]}, {"long_name": "3707", "short_name": "3707", "types": ["postal_code_suffix"]}], "formatted_address": "263 Alden St, Springfield, MA 01109, USA", "geometry": {"location": {"lat": 42.1022292, "lng": -72.5565631}, "location_type": "ROOFTOP", "viewport": {"northeast": {"lat": 42.10357818029149, "lng": -72.55521411970851}, "southwest": {"lat": 42.10088021970849, "lng": -72.55791208029152}}}, "place_id": "ChIJjb2Jca3n5okRLEVqaVMmMXs", "types": ["establishment", "point_of_interest", "school", "university"]}]}, "110995367": {"AfN": "sprint corporation", "Location": [{"address_components": [{"long_name": "6100", "short_name": "6100", "types": ["street_number"]}, {"long_name": "Sprint Parkway", "short_name": "Sprint Pkwy", "types": ["route"]}, {"long_name": "Overland Park", "short_name": "Overland Park", "types": ["locality", "political"]}, {"long_name": "Kansas", "short_name": "KS", "types": ["administrative_area_level_1", "political"]}, {"long_name": "United States", "short_name": "US", "types": ["country", "political"]}, {"long_name": "66211", "short_name": "66211", "types": ["postal_code"]}], "formatted_address": "66251, 6100 Sprint Pkwy, Overland Park, KS 66211, United States", "geometry": {"location": {"lat": 38.918764, "lng": -94.6573995}, "location_type": "ROOFTOP", "viewport": {"northeast": {"lat": 38.92011298029149, "lng": -94.6560505197085}, "southwest": {"lat": 38.91741501970849, "lng": -94.65874848029151}}}, "place_id": "ChIJnxGX_DzqwIcRoFw0U47Edks", "types": ["establishment", "point_of_interest"]}]}, "125385970": {"AfN": "sra international", "Location": [{"address_components": [{"long_name": "2", "short_name": "2", "types": ["street_number"]}, {"long_name": "Corporate Boulevard Northeast", "short_name": "Corporate Blvd NE", "types": ["route"]}, {"long_name": "Atlanta", "short_name": "Atlanta", "types": ["locality", "political"]}, {"long_name": "DeKalb County", "short_name": "Dekalb County", "types": ["administrative_area_level_2", "political"]}, {"long_name": "Georgia", "short_name": "GA", "types": ["administrative_area_level_1", "political"]}, {"long_name": "United States", "short_name": "US", "types": ["country", "political"]}, {"long_name": "30329", "short_name": "30329", "types": ["postal_code"]}], "formatted_address": "2 Corporate Blvd NE, Atlanta, GA 30329, USA", "geometry": {"location": {"lat": 33.83575520000001, "lng": -84.3323446}, "location_type": "ROOFTOP", "viewport": {"northeast": {"lat": 33.83710418029151, "lng": -84.3309956197085}, "southwest": {"lat": 33.83440621970851, "lng": -84.33369358029151}}}, "place_id": "ChIJ49bQ-iIG9YgR-DOVph1H6Xg", "types": ["establishment", "point_of_interest"]}]}, "48697060": {"AfN": "src inc", "Location": [{"address_components": [{"long_name": "6225", "short_name": "6225", "types": ["street_number"]}, {"long_name": "Running Ridge Road", "short_name": "Running Ridge Rd", "types": ["route"]}, {"long_name": "Syracuse", "short_name": "Syracuse", "types": ["locality", "political"]}, {"long_name": "Cicero", "short_name": "Cicero", "types": ["administrative_area_level_3", "political"]}, {"long_name": "Onondaga County", "short_name": "Onondaga County", "types": ["administrative_area_level_2", "political"]}, {"long_name": "New York", "short_name": "NY", "types": ["administrative_area_level_1", "political"]}, {"long_name": "United States", "short_name": "US", "types": ["country", "political"]}, {"long_name": "13212", "short_name": "13212", "types": ["postal_code"]}], "formatted_address": "6225 Running Ridge Rd, Syracuse, NY 13212, USA", "geometry": {"location": {"lat": 43.131229, "lng": -76.08903939999999}, "location_type": "ROOFTOP", "viewport": {"northeast": {"lat": 43.13257798029151, "lng": -76.0876904197085}, "southwest": {"lat": 43.12988001970851, "lng": -76.0903883802915}}}, "place_id": "ChIJ_QdTmNXs2YkRR2FlsuLUhJo", "types": ["establishment", "point_of_interest"]}]}, "1298353152": {"AfN": "sri international", "Location": [{"address_components": [{"long_name": "333", "short_name": "333", "types": ["street_number"]}, {"long_name": "Ravenswood Avenue", "short_name": "Ravenswood Ave", "types": ["route"]}, {"long_name": "Menlo Park", "short_name": "Menlo Park", "types": ["locality", "political"]}, {"long_name": "San Mateo County", "short_name": "San Mateo County", "types": ["administrative_area_level_2", "political"]}, {"long_name": "California", "short_name": "CA", "types": ["administrative_area_level_1", "political"]}, {"long_name": "United States", "short_name": "US", "types": ["country", "political"]}, {"long_name": "94025", "short_name": "94025", "types": ["postal_code"]}], "formatted_address": "333 Ravenswood Ave, Menlo Park, CA 94025, USA", "geometry": {"location": {"lat": 37.4573796, "lng": -122.1758023}, "location_type": "ROOFTOP", "viewport": {"northeast": {"lat": 37.4587285802915, "lng": -122.1744533197085}, "southwest": {"lat": 37.4560306197085, "lng": -122.1771512802915}}}, "place_id": "ChIJi9XNLq2kj4ARNFIw84dslXY", "types": ["establishment", "point_of_interest"]}]}, "126329810": {"AfN": "sri jayachamarajendra college of engineering", "Location": [{"address_components": [{"long_name": "Campus Roads", "short_name": "Campus Roads", "types": ["route"]}, {"long_name": "University of Mysore Campus", "short_name": "University of Mysore Campus", "types": ["political", "sublocality", "sublocality_level_1"]}, {"long_name": "Mysuru", "short_name": "Mysuru", "types": ["locality", "political"]}, {"long_name": "Mysuru", "short_name": "Mysuru", "types": ["administrative_area_level_2", "political"]}, {"long_name": "Karnataka", "short_name": "KA", "types": ["administrative_area_level_1", "political"]}, {"long_name": "India", "short_name": "IN", "types": ["country", "political"]}, {"long_name": "570006", "short_name": "570006", "types": ["postal_code"]}], "formatted_address": "Campus Roads, University of Mysore Campus, Mysuru, Karnataka 570006, India", "geometry": {"location": {"lat": 12.3132715, "lng": 76.6134265}, "location_type": "GEOMETRIC_CENTER", "viewport": {"northeast": {"lat": 12.3146204802915, "lng": 76.61477548029151}, "southwest": {"lat": 12.3119225197085, "lng": 76.61207751970849}}}, "place_id": "ChIJ____T-l6rzsRetB4_MuX1xo", "types": ["establishment", "point_of_interest", "university"]}]}, "170558118": {"AfN": "sri venkateswara university", "Location": [{"address_components": [{"long_name": "Tirupati", "short_name": "Tirupati", "types": ["locality", "political"]}, {"long_name": "Andhra Pradesh", "short_name": "AP", "types": ["administrative_area_level_1", "political"]}, {"long_name": "India", "short_name": "IN", "types": ["country", "political"]}, {"long_name": "517502", "short_name": "517502", "types": ["postal_code"]}], "formatted_address": "Gandhi Road, Tirupati, Andhra Pradesh 517502, India", "geometry": {"location": {"lat": 13.6270338, "lng": 79.39704329999999}, "location_type": "GEOMETRIC_CENTER", "viewport": {"northeast": {"lat": 13.6283827802915, "lng": 79.3983922802915}, "southwest": {"lat": 13.6256848197085, "lng": 79.39569431970848}}}, "place_id": "ChIJF0hyxg1LTToRTwK38N-B_0k", "types": ["establishment", "point_of_interest", "university"]}]}, "76920116": {"AfN": "srinakharinwirot university", "Location": [{"address_components": [{"long_name": "114", "short_name": "114", "types": ["street_number"]}, {"long_name": "Soi Sukhumvit 23", "short_name": "Soi Sukhumvit 23", "types": ["route"]}, {"long_name": "Khwaeng Khlong Toei Nuea", "short_name": "Khwaeng Khlong Toei Nuea", "types": ["political", "sublocality", "sublocality_level_2"]}, {"long_name": "Khet Watthana", "short_name": "Khet Watthana", "types": ["political", "sublocality", "sublocality_level_1"]}, {"long_name": "Krung Thep Maha Nakhon", "short_name": "Krung Thep Maha Nakhon", "types": ["administrative_area_level_1", "political"]}, {"long_name": "Thailand", "short_name": "TH", "types": ["country", "political"]}, {"long_name": "10110", "short_name": "10110", "types": ["postal_code"]}], "formatted_address": "114 Soi Sukhumvit 23, Khwaeng Khlong Toei Nuea, Khet Watthana, Krung Thep Maha Nakhon 10110, Thailand", "geometry": {"location": {"lat": 13.745429, "lng": 100.565277}, "location_type": "ROOFTOP", "viewport": {"northeast": {"lat": 13.7467779802915, "lng": 100.5666259802915}, "southwest": {"lat": 13.7440800197085, "lng": 100.5639280197085}}}, "place_id": "ChIJ4bbaCeGe4jARd5YtYxyqFf0", "types": ["establishment", "point_of_interest", "university"]}]}, "271888150": {"AfN": "sriwijaya university", "Location": [{"address_components": [{"long_name": "Bukit Lama", "short_name": "Bukit Lama", "types": ["administrative_area_level_4", "political"]}, {"long_name": "Ilir Barat I", "short_name": "Ilir Bar. I", "types": ["administrative_area_level_3", "political"]}, {"long_name": "Kota Palembang", "short_name": "Kota Palembang", "types": ["administrative_area_level_2", "political"]}, {"long_name": "Sumatera Selatan", "short_name": "Sumatera Selatan", "types": ["administrative_area_level_1", "political"]}, {"long_name": "Indonesia", "short_name": "ID", "types": ["country", "political"]}, {"long_name": "30128", "short_name": "30128", "types": ["postal_code"]}], "formatted_address": "Jalan Srijaya Negara, Bukit Besar, Ilir Barat I, Bukit Lama, Ilir Bar. I, Kota Palembang, Sumatera Selatan 30128, Indonesia", "geometry": {"location": {"lat": -2.9860228, "lng": 104.7334476}, "location_type": "GEOMETRIC_CENTER", "viewport": {"northeast": {"lat": -2.984673819708499, "lng": 104.7347965802915}, "southwest": {"lat": -2.987371780291502, "lng": 104.7320986197085}}}, "place_id": "ChIJW5n_he11Oy4RlE7tLCPOt-Y", "types": ["establishment", "point_of_interest", "university"]}]}, "145286018": {"AfN": "srm university", "Location": [{"address_components": [{"long_name": "Chennai", "short_name": "Chennai", "types": ["locality", "political"]}, {"long_name": "Tamil Nadu", "short_name": "TN", "types": ["administrative_area_level_1", "political"]}, {"long_name": "India", "short_name": "IN", "types": ["country", "political"]}, {"long_name": "603203", "short_name": "603203", "types": ["postal_code"]}], "formatted_address": "Mahatma Gandhi Road, SRM Nagar, Potheri, Kattankulathur, Kancheepuram District, Near Potheri Railway Station, Chennai, Tamil Nadu 603203, India", "geometry": {"location": {"lat": 12.8231047, "lng": 80.0452801}, "location_type": "GEOMETRIC_CENTER", "viewport": {"northeast": {"lat": 12.8244536802915, "lng": 80.04662908029151}, "southwest": {"lat": 12.8217557197085, "lng": 80.0439311197085}}}, "place_id": "ChIJr1_DNw33UjoRF_jI8OzoCxU", "types": ["establishment", "point_of_interest", "university"]}]}, "1310298795": {"AfN": "st agnes hospital", "Location": [{"address_components": [{"long_name": "900", "short_name": "900", "types": ["street_number"]}, {"long_name": "South Caton Avenue", "short_name": "S Caton Ave", "types": ["route"]}, {"long_name": "Violetville", "short_name": "Violetville", "types": ["neighborhood", "political"]}, {"long_name": "Baltimore", "short_name": "Baltimore", "types": ["locality", "political"]}, {"long_name": "Maryland", "short_name": "MD", "types": ["administrative_area_level_1", "political"]}, {"long_name": "United States", "short_name": "US", "types": ["country", "political"]}, {"long_name": "21229", "short_name": "21229", "types": ["postal_code"]}], "formatted_address": "900 S Caton Ave, Baltimore, MD 21229, USA", "geometry": {"location": {"lat": 39.2721154, "lng": -76.6729398}, "location_type": "ROOFTOP", "viewport": {"northeast": {"lat": 39.27346438029149, "lng": -76.67159081970848}, "southwest": {"lat": 39.27076641970849, "lng": -76.67428878029149}}}, "place_id": "ChIJzUjq_-wcyIkRGiP7wQgohik", "types": ["establishment", "hospital", "point_of_interest"]}, {"address_components": [{"long_name": "430", "short_name": "430", "types": ["street_number"]}, {"long_name": "East Division Street", "short_name": "E Division St", "types": ["route"]}, {"long_name": "Fond du Lac", "short_name": "Fond du Lac", "types": ["locality", "political"]}, {"long_name": "Fond du Lac County", "short_name": "Fond Du Lac County", "types": ["administrative_area_level_2", "political"]}, {"long_name": "Wisconsin", "short_name": "WI", "types": ["administrative_area_level_1", "political"]}, {"long_name": "United States", "short_name": "US", "types": ["country", "political"]}, {"long_name": "54935", "short_name": "54935", "types": ["postal_code"]}], "formatted_address": "430 E Division St, Fond du Lac, WI 54935, USA", "geometry": {"location": {"lat": 43.77778199999999, "lng": -88.4310387}, "location_type": "ROOFTOP", "viewport": {"northeast": {"lat": 43.77913098029149, "lng": -88.42968971970849}, "southwest": {"lat": 43.7764330197085, "lng": -88.43238768029151}}}, "place_id": "ChIJX08sKYZ1BIgRWWTJQ05kYRQ", "types": ["establishment", "hospital", "point_of_interest"]}]}, "1307195382": {"AfN": "st bartholomew s hospital", "Location": [{"address_components": [{"long_name": "W Smithfield", "short_name": "W Smithfield", "types": ["route"]}, {"long_name": "London", "short_name": "London", "types": ["postal_town"]}, {"long_name": "Greater London", "short_name": "Greater London", "types": ["administrative_area_level_2", "political"]}, {"long_name": "England", "short_name": "England", "types": ["administrative_area_level_1", "political"]}, {"long_name": "United Kingdom", "short_name": "GB", "types": ["country", "political"]}, {"long_name": "EC1A 7BE", "short_name": "EC1A 7BE", "types": ["postal_code"]}], "formatted_address": "W Smithfield, London EC1A 7BE, UK", "geometry": {"location": {"lat": 51.5167628, "lng": -0.0986751}, "location_type": "GEOMETRIC_CENTER", "viewport": {"northeast": {"lat": 51.51811178029151, "lng": -0.09732611970849797}, "southwest": {"lat": 51.51541381970851, "lng": -0.100024080291502}}}, "place_id": "ChIJjc9of1MbdkgRGvFEbt0j_vc", "types": ["establishment", "hospital", "point_of_interest"]}]}, "117309725": {"AfN": "st bonaventure university", "Location": [{"address_components": [{"long_name": "3261", "short_name": "3261", "types": ["street_number"]}, {"long_name": "West State Street", "short_name": "W State St", "types": ["route"]}, {"long_name": "Saint Bonaventure", "short_name": "St Bonaventure", "types": ["locality", "political"]}, {"long_name": "Allegany", "short_name": "Allegany", "types": ["administrative_area_level_3", "political"]}, {"long_name": "Cattaraugus County", "short_name": "Cattaraugus County", "types": ["administrative_area_level_2", "political"]}, {"long_name": "New York", "short_name": "NY", "types": ["administrative_area_level_1", "political"]}, {"long_name": "United States", "short_name": "US", "types": ["country", "political"]}, {"long_name": "14778", "short_name": "14778", "types": ["postal_code"]}], "formatted_address": "3261 W State St, St Bonaventure, NY 14778, USA", "geometry": {"location": {"lat": 42.0784113, "lng": -78.48288219999999}, "location_type": "ROOFTOP", "viewport": {"northeast": {"lat": 42.0797602802915, "lng": -78.4815332197085}, "southwest": {"lat": 42.0770623197085, "lng": -78.4842311802915}}}, "place_id": "ChIJt4UpC3p60okRr60yoqabIB0", "types": ["establishment", "point_of_interest", "university"]}]}, "142767807": {"AfN": "st catherine university", "Location": [{"address_components": [{"long_name": "2004", "short_name": "2004", "types": ["street_number"]}, {"long_name": "Randolph Avenue", "short_name": "Randolph Ave", "types": ["route"]}, {"long_name": "Highland", "short_name": "Highland", "types": ["neighborhood", "political"]}, {"long_name": "Saint Paul", "short_name": "St Paul", "types": ["locality", "political"]}, {"long_name": "Ramsey County", "short_name": "Ramsey County", "types": ["administrative_area_level_2", "political"]}, {"long_name": "Minnesota", "short_name": "MN", "types": ["administrative_area_level_1", "political"]}, {"long_name": "United States", "short_name": "US", "types": ["country", "political"]}, {"long_name": "55105", "short_name": "55105", "types": ["postal_code"]}], "formatted_address": "2004 Randolph Ave, St Paul, MN 55105, USA", "geometry": {"location": {"lat": 44.925308, "lng": -93.182822}, "location_type": "ROOFTOP", "viewport": {"northeast": {"lat": 44.9266569802915, "lng": -93.1814730197085}, "southwest": {"lat": 44.92395901970851, "lng": -93.18417098029151}}}, "place_id": "ChIJ5b9pkIYp9ocRtlJ3m9lmFK0", "types": ["establishment", "point_of_interest", "university"]}]}, "173963315": {"AfN": "st cloud state university", "Location": [{"address_components": [{"long_name": "720", "short_name": "720", "types": ["street_number"]}, {"long_name": "4th Ave S", "short_name": "4th Ave S", "types": ["route"]}, {"long_name": "St. Cloud", "short_name": "St Cloud", "types": ["locality", "political"]}, {"long_name": "Stearns County", "short_name": "Stearns County", "types": ["administrative_area_level_2", "political"]}, {"long_name": "Minnesota", "short_name": "MN", "types": ["administrative_area_level_1", "political"]}, {"long_name": "United States", "short_name": "US", "types": ["country", "political"]}, {"long_name": "56301", "short_name": "56301", "types": ["postal_code"]}], "formatted_address": "720 4th Ave S, St Cloud, MN 56301, USA", "geometry": {"location": {"lat": 45.55118640000001, "lng": -94.1515137}, "location_type": "ROOFTOP", "viewport": {"northeast": {"lat": 45.55253538029151, "lng": -94.15016471970848}, "southwest": {"lat": 45.54983741970851, "lng": -94.1528626802915}}}, "place_id": "ChIJ7UudNHJgtFIR-HEH3x_g7mY", "types": ["establishment", "point_of_interest", "university"]}]}, "9224006": {"AfN": "st edward s university", "Location": [{"address_components": [{"long_name": "3001", "short_name": "3001", "types": ["street_number"]}, {"long_name": "South Congress Avenue", "short_name": "S Congress Ave", "types": ["route"]}, {"long_name": "Greater South River City", "short_name": "Greater South River City", "types": ["neighborhood", "political"]}, {"long_name": "Austin", "short_name": "Austin", "types": ["locality", "political"]}, {"long_name": "Travis County", "short_name": "Travis County", "types": ["administrative_area_level_2", "political"]}, {"long_name": "Texas", "short_name": "TX", "types": ["administrative_area_level_1", "political"]}, {"long_name": "United States", "short_name": "US", "types": ["country", "political"]}, {"long_name": "78704", "short_name": "78704", "types": ["postal_code"]}], "formatted_address": "3001 S Congress Ave, Austin, TX 78704, USA", "geometry": {"location": {"lat": 30.2297224, "lng": -97.7538582}, "location_type": "ROOFTOP", "viewport": {"northeast": {"lat": 30.2310713802915, "lng": -97.75250921970849}, "southwest": {"lat": 30.2283734197085, "lng": -97.7552071802915}}}, "partial_match": true, "place_id": "ChIJGyBhrpK0RIYRNhPly4LCQhE", "types": ["establishment", "point_of_interest", "school", "university"]}]}, "169077156": {"AfN": "st francis college", "Location": [{"address_components": [{"long_name": "180", "short_name": "180", "types": ["street_number"]}, {"long_name": "Remsen Street", "short_name": "Remsen St", "types": ["route"]}, {"long_name": "Brooklyn", "short_name": "Brooklyn", "types": ["political", "sublocality", "sublocality_level_1"]}, {"long_name": "New York", "short_name": "NY", "types": ["administrative_area_level_1", "political"]}, {"long_name": "United States", "short_name": "US", "types": ["country", "political"]}, {"long_name": "11201", "short_name": "11201", "types": ["postal_code"]}], "formatted_address": "4305, 180 Remsen St, Brooklyn, NY 11201, United States", "geometry": {"location": {"lat": 40.69323, "lng": -73.992165}, "location_type": "ROOFTOP", "viewport": {"northeast": {"lat": 40.6945789802915, "lng": -73.99081601970849}, "southwest": {"lat": 40.6918810197085, "lng": -73.99351398029151}}}, "place_id": "ChIJWf3Z3UhawokR8msqSjdEPEU", "types": ["establishment", "point_of_interest", "university"]}]}, "1332492646": {"AfN": "st francis medical center", "Location": [{"address_components": [{"long_name": "3630", "short_name": "3630", "types": ["street_number"]}, {"long_name": "East Imperial Highway", "short_name": "E Imperial Hwy", "types": ["route"]}, {"long_name": "Lynwood", "short_name": "Lynwood", "types": ["locality", "political"]}, {"long_name": "Los Angeles County", "short_name": "Los Angeles County", "types": ["administrative_area_level_2", "political"]}, {"long_name": "California", "short_name": "CA", "types": ["administrative_area_level_1", "political"]}, {"long_name": "United States", "short_name": "US", "types": ["country", "political"]}, {"long_name": "90262", "short_name": "90262", "types": ["postal_code"]}], "formatted_address": "3630 E Imperial Hwy, Lynwood, CA 90262, USA", "geometry": {"location": {"lat": 33.9302281, "lng": -118.2033467}, "location_type": "ROOFTOP", "viewport": {"northeast": {"lat": 33.9315770802915, "lng": -118.2019977197085}, "southwest": {"lat": 33.9288791197085, "lng": -118.2046956802915}}}, "place_id": "ChIJAfb90nXMwoARMsMfRrT-6Zw", "types": ["establishment", "hospital", "point_of_interest"]}]}, "197191942": {"AfN": "st francis xavier university", "Location": [{"address_components": [{"long_name": "Antigonish", "short_name": "Antigonish", "types": ["locality", "political"]}, {"long_name": "Antigonish County", "short_name": "Antigonish County", "types": ["administrative_area_level_2", "political"]}, {"long_name": "Nova Scotia", "short_name": "NS", "types": ["administrative_area_level_1", "political"]}, {"long_name": "Canada", "short_name": "CA", "types": ["country", "political"]}, {"long_name": "B2G 2W5", "short_name": "B2G 2W5", "types": ["postal_code"]}], "formatted_address": "Antigonish, NS B2G 2W5, Canada", "geometry": {"location": {"lat": 45.6179109, "lng": -61.9954416}, "location_type": "GEOMETRIC_CENTER", "viewport": {"northeast": {"lat": 45.61925988029149, "lng": -61.9940926197085}, "southwest": {"lat": 45.6165619197085, "lng": -61.9967905802915}}}, "place_id": "ChIJD3a35hpFXEsRrN0sXjyMwE8", "types": ["establishment", "point_of_interest", "university"]}]}, "1310053265": {"AfN": "st george s hospital", "Location": [{"address_components": [{"long_name": "Blackshaw Road", "short_name": "Blackshaw Rd", "types": ["route"]}, {"long_name": "London", "short_name": "London", "types": ["postal_town"]}, {"long_name": "Greater London", "short_name": "Greater London", "types": ["administrative_area_level_2", "political"]}, {"long_name": "England", "short_name": "England", "types": ["administrative_area_level_1", "political"]}, {"long_name": "United Kingdom", "short_name": "GB", "types": ["country", "political"]}, {"long_name": "SW17 0QT", "short_name": "SW17 0QT", "types": ["postal_code"]}], "formatted_address": "Blackshaw Rd, London SW17 0QT, UK", "geometry": {"location": {"lat": 51.4267074, "lng": -0.1756605}, "location_type": "GEOMETRIC_CENTER", "viewport": {"northeast": {"lat": 51.4280563802915, "lng": -0.174311519708498}, "southwest": {"lat": 51.4253584197085, "lng": -0.177009480291502}}}, "partial_match": true, "place_id": "ChIJb1nNvggGdkgRZAURrMhPQZg", "types": ["establishment", "hospital", "point_of_interest"]}]}, "133879957": {"AfN": "st george s university", "Location": [{"address_components": [{"long_name": "Grenada", "short_name": "GD", "types": ["country", "political"]}], "formatted_address": "University Centre Grenada, West Indies, Grenada", "geometry": {"location": {"lat": 12.0004108, "lng": -61.7737202}, "location_type": "GEOMETRIC_CENTER", "viewport": {"northeast": {"lat": 12.0017597802915, "lng": -61.77237121970849}, "southwest": {"lat": 11.9990618197085, "lng": -61.7750691802915}}}, "partial_match": true, "place_id": "ChIJjWA2u78gOIwRpmnVNzQa13I", "types": ["establishment", "health", "point_of_interest", "university"]}]}, "165862685": {"AfN": "st george s university of london", "Location": [{"address_components": [{"long_name": "Cranmer Terrace", "short_name": "Cranmer Terrace", "types": ["route"]}, {"long_name": "London", "short_name": "London", "types": ["postal_town"]}, {"long_name": "Greater London", "short_name": "Greater London", "types": ["administrative_area_level_2", "political"]}, {"long_name": "England", "short_name": "England", "types": ["administrative_area_level_1", "political"]}, {"long_name": "United Kingdom", "short_name": "GB", "types": ["country", "political"]}, {"long_name": "SW17 0RE", "short_name": "SW17 0RE", "types": ["postal_code"]}], "formatted_address": "Cranmer Terrace, London SW17 0RE, UK", "geometry": {"location": {"lat": 51.4271937, "lng": -0.1745034}, "location_type": "GEOMETRIC_CENTER", "viewport": {"northeast": {"lat": 51.4285426802915, "lng": -0.173154419708498}, "southwest": {"lat": 51.4258447197085, "lng": -0.175852380291502}}}, "place_id": "ChIJb_etmQgGdkgRkXzg_R_ORJY", "types": ["establishment", "point_of_interest", "university"]}]}, "910567637": {"AfN": "st john fisher college", "Location": [{"address_components": [{"long_name": "3690", "short_name": "3690", "types": ["street_number"]}, {"long_name": "East Avenue", "short_name": "East Ave", "types": ["route"]}, {"long_name": "Rochester", "short_name": "Rochester", "types": ["locality", "political"]}, {"long_name": "Town of Pittsford", "short_name": "Town of Pittsford", "types": ["administrative_area_level_3", "political"]}, {"long_name": "Monroe County", "short_name": "Monroe County", "types": ["administrative_area_level_2", "political"]}, {"long_name": "New York", "short_name": "NY", "types": ["administrative_area_level_1", "political"]}, {"long_name": "United States", "short_name": "US", "types": ["country", "political"]}, {"long_name": "14618", "short_name": "14618", "types": ["postal_code"]}], "formatted_address": "3690 East Ave, Rochester, NY 14618, USA", "geometry": {"location": {"lat": 43.115372, "lng": -77.511511}, "location_type": "ROOFTOP", "viewport": {"northeast": {"lat": 43.1167209802915, "lng": -77.51016201970849}, "southwest": {"lat": 43.1140230197085, "lng": -77.5128599802915}}}, "place_id": "ChIJ2259HCnL1okRZ7pvuIMal7o", "types": ["establishment", "point_of_interest", "university"]}]}, "168870486": {"AfN": "st john s college", "Location": [{"address_components": [{"long_name": "60", "short_name": "60", "types": ["street_number"]}, {"long_name": "College Avenue", "short_name": "College Ave", "types": ["route"]}, {"long_name": "Annapolis", "short_name": "Annapolis", "types": ["locality", "political"]}, {"long_name": "Annapolis", "short_name": "6", "types": ["administrative_area_level_3", "political"]}, {"long_name": "Anne Arundel County", "short_name": "Anne Arundel County", "types": ["administrative_area_level_2", "political"]}, {"long_name": "Maryland", "short_name": "MD", "types": ["administrative_area_level_1", "political"]}, {"long_name": "United States", "short_name": "US", "types": ["country", "political"]}, {"long_name": "21401", "short_name": "21401", "types": ["postal_code"]}], "formatted_address": "60 College Ave, Annapolis, MD 21401, USA", "geometry": {"location": {"lat": 38.981963, "lng": -76.491536}, "location_type": "ROOFTOP", "viewport": {"northeast": {"lat": 38.9833119802915, "lng": -76.49018701970849}, "southwest": {"lat": 38.9806140197085, "lng": -76.49288498029149}}}, "partial_match": true, "place_id": "ChIJqewI-VH2t4kReMMFl2r2zaI", "types": ["establishment", "point_of_interest", "university"]}]}, "1297402049": {"AfN": "st john s hospital", "Location": [{"address_components": [{"long_name": "800", "short_name": "800", "types": ["street_number"]}, {"long_name": "West Myrtle Street", "short_name": "W Myrtle St", "types": ["route"]}, {"long_name": "Independence", "short_name": "Independence", "types": ["locality", "political"]}, {"long_name": "Montgomery County", "short_name": "Montgomery County", "types": ["administrative_area_level_2", "political"]}, {"long_name": "Kansas", "short_name": "KS", "types": ["administrative_area_level_1", "political"]}, {"long_name": "United States", "short_name": "US", "types": ["country", "political"]}, {"long_name": "67301", "short_name": "67301", "types": ["postal_code"]}], "formatted_address": "800 W Myrtle St, Independence, KS 67301, USA", "geometry": {"location": {"lat": 37.2250659, "lng": -95.71690230000002}, "location_type": "ROOFTOP", "viewport": {"northeast": {"lat": 37.22641488029149, "lng": -95.71555331970852}, "southwest": {"lat": 37.22371691970849, "lng": -95.71825128029153}}}, "partial_match": true, "place_id": "ChIJ5aU7cEcruIcRYfcPVQV17v8", "types": ["establishment", "health", "point_of_interest"]}]}, "83615518": {"AfN": "st john s medical college", "Location": [{"address_components": [{"long_name": "Bengaluru", "short_name": "Bengaluru", "types": ["locality", "political"]}, {"long_name": "Karnataka", "short_name": "KA", "types": ["administrative_area_level_1", "political"]}, {"long_name": "India", "short_name": "IN", "types": ["country", "political"]}, {"long_name": "560034", "short_name": "560034", "types": ["postal_code"]}], "formatted_address": "Sarjapur Road, Bengaluru, Karnataka 560034, India", "geometry": {"location": {"lat": 12.9294819, "lng": 77.6201825}, "location_type": "GEOMETRIC_CENTER", "viewport": {"northeast": {"lat": 12.9308308802915, "lng": 77.62153148029151}, "southwest": {"lat": 12.9281329197085, "lng": 77.6188335197085}}}, "partial_match": true, "place_id": "ChIJA1z7QFcUrjsRFw2Ipl9V0d8", "types": ["establishment", "point_of_interest", "university"]}]}, "142823887": {"AfN": "st john s university", "Location": [{"address_components": [{"long_name": "8000", "short_name": "8000", "types": ["street_number"]}, {"long_name": "Utopia Parkway", "short_name": "Utopia Pkwy", "types": ["route"]}, {"long_name": "Hillcrest", "short_name": "Hillcrest", "types": ["neighborhood", "political"]}, {"long_name": "Queens", "short_name": "Queens", "types": ["political", "sublocality", "sublocality_level_1"]}, {"long_name": "Queens County", "short_name": "Queens County", "types": ["administrative_area_level_2", "political"]}, {"long_name": "New York", "short_name": "NY", "types": ["administrative_area_level_1", "political"]}, {"long_name": "United States", "short_name": "US", "types": ["country", "political"]}, {"long_name": "11439", "short_name": "11439", "types": ["postal_code"]}], "formatted_address": "8000 Utopia Pkwy, Queens, NY 11439, USA", "geometry": {"location": {"lat": 40.7220627, "lng": -73.79421119999999}, "location_type": "ROOFTOP", "viewport": {"northeast": {"lat": 40.72341168029149, "lng": -73.7928622197085}, "southwest": {"lat": 40.7207137197085, "lng": -73.7955601802915}}}, "partial_match": true, "place_id": "ChIJGf9edgJhwokRc4JetPDR0SU", "types": ["establishment", "point_of_interest", "university"]}]}, "1292815773": {"AfN": "st joseph hospital", "Location": [{"address_components": [{"long_name": "3600", "short_name": "3600", "types": ["street_number"]}, {"long_name": "East Harry Street", "short_name": "E Harry St", "types": ["route"]}, {"long_name": "Hilltop", "short_name": "Hilltop", "types": ["neighborhood", "political"]}, {"long_name": "Wichita", "short_name": "Wichita", "types": ["locality", "political"]}, {"long_name": "Sedgwick County", "short_name": "Sedgwick County", "types": ["administrative_area_level_2", "political"]}, {"long_name": "Kansas", "short_name": "KS", "types": ["administrative_area_level_1", "political"]}, {"long_name": "United States", "short_name": "US", "types": ["country", "political"]}, {"long_name": "67218", "short_name": "67218", "types": ["postal_code"]}], "formatted_address": "3600 E Harry St, Wichita, KS 67218, USA", "geometry": {"location": {"lat": 37.66614939999999, "lng": -97.29310060000002}, "location_type": "ROOFTOP", "viewport": {"northeast": {"lat": 37.6674983802915, "lng": -97.29175161970852}, "southwest": {"lat": 37.6648004197085, "lng": -97.29444958029153}}}, "place_id": "ChIJlflZ053kuocR9_8UO7_XXTA", "types": ["establishment", "hospital", "point_of_interest"]}]}, "59293822": {"AfN": "st joseph s healthcare hamilton", "Location": [{"address_components": [{"long_name": "50", "short_name": "50", "types": ["street_number"]}, {"long_name": "Charlton Avenue East", "short_name": "Charlton Ave E", "types": ["route"]}, {"long_name": "Corktown", "short_name": "Corktown", "types": ["neighborhood", "political"]}, {"long_name": "Hamilton", "short_name": "Hamilton", "types": ["locality", "political"]}, {"long_name": "Hamilton Division", "short_name": "Hamilton Division", "types": ["administrative_area_level_2", "political"]}, {"long_name": "Ontario", "short_name": "ON", "types": ["administrative_area_level_1", "political"]}, {"long_name": "Canada", "short_name": "CA", "types": ["country", "political"]}, {"long_name": "L8N 4A6", "short_name": "L8N 4A6", "types": ["postal_code"]}], "formatted_address": "50 Charlton Ave E, Hamilton, ON L8N 4A6, Canada", "geometry": {"location": {"lat": 43.2484073, "lng": -79.8712271}, "location_type": "ROOFTOP", "viewport": {"northeast": {"lat": 43.2497562802915, "lng": -79.86987811970849}, "southwest": {"lat": 43.2470583197085, "lng": -79.8725760802915}}}, "partial_match": true, "place_id": "ChIJNVT5Ap6bLIgRp3A8FWcztXA", "types": ["establishment", "health", "hospital", "point_of_interest"]}]}, "1325481341": {"AfN": "st joseph s hospital and medical center", "Location": [{"address_components": [{"long_name": "350", "short_name": "350", "types": ["street_number"]}, {"long_name": "West Thomas Road", "short_name": "W Thomas Rd", "types": ["route"]}, {"long_name": "Encanto Village", "short_name": "Encanto Village", "types": ["neighborhood", "political"]}, {"long_name": "Phoenix", "short_name": "Phoenix", "types": ["locality", "political"]}, {"long_name": "Maricopa County", "short_name": "Maricopa County", "types": ["administrative_area_level_2", "political"]}, {"long_name": "Arizona", "short_name": "AZ", "types": ["administrative_area_level_1", "political"]}, {"long_name": "United States", "short_name": "US", "types": ["country", "political"]}, {"long_name": "85013", "short_name": "85013", "types": ["postal_code"]}], "formatted_address": "350 W Thomas Rd, Phoenix, AZ 85013, USA", "geometry": {"location": {"lat": 33.4830095, "lng": -112.0792345}, "location_type": "ROOFTOP", "viewport": {"northeast": {"lat": 33.4843584802915, "lng": -112.0778855197085}, "southwest": {"lat": 33.48166051970851, "lng": -112.0805834802915}}}, "partial_match": true, "place_id": "ChIJpeAlEVkSK4cRuv__8c4n7gY", "types": ["establishment", "point_of_interest"]}]}, "1313298211": {"AfN": "st jude children s research hospital", "Location": [{"address_components": [{"long_name": "262", "short_name": "262", "types": ["street_number"]}, {"long_name": "Danny Thomas Place", "short_name": "Danny Thomas Pl", "types": ["route"]}, {"long_name": "Pinch District", "short_name": "Pinch District", "types": ["neighborhood", "political"]}, {"long_name": "Memphis", "short_name": "Memphis", "types": ["locality", "political"]}, {"long_name": "Shelby County", "short_name": "Shelby County", "types": ["administrative_area_level_2", "political"]}, {"long_name": "Tennessee", "short_name": "TN", "types": ["administrative_area_level_1", "political"]}, {"long_name": "United States", "short_name": "US", "types": ["country", "political"]}, {"long_name": "38105", "short_name": "38105", "types": ["postal_code"]}, {"long_name": "3678", "short_name": "3678", "types": ["postal_code_suffix"]}], "formatted_address": "262 Danny Thomas Pl, Memphis, TN 38105, USA", "geometry": {"location": {"lat": 35.1545514, "lng": -90.04287579999999}, "location_type": "ROOFTOP", "viewport": {"northeast": {"lat": 35.1559003802915, "lng": -90.04152681970848}, "southwest": {"lat": 35.1532024197085, "lng": -90.04422478029149}}}, "partial_match": true, "place_id": "ChIJEe-w4_N-1YcREdfaCjmtMqA", "types": ["establishment", "hospital", "point_of_interest"]}]}, "223035780": {"AfN": "st jude medical", "Location": [{"address_components": [{"long_name": "645", "short_name": "645", "types": ["street_number"]}, {"long_name": "Almanor Avenue", "short_name": "Almanor Ave", "types": ["route"]}, {"long_name": "Sunnyvale", "short_name": "Sunnyvale", "types": ["locality", "political"]}, {"long_name": "Santa Clara County", "short_name": "Santa Clara County", "types": ["administrative_area_level_2", "political"]}, {"long_name": "California", "short_name": "CA", "types": ["administrative_area_level_1", "political"]}, {"long_name": "United States", "short_name": "US", "types": ["country", "political"]}, {"long_name": "94085", "short_name": "94085", "types": ["postal_code"]}, {"long_name": "2927", "short_name": "2927", "types": ["postal_code_suffix"]}], "formatted_address": "645 Almanor Ave, Sunnyvale, CA 94085, USA", "geometry": {"location": {"lat": 37.3976608, "lng": -122.0315216}, "location_type": "ROOFTOP", "viewport": {"northeast": {"lat": 37.3990097802915, "lng": -122.0301726197085}, "southwest": {"lat": 37.3963118197085, "lng": -122.0328705802915}}}, "place_id": "ChIJpzaKoq63j4ARoKWr7cVkkFE", "types": ["establishment", "point_of_interest"]}]}, "100236772": {"AfN": "st lawrence university", "Location": [{"address_components": [{"long_name": "23", "short_name": "23", "types": ["street_number"]}, {"long_name": "Romoda Drive", "short_name": "Romoda Dr", "types": ["route"]}, {"long_name": "Canton", "short_name": "Canton", "types": ["locality", "political"]}, {"long_name": "Canton", "short_name": "Canton", "types": ["administrative_area_level_3", "political"]}, {"long_name": "St. Lawrence County", "short_name": "St Lawrence County", "types": ["administrative_area_level_2", "political"]}, {"long_name": "New York", "short_name": "NY", "types": ["administrative_area_level_1", "political"]}, {"long_name": "United States", "short_name": "US", "types": ["country", "political"]}, {"long_name": "13617", "short_name": "13617", "types": ["postal_code"]}], "formatted_address": "23 Romoda Dr, Canton, NY 13617, USA", "geometry": {"location": {"lat": 44.5892119, "lng": -75.1608814}, "location_type": "ROOFTOP", "viewport": {"northeast": {"lat": 44.5905608802915, "lng": -75.15953241970848}, "southwest": {"lat": 44.5878629197085, "lng": -75.1622303802915}}}, "place_id": "ChIJxcPbtYH2zEwREXH5YvrMFq0", "types": ["establishment", "point_of_interest", "university"]}]}, "1324021844": {"AfN": "st louis children s hospital", "Location": [{"address_components": [{"long_name": "1", "short_name": "1", "types": ["street_number"]}, {"long_name": "Childrens Place", "short_name": "Childrens Pl", "types": ["route"]}, {"long_name": "Central West End", "short_name": "Central West End", "types": ["neighborhood", "political"]}, {"long_name": "St. Louis", "short_name": "St. Louis", "types": ["locality", "political"]}, {"long_name": "Missouri", "short_name": "MO", "types": ["administrative_area_level_1", "political"]}, {"long_name": "United States", "short_name": "US", "types": ["country", "political"]}, {"long_name": "63110", "short_name": "63110", "types": ["postal_code"]}], "formatted_address": "1 Childrens Pl, St. Louis, MO 63110, USA", "geometry": {"location": {"lat": 38.6374922, "lng": -90.2652998}, "location_type": "ROOFTOP", "viewport": {"northeast": {"lat": 38.63884118029149, "lng": -90.26395081970848}, "southwest": {"lat": 38.6361432197085, "lng": -90.26664878029149}}}, "place_id": "ChIJXxEU0Ca12IcRs4HI8yi3aRk", "types": ["establishment", "point_of_interest"]}]}, "182380053": {"AfN": "st louis college of pharmacy", "Location": [{"address_components": [{"long_name": "4588", "short_name": "4588", "types": ["street_number"]}, {"long_name": "Parkview Place", "short_name": "Parkview Pl", "types": ["route"]}, {"long_name": "Central West End", "short_name": "Central West End", "types": ["neighborhood", "political"]}, {"long_name": "St. Louis", "short_name": "St. Louis", "types": ["locality", "political"]}, {"long_name": "Missouri", "short_name": "MO", "types": ["administrative_area_level_1", "political"]}, {"long_name": "United States", "short_name": "US", "types": ["country", "political"]}, {"long_name": "63110", "short_name": "63110", "types": ["postal_code"]}], "formatted_address": "4588 Parkview Pl, St. Louis, MO 63110, USA", "geometry": {"location": {"lat": 38.6366082, "lng": -90.26087419999999}, "location_type": "ROOFTOP", "viewport": {"northeast": {"lat": 38.6379571802915, "lng": -90.25952521970848}, "southwest": {"lat": 38.6352592197085, "lng": -90.2622231802915}}}, "place_id": "ChIJoY3mrti02IcRAukjKzmPMSQ", "types": ["establishment", "point_of_interest", "university"]}]}, "1290055561": {"AfN": "st luke s university health network", "Location": [{"address_components": [{"long_name": "801", "short_name": "801", "types": ["street_number"]}, {"long_name": "Ostrum Street", "short_name": "Ostrum St", "types": ["route"]}, {"long_name": "Bethlehem", "short_name": "Bethlehem", "types": ["locality", "political"]}, {"long_name": "Lehigh County", "short_name": "Lehigh County", "types": ["administrative_area_level_2", "political"]}, {"long_name": "Pennsylvania", "short_name": "PA", "types": ["administrative_area_level_1", "political"]}, {"long_name": "United States", "short_name": "US", "types": ["country", "political"]}, {"long_name": "18015", "short_name": "18015", "types": ["postal_code"]}], "formatted_address": "801 Ostrum St, Bethlehem, PA 18015, USA", "geometry": {"location": {"lat": 40.609763, "lng": -75.392588}, "location_type": "ROOFTOP", "viewport": {"northeast": {"lat": 40.6111119802915, "lng": -75.39123901970851}, "southwest": {"lat": 40.6084140197085, "lng": -75.39393698029151}}}, "place_id": "ChIJ1z-DVIs-xIkRiDrKTffvOrg", "types": ["establishment", "hospital", "point_of_interest"]}]}, "1333109800": {"AfN": "st lukes episcopal hospital", "Location": [{"address_components": [{"long_name": "6720", "short_name": "6720", "types": ["street_number"]}, {"long_name": "Bertner Avenue", "short_name": "Bertner Ave", "types": ["route"]}, {"long_name": "Houston", "short_name": "Houston", "types": ["locality", "political"]}, {"long_name": "Texas", "short_name": "TX", "types": ["administrative_area_level_1", "political"]}, {"long_name": "United States", "short_name": "US", "types": ["country", "political"]}, {"long_name": "77030", "short_name": "77030", "types": ["postal_code"]}], "formatted_address": "2604, 6720 Bertner Ave, Houston, TX 77030, United States", "geometry": {"location": {"lat": 29.70741, "lng": -95.40071019999999}, "location_type": "ROOFTOP", "viewport": {"northeast": {"lat": 29.7087589802915, "lng": -95.3993612197085}, "southwest": {"lat": 29.7060610197085, "lng": -95.4020591802915}}}, "partial_match": true, "place_id": "ChIJ_VQh6HPAQIYR7GUW_kTlhdw", "types": ["establishment", "hospital", "point_of_interest"]}]}, "163917720": {"AfN": "st marianna university school of medicine", "Location": [{"address_components": [{"long_name": "1", "short_name": "1", "types": ["premise"]}, {"long_name": "16", "short_name": "16", "types": ["political", "sublocality", "sublocality_level_4"]}, {"long_name": "2", "short_name": "2", "types": ["political", "sublocality", "sublocality_level_3"]}, {"long_name": "\u83c5\u751f", "short_name": "\u83c5\u751f", "types": ["political", "sublocality", "sublocality_level_2"]}, {"long_name": "\u5bae\u524d\u533a", "short_name": "\u5bae\u524d\u533a", "types": ["political", "sublocality", "sublocality_level_1"]}, {"long_name": "\u5ddd\u5d0e\u5e02", "short_name": "\u5ddd\u5d0e\u5e02", "types": ["locality", "political"]}, {"long_name": "\u795e\u5948\u5ddd\u770c", "short_name": "\u795e\u5948\u5ddd\u770c", "types": ["administrative_area_level_1", "political"]}, {"long_name": "Japan", "short_name": "JP", "types": ["country", "political"]}, {"long_name": "216-8511", "short_name": "216-8511", "types": ["postal_code"]}], "formatted_address": "2-16-1 \u83c5\u751f \u5bae\u524d\u533a \u5ddd\u5d0e\u5e02 \u795e\u5948\u5ddd\u770c 216-8511, Japan", "geometry": {"location": {"lat": 35.599865, "lng": 139.549066}, "location_type": "ROOFTOP", "viewport": {"northeast": {"lat": 35.6012139802915, "lng": 139.5504149802915}, "southwest": {"lat": 35.5985160197085, "lng": 139.5477170197085}}}, "place_id": "ChIJOwiPhcrwGGARSz6m4yiZJ7o", "types": ["establishment", "point_of_interest", "university"]}]}, "78874557": {"AfN": "st mary s college of maryland", "Location": [{"address_components": [{"long_name": "47645", "short_name": "47645", "types": ["street_number"]}, {"long_name": "College Dr", "short_name": "College Dr", "types": ["route"]}, {"long_name": "St Marys City", "short_name": "St Marys City", "types": ["locality", "political"]}, {"long_name": "1, St. Inigoes", "short_name": "1, St Inigoes", "types": ["administrative_area_level_3", "political"]}, {"long_name": "St. Mary's County", "short_name": "St Mary's County", "types": ["administrative_area_level_2", "political"]}, {"long_name": "Maryland", "short_name": "MD", "types": ["administrative_area_level_1", "political"]}, {"long_name": "United States", "short_name": "US", "types": ["country", "political"]}, {"long_name": "20686", "short_name": "20686", "types": ["postal_code"]}], "formatted_address": "47645 College Dr, St Marys City, MD 20686, USA", "geometry": {"location": {"lat": 38.1909255, "lng": -76.42903129999999}, "location_type": "ROOFTOP", "viewport": {"northeast": {"lat": 38.19227448029149, "lng": -76.4276823197085}, "southwest": {"lat": 38.1895765197085, "lng": -76.4303802802915}}}, "partial_match": true, "place_id": "ChIJ3w4HnXHguYkROdsJO529Ijo", "types": ["establishment", "point_of_interest", "university"]}]}, "189060766": {"AfN": "st mary s university", "Location": [{"address_components": [{"long_name": "1", "short_name": "1", "types": ["street_number"]}, {"long_name": "Camino Santa Maria", "short_name": "Camino Santa Maria", "types": ["route"]}, {"long_name": "Inner West Side", "short_name": "Inner West Side", "types": ["neighborhood", "political"]}, {"long_name": "San Antonio", "short_name": "San Antonio", "types": ["locality", "political"]}, {"long_name": "Bexar County", "short_name": "Bexar County", "types": ["administrative_area_level_2", "political"]}, {"long_name": "Texas", "short_name": "TX", "types": ["administrative_area_level_1", "political"]}, {"long_name": "United States", "short_name": "US", "types": ["country", "political"]}, {"long_name": "78228", "short_name": "78228", "types": ["postal_code"]}], "formatted_address": "1 Camino Santa Maria, San Antonio, TX 78228, USA", "geometry": {"location": {"lat": 29.4523378, "lng": -98.5640981}, "location_type": "ROOFTOP", "viewport": {"northeast": {"lat": 29.4536867802915, "lng": -98.56274911970849}, "southwest": {"lat": 29.4509888197085, "lng": -98.5654470802915}}}, "partial_match": true, "place_id": "ChIJ80njWJdeXIYRv7dKc3Puoz8", "types": ["establishment", "point_of_interest", "university"]}, {"address_components": [{"long_name": "4100", "short_name": "4100", "types": ["street_number"]}, {"long_name": "S 4th St", "short_name": "S 4th St", "types": ["route"]}, {"long_name": "Leavenworth", "short_name": "Leavenworth", "types": ["locality", "political"]}, {"long_name": "Leavenworth County", "short_name": "Leavenworth County", "types": ["administrative_area_level_2", "political"]}, {"long_name": "Kansas", "short_name": "KS", "types": ["administrative_area_level_1", "political"]}, {"long_name": "United States", "short_name": "US", "types": ["country", "political"]}, {"long_name": "66048", "short_name": "66048", "types": ["postal_code"]}], "formatted_address": "4100 S 4th St, Leavenworth, KS 66048, USA", "geometry": {"location": {"lat": 39.2783084, "lng": -94.9063137},