{"100188998": {"AfN": "harbin university of science and technology", "Location": [{"address_components": [{"long_name": "52", "short_name": "52", "types": ["street_number"]}, {"long_name": "Xuefu Road", "short_name": "Xuefu Rd", "types": ["route"]}, {"long_name": "Nangang Qu", "short_name": "Nangang Qu", "types": ["political", "sublocality", "sublocality_level_1"]}, {"long_name": "Haerbin Shi", "short_name": "Haerbin Shi", "types": ["locality", "political"]}, {"long_name": "Heilongjiang Sheng", "short_name": "Heilongjiang Sheng", "types": ["administrative_area_level_1", "political"]}, {"long_name": "China", "short_name": "CN", "types": ["country", "political"]}, {"long_name": "150080", "short_name": "150080", "types": ["postal_code"]}], "formatted_address": "52 Xuefu Rd, Nangang Qu, Haerbin Shi, Heilongjiang Sheng, China, 150080", "geometry": {"location": {"lat": 45.715606, "lng": 126.6146619}, "location_type": "ROOFTOP", "viewport": {"northeast": {"lat": 45.7169549802915, "lng": 126.6160108802915}, "southwest": {"lat": 45.7142570197085, "lng": 126.6133129197085}}}, "place_id": "ChIJg7m5yjZ_RF4R9mc3TrVwBsI", "types": ["establishment", "point_of_interest", "university"]}]}, "72212903": {"AfN": "harbin veterinary research institute", "Location": [{"address_components": [{"long_name": "112", "short_name": "112", "types": ["street_number"]}, {"long_name": "Dacheng Street", "short_name": "Dacheng St", "types": ["route"]}, {"long_name": "Nangang Qu", "short_name": "Nangang Qu", "types": ["political", "sublocality", "sublocality_level_1"]}, {"long_name": "Haerbin Shi", "short_name": "Haerbin Shi", "types": ["locality", "political"]}, {"long_name": "Heilongjiang Sheng", "short_name": "Heilongjiang Sheng", "types": ["administrative_area_level_1", "political"]}, {"long_name": "China", "short_name": "CN", "types": ["country", "political"]}, {"long_name": "150001", "short_name": "150001", "types": ["postal_code"]}], "formatted_address": "112 Dacheng St, Nangang Qu, Haerbin Shi, Heilongjiang Sheng, China, 150001", "geometry": {"location": {"lat": 45.761973, "lng": 126.663628}, "location_type": "ROOFTOP", "viewport": {"northeast": {"lat": 45.7633219802915, "lng": 126.6649769802915}, "southwest": {"lat": 45.7606240197085, "lng": 126.6622790197085}}}, "partial_match": true, "place_id": "ChIJK7z7ue5_RF4RwzdWaAi--Vc", "types": ["establishment", "point_of_interest"]}]}, "734295": {"AfN": "harbor branch oceanographic institute", "Location": [{"address_components": [{"long_name": "Fort Pierce", "short_name": "Fort Pierce", "types": ["locality", "political"]}, {"long_name": "St. Lucie County", "short_name": "St Lucie County", "types": ["administrative_area_level_2", "political"]}, {"long_name": "Florida", "short_name": "FL", "types": ["administrative_area_level_1", "political"]}, {"long_name": "United States", "short_name": "US", "types": ["country", "political"]}, {"long_name": "34946", "short_name": "34946", "types": ["postal_code"]}], "formatted_address": "Fort Pierce, FL 34946, USA", "geometry": {"location": {"lat": 27.5351651, "lng": -80.3577151}, "location_type": "GEOMETRIC_CENTER", "viewport": {"northeast": {"lat": 27.5365140802915, "lng": -80.3563661197085}, "southwest": {"lat": 27.5338161197085, "lng": -80.3590640802915}}}, "place_id": "ChIJQT9S9YP23ogRDUqSPof9wtY", "types": ["establishment", "point_of_interest"]}]}, "107363760": {"AfN": "harding university", "Location": [{"address_components": [{"long_name": "915", "short_name": "915", "types": ["street_number"]}, {"long_name": "East Market Avenue", "short_name": "E Market Ave", "types": ["route"]}, {"long_name": "Searcy", "short_name": "Searcy", "types": ["locality", "political"]}, {"long_name": "Gray Township", "short_name": "Gray Township", "types": ["administrative_area_level_3", "political"]}, {"long_name": "White County", "short_name": "White County", "types": ["administrative_area_level_2", "political"]}, {"long_name": "Arkansas", "short_name": "AR", "types": ["administrative_area_level_1", "political"]}, {"long_name": "United States", "short_name": "US", "types": ["country", "political"]}, {"long_name": "72149", "short_name": "72149", "types": ["postal_code"]}], "formatted_address": "915 E Market Ave, Searcy, AR 72149, USA", "geometry": {"location": {"lat": 35.245152, "lng": -91.7235465}, "location_type": "ROOFTOP", "viewport": {"northeast": {"lat": 35.2465009802915, "lng": -91.72219751970849}, "southwest": {"lat": 35.2438030197085, "lng": -91.72489548029151}}}, "place_id": "ChIJs9qADaip04cREIQZoDzxZ-8", "types": ["establishment", "point_of_interest", "university"]}]}, "35409948": {"AfN": "harish chandra research institute", "Location": [{"address_components": [{"long_name": "Allahabad", "short_name": "Allahabad", "types": ["locality", "political"]}, {"long_name": "Uttar Pradesh", "short_name": "UP", "types": ["administrative_area_level_1", "political"]}, {"long_name": "India", "short_name": "IN", "types": ["country", "political"]}, {"long_name": "211019", "short_name": "211019", "types": ["postal_code"]}], "formatted_address": "Chhatnag Road, Jhusi, Allahabad, Uttar Pradesh 211019, India", "geometry": {"location": {"lat": 25.4115153, "lng": 81.9080389}, "location_type": "GEOMETRIC_CENTER", "viewport": {"northeast": {"lat": 25.4128642802915, "lng": 81.90938788029149}, "southwest": {"lat": 25.41016631970849, "lng": 81.90668991970848}}}, "place_id": "ChIJWafR6eFKhTkR91A-z53iGIY", "types": ["establishment", "point_of_interest"]}]}, "32762134": {"AfN": "harokopio university", "Location": [{"address_components": [{"long_name": "70", "short_name": "70", "types": ["street_number"]}, {"long_name": "Eleftheriou Venizelou", "short_name": "Eleftheriou Venizelou", "types": ["route"]}, {"long_name": "Kallithea", "short_name": "Kallithea", "types": ["locality", "political"]}, {"long_name": "Notios Tomeas Athinon", "short_name": "Notios Tomeas Athinon", "types": ["administrative_area_level_3", "political"]}, {"long_name": "Greece", "short_name": "GR", "types": ["country", "political"]}, {"long_name": "176 76", "short_name": "176 76", "types": ["postal_code"]}], "formatted_address": "Eleftheriou Venizelou 70, Kallithea 176 76, Greece", "geometry": {"location": {"lat": 37.961092, "lng": 23.7083821}, "location_type": "ROOFTOP", "viewport": {"northeast": {"lat": 37.9624409802915, "lng": 23.7097310802915}, "southwest": {"lat": 37.9597430197085, "lng": 23.70703311970849}}}, "place_id": "ChIJBQvqPfm8oRQR4Th-zZUGiS8", "types": ["establishment", "point_of_interest", "university"]}]}, "877023230": {"AfN": "harold grinspoon foundation", "Location": [{"address_components": [{"long_name": "100", "short_name": "100", "types": ["subpremise"]}, {"long_name": "67", "short_name": "67", "types": ["street_number"]}, {"long_name": "Hunt Street", "short_name": "Hunt St", "types": ["route"]}, {"long_name": "Agawam", "short_name": "Agawam", "types": ["locality", "political"]}, {"long_name": "Hampden County", "short_name": "Hampden County", "types": ["administrative_area_level_2", "political"]}, {"long_name": "Massachusetts", "short_name": "MA", "types": ["administrative_area_level_1", "political"]}, {"long_name": "United States", "short_name": "US", "types": ["country", "political"]}, {"long_name": "01001", "short_name": "01001", "types": ["postal_code"]}], "formatted_address": "67 Hunt St #100, Agawam, MA 01001, USA", "geometry": {"location": {"lat": 42.0830305, "lng": -72.5939212}, "location_type": "ROOFTOP", "viewport": {"northeast": {"lat": 42.0843794802915, "lng": -72.59257221970849}, "southwest": {"lat": 42.0816815197085, "lng": -72.5952701802915}}}, "place_id": "ChIJ26qyAzGqXUARoojiCFy7wzU", "types": ["establishment", "point_of_interest"]}]}, "918000572": {"AfN": "harper adams university", "Location": [{"address_components": [{"long_name": "Edgmond", "short_name": "Edgmond", "types": ["locality", "political"]}, {"long_name": "Newport", "short_name": "Newport", "types": ["postal_town"]}, {"long_name": "Shropshire", "short_name": "Shropshire", "types": ["administrative_area_level_2", "political"]}, {"long_name": "England", "short_name": "England", "types": ["administrative_area_level_1", "political"]}, {"long_name": "United Kingdom", "short_name": "GB", "types": ["country", "political"]}, {"long_name": "TF10 8NB", "short_name": "TF10 8NB", "types": ["postal_code"]}], "formatted_address": "Edgmond, Newport TF10 8NB, UK", "geometry": {"location": {"lat": 52.7794512, "lng": -2.4271346}, "location_type": "GEOMETRIC_CENTER", "viewport": {"northeast": {"lat": 52.7808001802915, "lng": -2.425785619708498}, "southwest": {"lat": 52.7781022197085, "lng": -2.428483580291502}}}, "place_id": "ChIJLV2Vw0SHekgRJ9UcbdAPO5A", "types": ["establishment", "point_of_interest", "university"]}]}, "80538482": {"AfN": "harran university", "Location": [{"address_components": [{"long_name": "Columbus", "short_name": "Columbus", "types": ["locality", "political"]}, {"long_name": "Franklin County", "short_name": "Franklin County", "types": ["administrative_area_level_2", "political"]}, {"long_name": "Ohio", "short_name": "OH", "types": ["administrative_area_level_1", "political"]}, {"long_name": "United States", "short_name": "US", "types": ["country", "political"]}, {"long_name": "43210", "short_name": "43210", "types": ["postal_code"]}], "formatted_address": "Columbus, OH 43210, USA", "geometry": {"location": {"lat": 40.0141905, "lng": -83.03091429999999}, "location_type": "GEOMETRIC_CENTER", "viewport": {"northeast": {"lat": 40.01553948029149, "lng": -83.0295653197085}, "southwest": {"lat": 40.01284151970849, "lng": -83.0322632802915}}}, "place_id": "ChIJs6fo3Y-OOIgRj4dWIQjYLKs", "types": ["establishment", "point_of_interest", "university"]}]}, "1334364371": {"AfN": "harris corporation", "Location": [{"address_components": [{"long_name": "2800", "short_name": "2800", "types": ["street_number"]}, {"long_name": "Jordan Boulevard", "short_name": "Jordan Blvd", "types": ["route"]}, {"long_name": "Malabar", "short_name": "Malabar", "types": ["locality", "political"]}, {"long_name": "Brevard County", "short_name": "Brevard County", "types": ["administrative_area_level_2", "political"]}, {"long_name": "Florida", "short_name": "FL", "types": ["administrative_area_level_1", "political"]}, {"long_name": "United States", "short_name": "US", "types": ["country", "political"]}, {"long_name": "32950", "short_name": "32950", "types": ["postal_code"]}, {"long_name": "4524", "short_name": "4524", "types": ["postal_code_suffix"]}], "formatted_address": "2800 Jordan Blvd, Malabar, FL 32950, USA", "geometry": {"location": {"lat": 27.982322, "lng": -80.556685}, "location_type": "ROOFTOP", "viewport": {"northeast": {"lat": 27.9836709802915, "lng": -80.55533601970849}, "southwest": {"lat": 27.9809730197085, "lng": -80.5580339802915}}}, "place_id": "ChIJNZyqSE4T3ogRuzuJgg4qIqI", "types": ["establishment", "point_of_interest"]}]}, "116692625": {"AfN": "harris stowe state university", "Location": [{"address_components": [{"long_name": "3026", "short_name": "3026", "types": ["street_number"]}, {"long_name": "Laclede Avenue", "short_name": "Laclede Ave", "types": ["route"]}, {"long_name": "Midtown", "short_name": "Midtown", "types": ["neighborhood", "political"]}, {"long_name": "St. Louis", "short_name": "St. Louis", "types": ["locality", "political"]}, {"long_name": "Missouri", "short_name": "MO", "types": ["administrative_area_level_1", "political"]}, {"long_name": "United States", "short_name": "US", "types": ["country", "political"]}, {"long_name": "63103", "short_name": "63103", "types": ["postal_code"]}], "formatted_address": "3026 Laclede Ave, St. Louis, MO 63103, USA", "geometry": {"location": {"lat": 38.6332575, "lng": -90.2241738}, "location_type": "ROOFTOP", "viewport": {"northeast": {"lat": 38.6346064802915, "lng": -90.2228248197085}, "southwest": {"lat": 38.6319085197085, "lng": -90.22552278029151}}}, "place_id": "ChIJLaWudKC02IcRnWzUzMG6h-g", "types": ["establishment", "point_of_interest", "university"]}]}, "1302163369": {"AfN": "hartford hospital", "Location": [{"address_components": [{"long_name": "80", "short_name": "80", "types": ["street_number"]}, {"long_name": "Seymour Street", "short_name": "Seymour St", "types": ["route"]}, {"long_name": "South Green", "short_name": "South Green", "types": ["neighborhood", "political"]}, {"long_name": "Hartford", "short_name": "Hartford", "types": ["locality", "political"]}, {"long_name": "Hartford County", "short_name": "Hartford County", "types": ["administrative_area_level_2", "political"]}, {"long_name": "Connecticut", "short_name": "CT", "types": ["administrative_area_level_1", "political"]}, {"long_name": "United States", "short_name": "US", "types": ["country", "political"]}, {"long_name": "06102", "short_name": "06102", "types": ["postal_code"]}], "formatted_address": "80 Seymour St, Hartford, CT 06102, USA", "geometry": {"location": {"lat": 41.7541516, "lng": -72.6792145}, "location_type": "ROOFTOP", "viewport": {"northeast": {"lat": 41.7555005802915, "lng": -72.6778655197085}, "southwest": {"lat": 41.7528026197085, "lng": -72.68056348029151}}}, "place_id": "ChIJncEarGxT5okR2Ji89w5gDrk", "types": ["establishment", "hospital", "point_of_interest"]}]}, "56179063": {"AfN": "hartford steam boiler inspection and insurance company", "Location": [{"address_components": [{"long_name": "1", "short_name": "1", "types": ["street_number"]}, {"long_name": "State Street", "short_name": "State St", "types": ["route"]}, {"long_name": "Downtown", "short_name": "Downtown", "types": ["neighborhood", "political"]}, {"long_name": "Hartford", "short_name": "Hartford", "types": ["locality", "political"]}, {"long_name": "Hartford County", "short_name": "Hartford County", "types": ["administrative_area_level_2", "political"]}, {"long_name": "Connecticut", "short_name": "CT", "types": ["administrative_area_level_1", "political"]}, {"long_name": "United States", "short_name": "US", "types": ["country", "political"]}, {"long_name": "06103", "short_name": "06103", "types": ["postal_code"]}], "formatted_address": "1 State St, Hartford, CT 06103, USA", "geometry": {"location": {"lat": 41.76594499999999, "lng": -72.669071}, "location_type": "ROOFTOP", "viewport": {"northeast": {"lat": 41.76729398029149, "lng": -72.66772201970849}, "southwest": {"lat": 41.76459601970849, "lng": -72.6704199802915}}}, "place_id": "ChIJmX6H5XtT5okREqNcEixAB5k", "types": ["establishment", "point_of_interest"]}]}, "72578492": {"AfN": "hartwick college", "Location": [{"address_components": [{"long_name": "1", "short_name": "1", "types": ["street_number"]}, {"long_name": "Hartwick Drive", "short_name": "Hartwick Dr", "types": ["route"]}, {"long_name": "Oneonta", "short_name": "Oneonta", "types": ["locality", "political"]}, {"long_name": "Otsego County", "short_name": "Otsego County", "types": ["administrative_area_level_2", "political"]}, {"long_name": "New York", "short_name": "NY", "types": ["administrative_area_level_1", "political"]}, {"long_name": "United States", "short_name": "US", "types": ["country", "political"]}, {"long_name": "13820", "short_name": "13820", "types": ["postal_code"]}, {"long_name": "4000", "short_name": "4000", "types": ["postal_code_suffix"]}], "formatted_address": "1 Hartwick Dr, Oneonta, NY 13820, USA", "geometry": {"location": {"lat": 42.4573534, "lng": -75.07288679999999}, "location_type": "ROOFTOP", "viewport": {"northeast": {"lat": 42.45870238029149, "lng": -75.0715378197085}, "southwest": {"lat": 42.45600441970849, "lng": -75.0742357802915}}}, "place_id": "ChIJRVZVFXuM24kRAE8dsQyDZ8g", "types": ["establishment", "point_of_interest", "university"]}]}, "136199984": {"AfN": "harvard university", "Location": [{"address_components": [{"long_name": "Cambridge", "short_name": "Cambridge", "types": ["locality", "political"]}, {"long_name": "Massachusetts", "short_name": "MA", "types": ["administrative_area_level_1", "political"]}, {"long_name": "United States", "short_name": "US", "types": ["country", "political"]}, {"long_name": "02138", "short_name": "02138", "types": ["postal_code"]}], "formatted_address": "Cambridge, MA 02138, USA", "geometry": {"location": {"lat": 42.3770029, "lng": -71.11666009999999}, "location_type": "GEOMETRIC_CENTER", "viewport": {"northeast": {"lat": 42.3783518802915, "lng": -71.11531111970848}, "southwest": {"lat": 42.3756539197085, "lng": -71.1180090802915}}}, "place_id": "ChIJmQF_fUJ344kR8Cck7lzGN1k", "types": ["establishment", "point_of_interest", "university"]}]}, "133543626": {"AfN": "harvey mudd college", "Location": [{"address_components": [{"long_name": "301", "short_name": "301", "types": ["street_number"]}, {"long_name": "Platt Boulevard", "short_name": "Platt Blvd", "types": ["route"]}, {"long_name": "Claremont", "short_name": "Claremont", "types": ["locality", "political"]}, {"long_name": "Los Angeles County", "short_name": "Los Angeles County", "types": ["administrative_area_level_2", "political"]}, {"long_name": "California", "short_name": "CA", "types": ["administrative_area_level_1", "political"]}, {"long_name": "United States", "short_name": "US", "types": ["country", "political"]}, {"long_name": "91711", "short_name": "91711", "types": ["postal_code"]}], "formatted_address": "301 Platt Blvd, Claremont, CA 91711, USA", "geometry": {"location": {"lat": 34.1060817, "lng": -117.7104699}, "location_type": "ROOFTOP", "viewport": {"northeast": {"lat": 34.1074306802915, "lng": -117.7091209197085}, "southwest": {"lat": 34.1047327197085, "lng": -117.7118188802915}}}, "place_id": "ChIJT9gBkrkxw4ARZRM5Ck25-iQ", "types": ["establishment", "point_of_interest", "university"]}]}, "157392197": {"AfN": "hashemite university", "Location": [{"address_components": [{"long_name": "Az-Zarqa", "short_name": "Az-Zarqa", "types": ["locality", "political"]}, {"long_name": "Zarqa Qasabah District", "short_name": "Zarqa Qasabah District", "types": ["administrative_area_level_2", "political"]}, {"long_name": "Zarqa Governorate", "short_name": "Zarqa Governorate", "types": ["administrative_area_level_1", "political"]}, {"long_name": "Jordan", "short_name": "JO", "types": ["country", "political"]}], "formatted_address": "Az-Zarqa, Jordan", "geometry": {"location": {"lat": 32.1029469, "lng": 36.185709}, "location_type": "GEOMETRIC_CENTER", "viewport": {"northeast": {"lat": 32.1042958802915, "lng": 36.1870579802915}, "southwest": {"lat": 32.1015979197085, "lng": 36.1843600197085}}}, "place_id": "ChIJQQ_mkAlxGxUR14W318-6xrI", "types": ["establishment", "point_of_interest", "university"]}, {"address_components": [{"long_name": "30", "short_name": "30", "types": ["route"]}, {"long_name": "Az-Zarqa", "short_name": "Az-Zarqa", "types": ["locality", "political"]}, {"long_name": "Zarqa Qasabah District", "short_name": "Zarqa Qasabah District", "types": ["administrative_area_level_2", "political"]}, {"long_name": "Zarqa Governorate", "short_name": "Zarqa Governorate", "types": ["administrative_area_level_1", "political"]}, {"long_name": "Jordan", "short_name": "JO", "types": ["country", "political"]}], "formatted_address": "30, Az-Zarqa, Jordan", "geometry": {"location": {"lat": 32.0754888, "lng": 36.1017448}, "location_type": "GEOMETRIC_CENTER", "viewport": {"northeast": {"lat": 32.07683778029149, "lng": 36.1030937802915}, "southwest": {"lat": 32.07413981970849, "lng": 36.1003958197085}}}, "place_id": "ChIJyQr2aOVvGxURDlgH7RGQpl0", "types": ["establishment", "library", "point_of_interest"]}]}, "1319306116": {"AfN": "haskins laboratories", "Location": [{"address_components": [{"long_name": "900", "short_name": "900", "types": ["subpremise"]}, {"long_name": "300", "short_name": "300", "types": ["street_number"]}, {"long_name": "George Street", "short_name": "George St", "types": ["route"]}, {"long_name": "Downtown", "short_name": "Downtown", "types": ["neighborhood", "political"]}, {"long_name": "New Haven", "short_name": "New Haven", "types": ["locality", "political"]}, {"long_name": "New Haven County", "short_name": "New Haven County", "types": ["administrative_area_level_2", "political"]}, {"long_name": "Connecticut", "short_name": "CT", "types": ["administrative_area_level_1", "political"]}, {"long_name": "United States", "short_name": "US", "types": ["country", "political"]}, {"long_name": "06511", "short_name": "06511", "types": ["postal_code"]}], "formatted_address": "300 George St #900, New Haven, CT 06511, USA", "geometry": {"location": {"lat": 41.305214, "lng": -72.93111900000001}, "location_type": "ROOFTOP", "viewport": {"northeast": {"lat": 41.3065629802915, "lng": -72.92977001970851}, "southwest": {"lat": 41.3038650197085, "lng": -72.93246798029152}}}, "place_id": "ChIJzaon_UzY54kRD8mQth6bcTI", "types": ["establishment", "point_of_interest"]}]}, "143288331": {"AfN": "hasso plattner institute", "Location": [{"address_components": [{"long_name": "2-3", "short_name": "2-3", "types": ["street_number"]}, {"long_name": "Prof.-Dr.-Helmert-Stra\u00dfe", "short_name": "Prof.-Dr.-Helmert-Stra\u00dfe", "types": ["route"]}, {"long_name": "Babelsberg", "short_name": "Babelsberg", "types": ["political", "sublocality", "sublocality_level_1"]}, {"long_name": "Potsdam", "short_name": "P", "types": ["locality", "political"]}, {"long_name": "Brandenburg", "short_name": "BB", "types": ["administrative_area_level_1", "political"]}, {"long_name": "Germany", "short_name": "DE", "types": ["country", "political"]}, {"long_name": "14482", "short_name": "14482", "types": ["postal_code"]}], "formatted_address": "Prof.-Dr.-Helmert-Stra\u00dfe 2-3, 14482 Potsdam, Germany", "geometry": {"location": {"lat": 52.3937888, "lng": 13.1322754}, "location_type": "ROOFTOP", "viewport": {"northeast": {"lat": 52.3951377802915, "lng": 13.1336243802915}, "southwest": {"lat": 52.3924398197085, "lng": 13.1309264197085}}}, "place_id": "ChIJSWMoXTZfqEcRcl7kdUnhpB0", "types": ["establishment", "point_of_interest", "university"]}]}, "932295354": {"AfN": "hastings entertainment", "Location": [{"address_components": [{"long_name": "3005", "short_name": "3005", "types": ["street_number"]}, {"long_name": "East Frank Phillips Boulevard", "short_name": "E Frank Phillips Blvd", "types": ["route"]}, {"long_name": "Bartlesville", "short_name": "Bartlesville", "types": ["locality", "political"]}, {"long_name": "Washington County", "short_name": "Washington County", "types": ["administrative_area_level_2", "political"]}, {"long_name": "Oklahoma", "short_name": "OK", "types": ["administrative_area_level_1", "political"]}, {"long_name": "United States", "short_name": "US", "types": ["country", "political"]}, {"long_name": "74006", "short_name": "74006", "types": ["postal_code"]}], "formatted_address": "3005 E Frank Phillips Blvd, Bartlesville, OK 74006, USA", "geometry": {"location": {"lat": 36.7488572, "lng": -95.94489399999999}, "location_type": "ROOFTOP", "viewport": {"northeast": {"lat": 36.75020618029149, "lng": -95.94354501970848}, "southwest": {"lat": 36.7475082197085, "lng": -95.94624298029149}}}, "place_id": "ChIJ24BbybMTt4cRLNXFCR-Kijk", "types": ["book_store", "electronics_store", "establishment", "home_goods_store", "movie_rental", "point_of_interest", "store"]}]}, "137844521": {"AfN": "hatch ltd", "Location": [{"address_components": [{"long_name": "2800", "short_name": "2800", "types": ["street_number"]}, {"long_name": "Speakman Drive", "short_name": "Speakman Dr", "types": ["route"]}, {"long_name": "Mississauga", "short_name": "Mississauga", "types": ["locality", "political"]}, {"long_name": "Peel Regional Municipality", "short_name": "Peel Regional Municipality", "types": ["administrative_area_level_2", "political"]}, {"long_name": "Ontario", "short_name": "ON", "types": ["administrative_area_level_1", "political"]}, {"long_name": "Canada", "short_name": "CA", "types": ["country", "political"]}, {"long_name": "L5K 2R7", "short_name": "L5K 2R7", "types": ["postal_code"]}], "formatted_address": "2800 Speakman Dr, Mississauga, ON L5K 2R7, Canada", "geometry": {"location": {"lat": 43.5156511, "lng": -79.67051959999999}, "location_type": "ROOFTOP", "viewport": {"northeast": {"lat": 43.5170000802915, "lng": -79.6691706197085}, "southwest": {"lat": 43.5143021197085, "lng": -79.6718685802915}}}, "place_id": "ChIJLYD3q59DK4gRVYiaCGNGrlk", "types": ["establishment", "point_of_interest"]}]}, "155707491": {"AfN": "haverford college", "Location": [{"address_components": [{"long_name": "370", "short_name": "370", "types": ["street_number"]}, {"long_name": "Lancaster Avenue", "short_name": "Lancaster Ave", "types": ["route"]}, {"long_name": "Haverford", "short_name": "Haverford", "types": ["locality", "political"]}, {"long_name": "Haverford Township", "short_name": "Haverford Township", "types": ["administrative_area_level_3", "political"]}, {"long_name": "Delaware County", "short_name": "Delaware County", "types": ["administrative_area_level_2", "political"]}, {"long_name": "Pennsylvania", "short_name": "PA", "types": ["administrative_area_level_1", "political"]}, {"long_name": "United States", "short_name": "US", "types": ["country", "political"]}, {"long_name": "19041", "short_name": "19041", "types": ["postal_code"]}], "formatted_address": "370 Lancaster Ave, Haverford, PA 19041, USA", "geometry": {"location": {"lat": 40.0093478, "lng": -75.305656}, "location_type": "ROOFTOP", "viewport": {"northeast": {"lat": 40.0106967802915, "lng": -75.30430701970849}, "southwest": {"lat": 40.0079988197085, "lng": -75.3070049802915}}}, "place_id": "ChIJJS6VzuvGxokRWTnyFDVOAEQ", "types": ["establishment", "point_of_interest", "university"]}]}, "149581226": {"AfN": "hawaii pacific university", "Location": [{"address_components": [{"long_name": "1164", "short_name": "1164", "types": ["street_number"]}, {"long_name": "Bishop Street", "short_name": "Bishop St", "types": ["route"]}, {"long_name": "Downtown", "short_name": "Downtown", "types": ["neighborhood", "political"]}, {"long_name": "Honolulu", "short_name": "Honolulu", "types": ["locality", "political"]}, {"long_name": "Honolulu County", "short_name": "Honolulu County", "types": ["administrative_area_level_2", "political"]}, {"long_name": "Hawaii", "short_name": "HI", "types": ["administrative_area_level_1", "political"]}, {"long_name": "United States", "short_name": "US", "types": ["country", "political"]}, {"long_name": "96813", "short_name": "96813", "types": ["postal_code"]}], "formatted_address": "1164 Bishop St, Honolulu, HI 96813, USA", "geometry": {"location": {"lat": 21.3102505, "lng": -157.8607075}, "location_type": "ROOFTOP", "viewport": {"northeast": {"lat": 21.3115994802915, "lng": -157.8593585197085}, "southwest": {"lat": 21.3089015197085, "lng": -157.8620564802915}}}, "place_id": "ChIJj-5rrnVuAHwRPS6SHf-kPW4", "types": ["establishment", "point_of_interest", "university"]}]}, "96211989": {"AfN": "hcl technologies", "Location": [{"address_components": [{"long_name": "200", "short_name": "200", "types": ["subpremise"]}, {"long_name": "2401", "short_name": "2401", "types": ["street_number"]}, {"long_name": "Internet Boulevard", "short_name": "Internet Blvd", "types": ["route"]}, {"long_name": "Hall Office Park", "short_name": "Hall Office Park", "types": ["neighborhood", "political"]}, {"long_name": "Frisco", "short_name": "Frisco", "types": ["locality", "political"]}, {"long_name": "Collin County", "short_name": "Collin County", "types": ["administrative_area_level_2", "political"]}, {"long_name": "Texas", "short_name": "TX", "types": ["administrative_area_level_1", "political"]}, {"long_name": "United States", "short_name": "US", "types": ["country", "political"]}, {"long_name": "75034", "short_name": "75034", "types": ["postal_code"]}], "formatted_address": "2401 Internet Blvd #200, Frisco, TX 75034, USA", "geometry": {"location": {"lat": 33.0993265, "lng": -96.82931649999999}, "location_type": "ROOFTOP", "viewport": {"northeast": {"lat": 33.1006754802915, "lng": -96.82796751970848}, "southwest": {"lat": 33.0979775197085, "lng": -96.8306654802915}}}, "place_id": "ChIJwbtax5s8TIYRuvCvdFN8KSU", "types": ["establishment", "point_of_interest"]}]}, "1340066241": {"AfN": "hdr inc", "Location": [{"address_components": [{"long_name": "300", "short_name": "300", "types": ["subpremise"]}, {"long_name": "17111", "short_name": "17111", "types": ["street_number"]}, {"long_name": "Preston Road", "short_name": "Preston Rd", "types": ["route"]}, {"long_name": "Far North Dallas", "short_name": "Far North Dallas", "types": ["neighborhood", "political"]}, {"long_name": "Dallas", "short_name": "Dallas", "types": ["locality", "political"]}, {"long_name": "Dallas County", "short_name": "Dallas County", "types": ["administrative_area_level_2", "political"]}, {"long_name": "Texas", "short_name": "TX", "types": ["administrative_area_level_1", "political"]}, {"long_name": "United States", "short_name": "US", "types": ["country", "political"]}, {"long_name": "75248", "short_name": "75248", "types": ["postal_code"]}], "formatted_address": "17111 Preston Rd #300, Dallas, TX 75248, USA", "geometry": {"location": {"lat": 32.9856859, "lng": -96.8045393}, "location_type": "ROOFTOP", "viewport": {"northeast": {"lat": 32.9870348802915, "lng": -96.80319031970849}, "southwest": {"lat": 32.9843369197085, "lng": -96.8058882802915}}}, "place_id": "ChIJnV_9SNgjTIYRUpglA-Mqs8Y", "types": ["establishment", "point_of_interest"]}]}, "81831788": {"AfN": "health and safety executive", "Location": [{"address_components": [{"long_name": "200", "short_name": "200", "types": ["street_number"]}, {"long_name": "Constitution Avenue Northwest", "short_name": "Constitution Ave NW", "types": ["route"]}, {"long_name": "Northwest Washington", "short_name": "Northwest Washington", "types": ["neighborhood", "political"]}, {"long_name": "Washington", "short_name": "Washington", "types": ["locality", "political"]}, {"long_name": "District of Columbia", "short_name": "DC", "types": ["administrative_area_level_1", "political"]}, {"long_name": "United States", "short_name": "US", "types": ["country", "political"]}, {"long_name": "20210", "short_name": "20210", "types": ["postal_code"]}, {"long_name": "0001", "short_name": "0001", "types": ["postal_code_suffix"]}], "formatted_address": "200 Constitution Ave NW, Washington, DC 20210, USA", "geometry": {"location": {"lat": 38.89292, "lng": -77.0143354}, "location_type": "ROOFTOP", "viewport": {"northeast": {"lat": 38.8942689802915, "lng": -77.01298641970848}, "southwest": {"lat": 38.8915710197085, "lng": -77.01568438029149}}}, "place_id": "ChIJfXqFSYa3t4kRBN-zccvs76s", "types": ["establishment", "health", "local_government_office", "point_of_interest"]}]}, "1285148140": {"AfN": "health and welfare canada", "Location": [{"address_components": [{"long_name": "200", "short_name": "200", "types": ["street_number"]}, {"long_name": "Boulevard Ren\u00e9-L\u00e9vesque Ouest", "short_name": "Boulevard Ren\u00e9-L\u00e9vesque O", "types": ["route"]}, {"long_name": "Ville-Marie", "short_name": "Ville-Marie", "types": ["political", "sublocality", "sublocality_level_1"]}, {"long_name": "Montr\u00e9al", "short_name": "Montr\u00e9al", "types": ["locality", "political"]}, {"long_name": "Communaut\u00e9-Urbaine-de-Montr\u00e9al", "short_name": "Communaut\u00e9-Urbaine-de-Montr\u00e9al", "types": ["administrative_area_level_2", "political"]}, {"long_name": "Qu\u00e9bec", "short_name": "QC", "types": ["administrative_area_level_1", "political"]}, {"long_name": "Canada", "short_name": "CA", "types": ["country", "political"]}, {"long_name": "H2Z 1X4", "short_name": "H2Z 1X4", "types": ["postal_code"]}], "formatted_address": "200 Boulevard Ren\u00e9-L\u00e9vesque O, Montr\u00e9al, QC H2Z 1X4, Canada", "geometry": {"location": {"lat": 45.50697479999999, "lng": -73.5624491}, "location_type": "ROOFTOP", "viewport": {"northeast": {"lat": 45.5083237802915, "lng": -73.56110011970848}, "southwest": {"lat": 45.5056258197085, "lng": -73.56379808029149}}}, "place_id": "ChIJOxNnhUJbmUwR9bnJsOzBqEw", "types": ["establishment", "health", "point_of_interest"]}]}, "1288894424": {"AfN": "health canada", "Location": [{"address_components": [{"long_name": "2301", "short_name": "2301", "types": ["street_number"]}, {"long_name": "Midland Avenue", "short_name": "Midland Ave", "types": ["route"]}, {"long_name": "Scarborough", "short_name": "Scarborough", "types": ["political", "sublocality", "sublocality_level_1"]}, {"long_name": "Toronto", "short_name": "Toronto", "types": ["locality", "political"]}, {"long_name": "Toronto Division", "short_name": "Toronto Division", "types": ["administrative_area_level_2", "political"]}, {"long_name": "Ontario", "short_name": "ON", "types": ["administrative_area_level_1", "political"]}, {"long_name": "Canada", "short_name": "CA", "types": ["country", "political"]}, {"long_name": "M1P 4R7", "short_name": "M1P 4R7", "types": ["postal_code"]}], "formatted_address": "2301 Midland Ave, Scarborough, ON M1P 4R7, Canada", "geometry": {"location": {"lat": 43.7769583, "lng": -79.27211410000001}, "location_type": "ROOFTOP", "viewport": {"northeast": {"lat": 43.7783072802915, "lng": -79.27076511970851}, "southwest": {"lat": 43.7756093197085, "lng": -79.27346308029152}}}, "place_id": "ChIJDem6x57R1IkRyXqD9wpdhXw", "types": ["establishment", "health", "local_government_office", "point_of_interest"]}]}, "1338334475": {"AfN": "health protection agency", "Location": [{"address_components": [{"long_name": "Topeka", "short_name": "Topeka", "types": ["locality", "political"]}, {"long_name": "Monroe", "short_name": "Monroe", "types": ["neighborhood", "political"]}, {"long_name": "Shawnee County", "short_name": "Shawnee County", "types": ["administrative_area_level_2", "political"]}, {"long_name": "Kansas", "short_name": "KS", "types": ["administrative_area_level_1", "political"]}, {"long_name": "United States", "short_name": "US", "types": ["country", "political"]}, {"long_name": "66612", "short_name": "66612", "types": ["postal_code"]}], "formatted_address": "Topeka, KS 66612, USA", "geometry": {"location": {"lat": 39.0397435, "lng": -95.67998159999999}, "location_type": "GEOMETRIC_CENTER", "viewport": {"northeast": {"lat": 39.0410924802915, "lng": -95.67863261970848}, "southwest": {"lat": 39.0383945197085, "lng": -95.6813305802915}}}, "place_id": "ChIJq6qqqhkDv4cReovH_l394TY", "types": ["establishment", "point_of_interest"]}]}, "23874457": {"AfN": "health resources and services administration", "Location": [{"address_components": [{"long_name": "5600", "short_name": "5600", "types": ["street_number"]}, {"long_name": "Fishers Lane", "short_name": "Fishers Ln", "types": ["route"]}, {"long_name": "Rockville", "short_name": "Rockville", "types": ["locality", "political"]}, {"long_name": "4", "short_name": "4", "types": ["administrative_area_level_3", "political"]}, {"long_name": "Montgomery County", "short_name": "Montgomery County", "types": ["administrative_area_level_2", "political"]}, {"long_name": "Maryland", "short_name": "MD", "types": ["administrative_area_level_1", "political"]}, {"long_name": "United States", "short_name": "US", "types": ["country", "political"]}, {"long_name": "20852", "short_name": "20852", "types": ["postal_code"]}, {"long_name": "1750", "short_name": "1750", "types": ["postal_code_suffix"]}], "formatted_address": "5600 Fishers Ln, Rockville, MD 20852, USA", "geometry": {"location": {"lat": 39.06278289999999, "lng": -77.1126046}, "location_type": "ROOFTOP", "viewport": {"northeast": {"lat": 39.06413188029149, "lng": -77.1112556197085}, "southwest": {"lat": 39.0614339197085, "lng": -77.11395358029151}}}, "place_id": "ChIJe4BMPtLNt4kRtnVzkXTXp2g", "types": ["establishment", "health", "local_government_office", "point_of_interest"]}, {"address_components": [{"long_name": "1721", "short_name": "1721", "types": ["subpremise"]}, {"long_name": "601", "short_name": "601", "types": ["street_number"]}, {"long_name": "East 12th Street", "short_name": "E 12th St", "types": ["route"]}, {"long_name": "East Village", "short_name": "East Village", "types": ["neighborhood", "political"]}, {"long_name": "Kansas City", "short_name": "KCMO", "types": ["locality", "political"]}, {"long_name": "Kaw Township", "short_name": "Kaw Township", "types": ["administrative_area_level_3", "political"]}, {"long_name": "Jackson County", "short_name": "Jackson County", "types": ["administrative_area_level_2", "political"]}, {"long_name": "Missouri", "short_name": "MO", "types": ["administrative_area_level_1", "political"]}, {"long_name": "United States", "short_name": "US", "types": ["country", "political"]}, {"long_name": "64106", "short_name": "64106", "types": ["postal_code"]}, {"long_name": "2818", "short_name": "2818", "types": ["postal_code_suffix"]}], "formatted_address": "601 E 12th St #1721, Kansas City, MO 64106, USA", "geometry": {"location": {"lat": 39.0992591, "lng": -94.5760732}, "location_type": "ROOFTOP", "viewport": {"northeast": {"lat": 39.1006080802915, "lng": -94.57472421970849}, "southwest": {"lat": 39.0979101197085, "lng": -94.5774221802915}}}, "place_id": "ChIJh16PQ2TwwIcR7x6--UKG9OE", "types": ["establishment", "point_of_interest"]}]}, "81385395": {"AfN": "health science university", "Location": [{"address_components": [{"long_name": "1111", "short_name": "1111", "types": ["street_number"]}, {"long_name": "West 17th Street", "short_name": "W 17th St", "types": ["route"]}, {"long_name": "Tulsa", "short_name": "Tulsa", "types": ["locality", "political"]}, {"long_name": "Tulsa County", "short_name": "Tulsa County", "types": ["administrative_area_level_2", "political"]}, {"long_name": "Oklahoma", "short_name": "OK", "types": ["administrative_area_level_1", "political"]}, {"long_name": "United States", "short_name": "US", "types": ["country", "political"]}, {"long_name": "74107", "short_name": "74107", "types": ["postal_code"]}], "formatted_address": "1111 W 17th St, Tulsa, OK 74107, USA", "geometry": {"location": {"lat": 36.1379354, "lng": -96.0061204}, "location_type": "ROOFTOP", "viewport": {"northeast": {"lat": 36.1392843802915, "lng": -96.00477141970849}, "southwest": {"lat": 36.1365864197085, "lng": -96.00746938029151}}}, "place_id": "ChIJ98PktRTrtocRJI5ZOTmAdO8", "types": ["establishment", "health", "point_of_interest", "university"]}]}, "163793406": {"AfN": "health sciences university of hokkaido", "Location": [{"address_components": [{"long_name": "1757", "short_name": "1757", "types": ["premise"]}, {"long_name": "Kanazawa", "short_name": "Kanazawa", "types": ["political", "sublocality", "sublocality_level_2"]}, {"long_name": "Tobetsu", "short_name": "Tobetsu", "types": ["locality", "political"]}, {"long_name": "Ishikari District", "short_name": "Ishikari District", "types": ["administrative_area_level_2", "political"]}, {"long_name": "Hokkaido", "short_name": "Hokkaido", "types": ["administrative_area_level_1", "political"]}, {"long_name": "Japan", "short_name": "JP", "types": ["country", "political"]}, {"long_name": "061-0293", "short_name": "061-0293", "types": ["postal_code"]}], "formatted_address": "1757 Kanazawa, Tobetsu, Ishikari District, Hokkaido 061-0293, Japan", "geometry": {"location": {"lat": 43.231413, "lng": 141.548781}, "location_type": "ROOFTOP", "viewport": {"northeast": {"lat": 43.2327619802915, "lng": 141.5501299802915}, "southwest": {"lat": 43.2300640197085, "lng": 141.5474320197085}}}, "place_id": "ChIJUarVsko4C18RpV_U5i6aZMs", "types": ["establishment", "point_of_interest", "university"]}]}, "52792670": {"AfN": "healthpartners", "Location": [{"address_components": [{"long_name": "200", "short_name": "200", "types": ["subpremise"]}, {"long_name": "8010", "short_name": "8010", "types": ["street_number"]}, {"long_name": "South 101st East Avenue", "short_name": "South 101st East Avenue", "types": ["route"]}, {"long_name": "Tulsa", "short_name": "Tulsa", "types": ["locality", "political"]}, {"long_name": "Tulsa County", "short_name": "Tulsa County", "types": ["administrative_area_level_2", "political"]}, {"long_name": "Oklahoma", "short_name": "OK", "types": ["administrative_area_level_1", "political"]}, {"long_name": "United States", "short_name": "US", "types": ["country", "political"]}, {"long_name": "74133", "short_name": "74133", "types": ["postal_code"]}, {"long_name": "4562", "short_name": "4562", "types": ["postal_code_suffix"]}], "formatted_address": "8010 South 101st East Avenue #200, Tulsa, OK 74133, USA", "geometry": {"location": {"lat": 36.0483401, "lng": -95.8636849}, "location_type": "ROOFTOP", "viewport": {"northeast": {"lat": 36.04968908029149, "lng": -95.86233591970849}, "southwest": {"lat": 36.04699111970849, "lng": -95.8650338802915}}}, "place_id": "ChIJu71Gw86NtocRdXnB_Ea7Kbc", "types": ["establishment", "health", "point_of_interest"]}]}, "273727760": {"AfN": "heart and stroke foundation of canada", "Location": [{"address_components": [{"long_name": "Suite# 110", "short_name": "Suite# 110", "types": ["subpremise"]}, {"long_name": "1525", "short_name": "1525", "types": ["street_number"]}, {"long_name": "Carling Avenue", "short_name": "Carling Ave", "types": ["route"]}, {"long_name": "Byward Market - Parliament Hill", "short_name": "Byward Market - Parliament Hill", "types": ["neighborhood", "political"]}, {"long_name": "Ottawa", "short_name": "Ottawa", "types": ["locality", "political"]}, {"long_name": "Ottawa Division", "short_name": "Ottawa Division", "types": ["administrative_area_level_2", "political"]}, {"long_name": "Ontario", "short_name": "ON", "types": ["administrative_area_level_1", "political"]}, {"long_name": "Canada", "short_name": "CA", "types": ["country", "political"]}, {"long_name": "K1Z 8R9", "short_name": "K1Z 8R9", "types": ["postal_code"]}], "formatted_address": "1525 Carling Ave Suite# 110, Ottawa, ON K1Z 8R9, Canada", "geometry": {"location": {"lat": 45.4203098, "lng": -75.70094519999999}, "location_type": "ROOFTOP", "viewport": {"northeast": {"lat": 45.4216587802915, "lng": -75.69959621970848}, "southwest": {"lat": 45.4189608197085, "lng": -75.7022941802915}}}, "place_id": "ChIJLxXFTVQEzkwRovlTpVTcNPU", "types": ["establishment", "point_of_interest"]}]}, "111381250": {"AfN": "hebei medical university", "Location": [{"address_components": [{"long_name": "361", "short_name": "361", "types": ["street_number"]}, {"long_name": "Zhongshan East Road", "short_name": "Zhongshan E Rd", "types": ["route"]}, {"long_name": "Changan Qu", "short_name": "Changan Qu", "types": ["political", "sublocality", "sublocality_level_1"]}, {"long_name": "Shijiazhuang Shi", "short_name": "Shijiazhuang Shi", "types": ["locality", "political"]}, {"long_name": "Hebei Sheng", "short_name": "Hebei Sheng", "types": ["administrative_area_level_1", "political"]}, {"long_name": "China", "short_name": "CN", "types": ["country", "political"]}, {"long_name": "50017", "short_name": "50017", "types": ["postal_code"]}], "formatted_address": "361 Zhongshan E Rd, Changan Qu, Shijiazhuang Shi, Hebei Sheng, China, 50017", "geometry": {"location": {"lat": 38.045598, "lng": 114.535302}, "location_type": "ROOFTOP", "viewport": {"northeast": {"lat": 38.04694698029149, "lng": 114.5366509802915}, "southwest": {"lat": 38.0442490197085, "lng": 114.5339530197085}}}, "place_id": "ChIJI9gGqaXg5jURJuaIXBcVvdg", "types": ["establishment", "point_of_interest", "university"]}]}, "94611258": {"AfN": "hebei normal university", "Location": [{"address_components": [{"long_name": "20", "short_name": "20", "types": ["street_number"]}, {"long_name": "South 2nd Ring Road East", "short_name": "S 2nd Ring Rd E", "types": ["route"]}, {"long_name": "Yuhua Qu", "short_name": "Yuhua Qu", "types": ["political", "sublocality", "sublocality_level_1"]}, {"long_name": "Shijiazhuang Shi", "short_name": "Shijiazhuang Shi", "types": ["locality", "political"]}, {"long_name": "Hebei Sheng", "short_name": "Hebei Sheng", "types": ["administrative_area_level_1", "political"]}, {"long_name": "China", "short_name": "CN", "types": ["country", "political"]}, {"long_name": "050000", "short_name": "050000", "types": ["postal_code"]}], "formatted_address": "20 S 2nd Ring Rd E, Yuhua Qu, Shijiazhuang Shi, Hebei Sheng, China, 050000", "geometry": {"location": {"lat": 37.99808, "lng": 114.51859}, "location_type": "ROOFTOP", "viewport": {"northeast": {"lat": 37.9994289802915, "lng": 114.5199389802915}, "southwest": {"lat": 37.9967310197085, "lng": 114.5172410197085}}}, "place_id": "ChIJZXdJNOHf5jURcVLCqyHXNm4", "types": ["establishment", "point_of_interest", "university"]}]}, "34155123": {"AfN": "hebei university of science and technology", "Location": [{"address_components": [{"long_name": "26\u53f7", "short_name": "26\u53f7", "types": ["street_number"]}, {"long_name": "Yu Xiang Jie", "short_name": "Yu Xiang Jie", "types": ["route"]}, {"long_name": "Yuhua Qu", "short_name": "Yuhua Qu", "types": ["political", "sublocality", "sublocality_level_1"]}, {"long_name": "Shijiazhuang Shi", "short_name": "Shijiazhuang Shi", "types": ["locality", "political"]}, {"long_name": "Hebei Sheng", "short_name": "Hebei Sheng", "types": ["administrative_area_level_1", "political"]}, {"long_name": "China", "short_name": "CN", "types": ["country", "political"]}], "formatted_address": "26 Yu Xiang Jie, Yuhua Qu, Shijiazhuang Shi, Hebei Sheng, China", "geometry": {"location": {"lat": 37.9763587, "lng": 114.5212977}, "location_type": "ROOFTOP", "viewport": {"northeast": {"lat": 37.97770768029149, "lng": 114.5226466802915}, "southwest": {"lat": 37.9750097197085, "lng": 114.5199487197085}}}, "place_id": "ChIJN2Vt6F_g5jUR1K0ObVp_pR0", "types": ["establishment", "point_of_interest", "university"]}]}, "184843921": {"AfN": "hebei university of technology", "Location": [{"address_components": [{"long_name": "8", "short_name": "8", "types": ["street_number"]}, {"long_name": "Dingzigu 1st Road", "short_name": "Dingzigu 1st Rd", "types": ["route"]}, {"long_name": "Hongqiao Qu", "short_name": "Hongqiao Qu", "types": ["political", "sublocality", "sublocality_level_1"]}, {"long_name": "Tianjin Shi", "short_name": "Tianjin Shi", "types": ["administrative_area_level_1", "political"]}, {"long_name": "China", "short_name": "CN", "types": ["country", "political"]}, {"long_name": "300131", "short_name": "300131", "types": ["postal_code"]}], "formatted_address": "8 Dingzigu 1st Rd, Hongqiao Qu, China, 300131", "geometry": {"location": {"lat": 39.179635, "lng": 117.165882}, "location_type": "ROOFTOP", "viewport": {"northeast": {"lat": 39.1809839802915, "lng": 117.1672309802915}, "southwest": {"lat": 39.1782860197085, "lng": 117.1645330197085}}}, "place_id": "ChIJYwEKaqIA7jURY-_oHE80OsE", "types": ["establishment", "point_of_interest", "university"]}]}, "197251160": {"AfN": "hebrew university of jerusalem", "Location": [{"address_components": [{"long_name": "Jerusalem", "short_name": "Jerusalem", "types": ["locality", "political"]}, {"long_name": "Israel", "short_name": "IL", "types": ["country", "political"]}], "formatted_address": "Jerusalem", "geometry": {"location": {"lat": 31.7945578, "lng": 35.2414009}, "location_type": "GEOMETRIC_CENTER", "viewport": {"northeast": {"lat": 31.7959067802915, "lng": 35.2427498802915}, "southwest": {"lat": 31.7932088197085, "lng": 35.2400519197085}}}, "place_id": "ChIJudcDcpEpAxURkFoyySVh0u0", "types": ["establishment", "point_of_interest", "university"]}]}, "122544976": {"AfN": "hebron university", "Location": [{"address_components": [{"long_name": "\u0634\u0627\u0631\u0639 \u0627\u0644\u062c\u0627\u0645\u0639\u0629", "short_name": "\u0634\u0627\u0631\u0639 \u0627\u0644\u062c\u0627\u0645\u0639\u0629", "types": ["route"]}, {"long_name": "Hebron", "short_name": "Hebron", "types": ["locality", "political"]}], "formatted_address": "\u0634\u0627\u0631\u0639 \u0627\u0644\u062c\u0627\u0645\u0639\u0629\u060c Hebron", "geometry": {"location": {"lat": 31.55000949999999, "lng": 35.0939252}, "location_type": "GEOMETRIC_CENTER", "viewport": {"northeast": {"lat": 31.55135848029149, "lng": 35.0952741802915}, "southwest": {"lat": 31.5486605197085, "lng": 35.0925762197085}}}, "place_id": "ChIJF7hsCpLmAhURlr2wPxqDXec", "types": ["establishment", "point_of_interest", "university"]}]}, "108192572": {"AfN": "hec montreal", "Location": [{"address_components": [{"long_name": "3000", "short_name": "3000", "types": ["street_number"]}, {"long_name": "Chemin de la C\u00f4te-Sainte-Catherine", "short_name": "Chemin de la C\u00f4te-Sainte-Catherine", "types": ["route"]}, {"long_name": "C\u00f4te-Des-Neiges\u2014Notre-Dame-De-Gr\u00e2ce", "short_name": "C\u00f4te-Des-Neiges\u2014Notre-Dame-De-Gr\u00e2ce", "types": ["political", "sublocality", "sublocality_level_1"]}, {"long_name": "Montr\u00e9al", "short_name": "Montr\u00e9al", "types": ["locality", "political"]}, {"long_name": "Communaut\u00e9-Urbaine-de-Montr\u00e9al", "short_name": "Communaut\u00e9-Urbaine-de-Montr\u00e9al", "types": ["administrative_area_level_2", "political"]}, {"long_name": "Qu\u00e9bec", "short_name": "QC", "types": ["administrative_area_level_1", "political"]}, {"long_name": "Canada", "short_name": "CA", "types": ["country", "political"]}, {"long_name": "H3T 2A7", "short_name": "H3T 2A7", "types": ["postal_code"]}], "formatted_address": "3000 Chemin de la C\u00f4te-Sainte-Catherine, Montr\u00e9al, QC H3T 2A7, Canada", "geometry": {"location": {"lat": 45.5033628, "lng": -73.6207582}, "location_type": "ROOFTOP", "viewport": {"northeast": {"lat": 45.5047117802915, "lng": -73.6194092197085}, "southwest": {"lat": 45.5020138197085, "lng": -73.62210718029151}}}, "place_id": "ChIJsRqPzewZyUwRXTvbR1PpgOc", "types": ["establishment", "point_of_interest", "university"]}]}, "83860666": {"AfN": "hec paris", "Location": [{"address_components": [{"long_name": "1", "short_name": "1", "types": ["street_number"]}, {"long_name": "Rue de la Lib\u00e9ration", "short_name": "Rue de la Lib\u00e9ration", "types": ["route"]}, {"long_name": "Jouy-en-Josas", "short_name": "Jouy-en-Josas", "types": ["locality", "political"]}, {"long_name": "Yvelines", "short_name": "Yvelines", "types": ["administrative_area_level_2", "political"]}, {"long_name": "\u00cele-de-France", "short_name": "\u00cele-de-France", "types": ["administrative_area_level_1", "political"]}, {"long_name": "France", "short_name": "FR", "types": ["country", "political"]}, {"long_name": "78350", "short_name": "78350", "types": ["postal_code"]}], "formatted_address": "1 Rue de la Lib\u00e9ration, 78350 Jouy-en-Josas, France", "geometry": {"location": {"lat": 48.757887, "lng": 2.1694163}, "location_type": "ROOFTOP", "viewport": {"northeast": {"lat": 48.7592359802915, "lng": 2.170765280291502}, "southwest": {"lat": 48.7565380197085, "lng": 2.168067319708498}}}, "place_id": "ChIJx1TX48h-5kcRdpxiF3QJeDs", "types": ["establishment", "point_of_interest", "university"]}]}, "133513517": {"AfN": "hedmark university college", "Location": [{"address_components": [{"long_name": "Elverum", "short_name": "Elverum", "types": ["postal_town"]}, {"long_name": "Norway", "short_name": "NO", "types": ["country", "political"]}, {"long_name": "2411", "short_name": "2411", "types": ["postal_code"]}], "formatted_address": "Terningen Arena, Hamarvegen 112, 2411 Elverum, Norway", "geometry": {"location": {"lat": 60.881183, "lng": 11.536546}, "location_type": "GEOMETRIC_CENTER", "viewport": {"northeast": {"lat": 60.8825319802915, "lng": 11.5378949802915}, "southwest": {"lat": 60.8798340197085, "lng": 11.5351970197085}}}, "place_id": "ChIJM463xakBakYRc90NyQgyqL4", "types": ["establishment", "point_of_interest", "university"]}]}, "16365422": {"AfN": "hefei university of technology", "Location": [{"address_components": [{"long_name": "193", "short_name": "193", "types": ["street_number"]}, {"long_name": "Tunxi Road", "short_name": "Tunxi Rd", "types": ["route"]}, {"long_name": "Baohe Qu", "short_name": "Baohe Qu", "types": ["political", "sublocality", "sublocality_level_1"]}, {"long_name": "Hefei Shi", "short_name": "Hefei Shi", "types": ["locality", "political"]}, {"long_name": "Anhui Sheng", "short_name": "Anhui Sheng", "types": ["administrative_area_level_1", "political"]}, {"long_name": "China", "short_name": "CN", "types": ["country", "political"]}, {"long_name": "230000", "short_name": "230000", "types": ["postal_code"]}], "formatted_address": "193 Tunxi Rd, Baohe Qu, Hefei Shi, Anhui Sheng, China, 230000", "geometry": {"location": {"lat": 31.847443, "lng": 117.295572}, "location_type": "ROOFTOP", "viewport": {"northeast": {"lat": 31.8487919802915, "lng": 117.2969209802915}, "southwest": {"lat": 31.8460940197085, "lng": 117.2942230197085}}}, "place_id": "ChIJy6E89J1myzURqgUSLPt06ps", "types": ["establishment", "point_of_interest", "university"]}]}, "71030271": {"AfN": "heidelberg institute for theoretical studies", "Location": [{"address_components": [{"long_name": "35", "short_name": "35", "types": ["street_number"]}, {"long_name": "Schlo\u00df-Wolfsbrunnenweg", "short_name": "Schlo\u00df-Wolfsbrunnenweg", "types": ["route"]}, {"long_name": "Ziegelhausen", "short_name": "Ziegelhausen", "types": ["political", "sublocality", "sublocality_level_1"]}, {"long_name": "Heidelberg", "short_name": "Heidelberg", "types": ["locality", "political"]}, {"long_name": "Karlsruhe", "short_name": "KA", "types": ["administrative_area_level_2", "political"]}, {"long_name": "Baden-W\u00fcrttemberg", "short_name": "BW", "types": ["administrative_area_level_1", "political"]}, {"long_name": "Germany", "short_name": "DE", "types": ["country", "political"]}, {"long_name": "69118", "short_name": "69118", "types": ["postal_code"]}], "formatted_address": "Schlo\u00df-Wolfsbrunnenweg 35, 69118 Heidelberg, Germany", "geometry": {"location": {"lat": 49.4153452, "lng": 8.7366766}, "location_type": "ROOFTOP", "viewport": {"northeast": {"lat": 49.41669418029149, "lng": 8.7380255802915}, "southwest": {"lat": 49.4139962197085, "lng": 8.735327619708496}}}, "place_id": "ChIJf3fs4rjBl0cRlO6k6ztFalg", "types": ["establishment", "point_of_interest"]}]}, "223822909": {"AfN": "heidelberg university", "Location": [{"address_components": [{"long_name": "310", "short_name": "310", "types": ["street_number"]}, {"long_name": "East Market Street", "short_name": "E Market St", "types": ["route"]}, {"long_name": "Tiffin", "short_name": "Tiffin", "types": ["locality", "political"]}, {"long_name": "Seneca County", "short_name": "Seneca County", "types": ["administrative_area_level_2", "political"]}, {"long_name": "Ohio", "short_name": "OH", "types": ["administrative_area_level_1", "political"]}, {"long_name": "United States", "short_name": "US", "types": ["country", "political"]}, {"long_name": "44883", "short_name": "44883", "types": ["postal_code"]}], "formatted_address": "310 E Market St, Tiffin, OH 44883, USA", "geometry": {"location": {"lat": 41.1148471, "lng": -83.16748539999999}, "location_type": "ROOFTOP", "viewport": {"northeast": {"lat": 41.11619608029149, "lng": -83.16613641970848}, "southwest": {"lat": 41.1134981197085, "lng": -83.1688343802915}}}, "place_id": "ChIJoaHPbSvfO4gR3aDrSef4NCY", "types": ["establishment", "point_of_interest", "university"]}]}, "55022517": {"AfN": "heilongjiang university", "Location": [{"address_components": [{"long_name": "74\u53f7", "short_name": "74\u53f7", "types": ["street_number"]}, {"long_name": "Xuefu Road", "short_name": "Xuefu Rd", "types": ["route"]}, {"long_name": "Nangang Qu", "short_name": "Nangang Qu", "types": ["political", "sublocality", "sublocality_level_1"]}, {"long_name": "Haerbin Shi", "short_name": "Haerbin Shi", "types": ["locality", "political"]}, {"long_name": "Heilongjiang Sheng", "short_name": "Heilongjiang Sheng", "types": ["administrative_area_level_1", "political"]}, {"long_name": "China", "short_name": "CN", "types": ["country", "political"]}], "formatted_address": "74 Xuefu Rd, Nangang Qu, Haerbin Shi, Heilongjiang Sheng, China", "geometry": {"location": {"lat": 45.7077, "lng": 126.623977}, "location_type": "ROOFTOP", "viewport": {"northeast": {"lat": 45.70904898029149, "lng": 126.6253259802915}, "southwest": {"lat": 45.7063510197085, "lng": 126.6226280197085}}}, "place_id": "ChIJmUHzBDN_RF4RrF3OtMcImk8", "types": ["establishment", "point_of_interest", "university"]}]}, "192327786": {"AfN": "heilongjiang university of chinese medicine", "Location": [{"address_components": [{"long_name": "24", "short_name": "24", "types": ["street_number"]}, {"long_name": "Heping Road", "short_name": "Heping Rd", "types": ["route"]}, {"long_name": "Xiangfang Qu", "short_name": "Xiangfang Qu", "types": ["political", "sublocality", "sublocality_level_1"]}, {"long_name": "Haerbin Shi", "short_name": "Haerbin Shi", "types": ["locality", "political"]}, {"long_name": "Heilongjiang Sheng", "short_name": "Heilongjiang Sheng", "types": ["administrative_area_level_1", "political"]}, {"long_name": "China", "short_name": "CN", "types": ["country", "political"]}, {"long_name": "150040", "short_name": "150040", "types": ["postal_code"]}], "formatted_address": "24 Heping Rd, Xiangfang Qu, Haerbin Shi, Heilongjiang Sheng, China, 150040", "geometry": {"location": {"lat": 45.725138, "lng": 126.64942}, "location_type": "ROOFTOP", "viewport": {"northeast": {"lat": 45.7264869802915, "lng": 126.6507689802915}, "southwest": {"lat": 45.72378901970851, "lng": 126.6480710197085}}}, "place_id": "ChIJOXvs1AR_RF4Rg0jTjWvcDIE", "types": ["establishment", "point_of_interest", "university"]}, {"address_components": [{"long_name": "Wenzhi Toudao Street", "short_name": "Wenzhi Toudao St", "types": ["route"]}, {"long_name": "Xiangfang Qu", "short_name": "Xiangfang Qu", "types": ["political", "sublocality", "sublocality_level_1"]}, {"long_name": "Haerbin Shi", "short_name": "Haerbin Shi", "types": ["locality", "political"]}, {"long_name": "Heilongjiang Sheng", "short_name": "Heilongjiang Sheng", "types": ["administrative_area_level_1", "political"]}, {"long_name": "China", "short_name": "CN", "types": ["country", "political"]}, {"long_name": "150040", "short_name": "150040", "types": ["postal_code"]}], "formatted_address": "Wenzhi Toudao St, Xiangfang Qu, Haerbin Shi, Heilongjiang Sheng, China, 150040", "geometry": {"location": {"lat": 45.729085, "lng": 126.6480011}, "location_type": "GEOMETRIC_CENTER", "viewport": {"northeast": {"lat": 45.7304339802915, "lng": 126.6493500802915}, "southwest": {"lat": 45.7277360197085, "lng": 126.6466521197085}}}, "place_id": "ChIJNywuSAV_RF4R3kg_Bqu3WjY", "types": ["establishment", "point_of_interest", "university"]}]}, "137251492": {"AfN": "heinrich pette institute", "Location": [{"address_components": [{"long_name": "52", "short_name": "52", "types": ["street_number"]}, {"long_name": "Martinistra\u00dfe", "short_name": "Martinistra\u00dfe", "types": ["route"]}, {"long_name": "Bezirk Eimsb\u00fcttel", "short_name": "Bezirk Eimsb\u00fcttel", "types": ["political", "sublocality", "sublocality_level_1"]}, {"long_name": "Hamburg", "short_name": "Hamburg", "types": ["locality", "political"]}, {"long_name": "Hamburg", "short_name": "HH", "types": ["administrative_area_level_1", "political"]}, {"long_name": "Germany", "short_name": "DE", "types": ["country", "political"]}, {"long_name": "20251", "short_name": "20251", "types": ["postal_code"]}], "formatted_address": "Martinistra\u00dfe 52, 20251 Hamburg, Germany", "geometry": {"location": {"lat": 53.5933461, "lng": 9.973121}, "location_type": "ROOFTOP", "viewport": {"northeast": {"lat": 53.59469508029149, "lng": 9.974469980291504}, "southwest": {"lat": 53.59199711970849, "lng": 9.9717720197085}}}, "place_id": "ChIJ40WFmLCIsUcRK8WAwSHgCzc", "types": ["establishment", "point_of_interest"]}]}, "74015815": {"AfN": "helen wills neuroscience institute", "Location": [{"address_components": [{"long_name": "3190", "short_name": "3190", "types": ["subpremise"]}, {"long_name": "132", "short_name": "132", "types": ["street_number"]}, {"long_name": "Barker Hall", "short_name": "Barker Hall", "types": ["route"]}, {"long_name": "Berkeley", "short_name": "Berkeley", "types": ["locality", "political"]}, {"long_name": "Alameda County", "short_name": "Alameda County", "types": ["administrative_area_level_2", "political"]}, {"long_name": "California", "short_name": "CA", "types": ["administrative_area_level_1", "political"]}, {"long_name": "United States", "short_name": "US", "types": ["country", "political"]}, {"long_name": "94720", "short_name": "94720", "types": ["postal_code"]}, {"long_name": "0001", "short_name": "0001", "types": ["postal_code_suffix"]}], "formatted_address": "132 Barker Hall #3190, Berkeley, CA 94720, USA", "geometry": {"location": {"lat": 37.8739753, "lng": -122.2654418}, "location_type": "ROOFTOP", "viewport": {"northeast": {"lat": 37.87532428029149, "lng": -122.2640928197085}, "southwest": {"lat": 37.87262631970849, "lng": -122.2667907802915}}}, "place_id": "ChIJR0Va9zl8hYARP3Qff6N40GM", "types": ["establishment", "point_of_interest"]}]}, "908450791": {"AfN": "helicos biosciences", "Location": [{"address_components": [{"long_name": "210", "short_name": "210", "types": ["subpremise"]}, {"long_name": "317", "short_name": "317", "types": ["street_number"]}, {"long_name": "New Boston Street", "short_name": "New Boston St", "types": ["route"]}, {"long_name": "Woburn", "short_name": "Woburn", "types": ["locality", "political"]}, {"long_name": "Middlesex County", "short_name": "Middlesex County", "types": ["administrative_area_level_2", "political"]}, {"long_name": "Massachusetts", "short_name": "MA", "types": ["administrative_area_level_1", "political"]}, {"long_name": "United States", "short_name": "US", "types": ["country", "political"]}, {"long_name": "01801", "short_name": "01801", "types": ["postal_code"]}], "formatted_address": "317 New Boston St #210, Woburn, MA 01801, USA", "geometry": {"location": {"lat": 42.5222128, "lng": -71.1463371}, "location_type": "ROOFTOP", "viewport": {"northeast": {"lat": 42.52356178029149, "lng": -71.14498811970849}, "southwest": {"lat": 42.5208638197085, "lng": -71.14768608029149}}}, "place_id": "ChIJAWUeiip144kRQ6fUlxNYquc", "types": ["establishment", "point_of_interest"]}]}, "143165994": {"AfN": "hellenic aerospace industry", "Location": [{"address_components": [{"long_name": "Hellenic Aerospace Industry S.A.", "short_name": "Hellenic Aerospace Industry S.A.", "types": ["airport", "establishment", "point_of_interest"]}, {"long_name": "Schimatari", "short_name": "Schimatari", "types": ["administrative_area_level_5", "political"]}, {"long_name": "Viotia", "short_name": "Viotia", "types": ["administrative_area_level_3", "political"]}, {"long_name": "Greece", "short_name": "GR", "types": ["country", "political"]}, {"long_name": "320 09", "short_name": "320 09", "types": ["postal_code"]}], "formatted_address": "Hellenic Aerospace Industry S.A., Schimatari 320 09, Greece", "geometry": {"location": {"lat": 38.3287103, "lng": 23.5873089}, "location_type": "GEOMETRIC_CENTER", "viewport": {"northeast": {"lat": 38.33005928029149, "lng": 23.5886578802915}, "southwest": {"lat": 38.32736131970849, "lng": 23.5859599197085}}}, "partial_match": true, "place_id": "ChIJixYPOgIQoRQRwsatGW3oR9A", "types": ["airport", "establishment", "point_of_interest"]}]}, "148517538": {"AfN": "hellenic air force academy", "Location": [{"address_components": [{"long_name": "Acharnes", "short_name": "Acharnes", "types": ["locality", "political"]}, {"long_name": "East Attica", "short_name": "East Attica", "types": ["administrative_area_level_3", "political"]}, {"long_name": "Greece", "short_name": "GR", "types": ["country", "political"]}, {"long_name": "136 72", "short_name": "136 72", "types": ["postal_code"]}], "formatted_address": "Acharnes 136 72, Greece", "geometry": {"location": {"lat": 38.1141561, "lng": 23.7769793}, "location_type": "GEOMETRIC_CENTER", "viewport": {"northeast": {"lat": 38.11550508029149, "lng": 23.7783282802915}, "southwest": {"lat": 38.1128071197085, "lng": 23.77563031970849}}}, "place_id": "ChIJMRTpa5CfoRQR9l0qfBFKlyU", "types": ["establishment", "point_of_interest", "university"]}]}, "24897511": {"AfN": "hellenic military academy", "Location": [{"address_components": [{"long_name": "80", "short_name": "80", "types": ["street_number"]}, {"long_name": "Leoforos Varis Koropiou", "short_name": "Leof. Varis Koropiou", "types": ["route"]}, {"long_name": "Kitsi", "short_name": "Kitsi", "types": ["locality", "political"]}, {"long_name": "Anatoliki Attiki", "short_name": "Anatoliki Attiki", "types": ["administrative_area_level_3", "political"]}, {"long_name": "Greece", "short_name": "GR", "types": ["country", "political"]}, {"long_name": "194 00", "short_name": "194 00", "types": ["postal_code"]}], "formatted_address": "Leof. Varis Koropiou 80, Kitsi 194 00, Greece", "geometry": {"location": {"lat": 37.84114630000001, "lng": 23.8151309}, "location_type": "ROOFTOP", "viewport": {"northeast": {"lat": 37.84249528029151, "lng": 23.8164798802915}, "southwest": {"lat": 37.83979731970851, "lng": 23.8137819197085}}}, "place_id": "ChIJOQXGsliUoRQRneUmNvg-N9c", "types": ["establishment", "point_of_interest", "university"]}]}, "137479271": {"AfN": "helmholtz centre for environmental research ufz", "Location": [{"address_components": [{"long_name": "15", "short_name": "15", "types": ["street_number"]}, {"long_name": "Permoserstra\u00dfe", "short_name": "Permoserstra\u00dfe", "types": ["route"]}, {"long_name": "Ost", "short_name": "Ost", "types": ["political", "sublocality", "sublocality_level_1"]}, {"long_name": "Leipzig", "short_name": "Leipzig", "types": ["locality", "political"]}, {"long_name": "Leipzig", "short_name": "Leipzig", "types": ["administrative_area_level_2", "political"]}, {"long_name": "Sachsen", "short_name": "SN", "types": ["administrative_area_level_1", "political"]}, {"long_name": "Germany", "short_name": "DE", "types": ["country", "political"]}, {"long_name": "04318", "short_name": "04318", "types": ["postal_code"]}], "formatted_address": "Permoserstra\u00dfe 15, 04318 Leipzig, Germany", "geometry": {"location": {"lat": 51.3517518, "lng": 12.4309111}, "location_type": "ROOFTOP", "viewport": {"northeast": {"lat": 51.3531007802915, "lng": 12.4322600802915}, "southwest": {"lat": 51.3504028197085, "lng": 12.4295621197085}}}, "place_id": "ChIJFQllA334pkcRjgmwBlHx38w", "types": ["establishment", "point_of_interest"]}]}, "190134885": {"AfN": "helmut schmidt university", "Location": [{"address_components": [{"long_name": "85", "short_name": "85", "types": ["street_number"]}, {"long_name": "Holstenhofweg", "short_name": "Holstenhofweg", "types": ["route"]}, {"long_name": "Wandsbek", "short_name": "Wandsbek", "types": ["political", "sublocality", "sublocality_level_1"]}, {"long_name": "Hamburg", "short_name": "Hamburg", "types": ["locality", "political"]}, {"long_name": "Hamburg", "short_name": "HH", "types": ["administrative_area_level_1", "political"]}, {"long_name": "Germany", "short_name": "DE", "types": ["country", "political"]}, {"long_name": "22043", "short_name": "22043", "types": ["postal_code"]}], "formatted_address": "Holstenhofweg 85, 22043 Hamburg, Germany", "geometry": {"location": {"lat": 53.5685678, "lng": 10.1102543}, "location_type": "ROOFTOP", "viewport": {"northeast": {"lat": 53.5699167802915, "lng": 10.1116032802915}, "southwest": {"lat": 53.5672188197085, "lng": 10.1089053197085}}}, "place_id": "ChIJT2oK03eMsUcRWzdRSwBXWr4", "types": ["establishment", "point_of_interest", "university"]}]}, "125861091": {"AfN": "help university", "Location": [{"address_components": [{"long_name": "Jalan Semantan", "short_name": "Jalan Semantan", "types": ["route"]}, {"long_name": "Bukit Damansara", "short_name": "Bukit Damansara", "types": ["political", "sublocality", "sublocality_level_1"]}, {"long_name": "Kuala Lumpur", "short_name": "Kuala Lumpur", "types": ["locality", "political"]}, {"long_name": "Wilayah Persekutuan Kuala Lumpur", "short_name": "Wilayah Persekutuan Kuala Lumpur", "types": ["administrative_area_level_1", "political"]}, {"long_name": "Malaysia", "short_name": "MY", "types": ["country", "political"]}, {"long_name": "50490", "short_name": "50490", "types": ["postal_code"]}], "formatted_address": "Jalan Semantan, Bukit Damansara, 50490 Kuala Lumpur, Wilayah Persekutuan Kuala Lumpur, Malaysia", "geometry": {"location": {"lat": 3.1521959, "lng": 101.6712908}, "location_type": "GEOMETRIC_CENTER", "viewport": {"northeast": {"lat": 3.153544880291502, "lng": 101.6726397802915}, "southwest": {"lat": 3.150846919708498, "lng": 101.6699418197085}}}, "place_id": "ChIJG0LHpaxJzDERQMKmVq0tJLc", "types": ["establishment", "point_of_interest", "university"]}]}, "32943570": {"AfN": "helsinki institute for information technology", "Location": [{"address_components": [{"long_name": "14", "short_name": "14", "types": ["street_number"]}, {"long_name": "Teknikv\u00e4gen", "short_name": "Teknikv\u00e4gen", "types": ["route"]}, {"long_name": "Esbo", "short_name": "Esbo", "types": ["locality", "political"]}, {"long_name": "Finland", "short_name": "FI", "types": ["country", "political"]}, {"long_name": "02150", "short_name": "02150", "types": ["postal_code"]}], "formatted_address": "Teknikv\u00e4gen 14, 02150 Esbo, Finland", "geometry": {"location": {"lat": 60.18547799999999, "lng": 24.812257}, "location_type": "ROOFTOP", "viewport": {"northeast": {"lat": 60.1868269802915, "lng": 24.8136059802915}, "southwest": {"lat": 60.18412901970849, "lng": 24.8109080197085}}}, "place_id": "ChIJn6EgaZX1jUYRIigrHVSgrzk", "types": ["establishment", "point_of_interest"]}]}, "67826202": {"AfN": "helsinki university of technology", "Location": []}, "84058292": {"AfN": "helwan university", "Location": [{"address_components": [{"long_name": "Al Sikka Al Hadid Al Gharbeya", "short_name": "Al Sikka Al Hadid Al Gharbeya", "types": ["route"]}, {"long_name": "Al Masaken Al Iqtisadeyah", "short_name": "Al Masaken Al Iqtisadeyah", "types": ["administrative_area_level_3", "political"]}, {"long_name": "Qism Helwan", "short_name": "Qism Helwan", "types": ["administrative_area_level_2", "political"]}, {"long_name": "Cairo Governorate", "short_name": "Cairo Governorate", "types": ["administrative_area_level_1", "political"]}, {"long_name": "Egypt", "short_name": "EG", "types": ["country", "political"]}], "formatted_address": "Al Sikka Al Hadid Al Gharbeya, Al Masaken Al Iqtisadeyah, Qism Helwan, Cairo Governorate, Egypt", "geometry": {"location": {"lat": 29.86686619999999, "lng": 31.3152702}, "location_type": "GEOMETRIC_CENTER", "viewport": {"northeast": {"lat": 29.86821518029149, "lng": 31.3166191802915}, "southwest": {"lat": 29.8655172197085, "lng": 31.3139212197085}}}, "place_id": "ChIJad5YSvM2WBQRKkYy8FU4hUk", "types": ["establishment", "point_of_interest", "university"]}]}, "4750791": {"AfN": "henan agricultural university", "Location": [{"address_components": [{"long_name": "Wenyuan North Road", "short_name": "Wenyuan N Rd", "types": ["route"]}, {"long_name": "Jinshui Qu", "short_name": "Jinshui Qu", "types": ["political", "sublocality", "sublocality_level_1"]}, {"long_name": "Zhengzhou Shi", "short_name": "Zhengzhou Shi", "types": ["locality", "political"]}, {"long_name": "Henan Sheng", "short_name": "Henan Sheng", "types": ["administrative_area_level_1", "political"]}, {"long_name": "China", "short_name": "CN", "types": ["country", "political"]}], "formatted_address": "Wenyuan N Rd, Jinshui Qu, Zhengzhou Shi, Henan Sheng, China", "geometry": {"location": {"lat": 34.798373, "lng": 113.822349}, "location_type": "GEOMETRIC_CENTER", "viewport": {"northeast": {"lat": 34.79972198029149, "lng": 113.8236979802915}, "southwest": {"lat": 34.79702401970849, "lng": 113.8210000197085}}}, "place_id": "ChIJQdT6X5Fe1zURjWqiWkupB0U", "types": ["establishment", "point_of_interest", "university"]}]}, "173899330": {"AfN": "henan university", "Location": [{"address_components": [{"long_name": "Minglun Street", "short_name": "Minglun St", "types": ["route"]}, {"long_name": "Shunhe Huizuqu", "short_name": "Shunhe Huizuqu", "types": ["political", "sublocality", "sublocality_level_1"]}, {"long_name": "Kaifeng Shi", "short_name": "Kaifeng Shi", "types": ["locality", "political"]}, {"long_name": "Henan Sheng", "short_name": "Henan Sheng", "types": ["administrative_area_level_1", "political"]}, {"long_name": "China", "short_name": "CN", "types": ["country", "political"]}, {"long_name": "475001", "short_name": "475001", "types": ["postal_code"]}], "formatted_address": "Minglun St, Shunhe Huizuqu, Kaifeng Shi, Henan Sheng, China, 475001", "geometry": {"location": {"lat": 34.808921, "lng": 114.369752}, "location_type": "GEOMETRIC_CENTER", "viewport": {"northeast": {"lat": 34.8102699802915, "lng": 114.3711009802915}, "southwest": {"lat": 34.8075720197085, "lng": 114.3684030197085}}}, "place_id": "ChIJJ7A5MEkG2jURB_wgn77rY3U", "types": ["establishment", "point_of_interest", "university"]}]}, "130741802": {"AfN": "henderson state university", "Location": [{"address_components": [{"long_name": "1100", "short_name": "1100", "types": ["street_number"]}, {"long_name": "Henderson Street", "short_name": "Henderson St", "types": ["route"]}, {"long_name": "Arkadelphia", "short_name": "Arkadelphia", "types": ["locality", "political"]}, {"long_name": "Caddo", "short_name": "Caddo", "types": ["administrative_area_level_3", "political"]}, {"long_name": "Clark County", "short_name": "Clark County", "types": ["administrative_area_level_2", "political"]}, {"long_name": "Arkansas", "short_name": "AR", "types": ["administrative_area_level_1", "political"]}, {"long_name": "United States", "short_name": "US", "types": ["country", "political"]}, {"long_name": "71999", "short_name": "71999", "types": ["postal_code"]}], "formatted_address": "1100 Henderson St, Arkadelphia, AR 71999, USA", "geometry": {"location": {"lat": 34.1308101, "lng": -93.05912339999999}, "location_type": "ROOFTOP", "viewport": {"northeast": {"lat": 34.13215908029149, "lng": -93.0577744197085}, "southwest": {"lat": 34.12946111970849, "lng": -93.0604723802915}}}, "place_id": "ChIJKfFf8czfMoYRt5Nkk2VKo38", "types": ["establishment", "point_of_interest", "university"]}]}, "130327366": {"AfN": "hendrix college", "Location": [{"address_components": [{"long_name": "1600", "short_name": "1600", "types": ["street_number"]}, {"long_name": "Washington Avenue", "short_name": "Washington Ave", "types": ["route"]}, {"long_name": "Conway", "short_name": "Conway", "types": ["locality", "political"]}, {"long_name": "Cadron Township", "short_name": "Cadron Township", "types": ["administrative_area_level_3", "political"]}, {"long_name": "Faulkner County", "short_name": "Faulkner County", "types": ["administrative_area_level_2", "political"]}, {"long_name": "Arkansas", "short_name": "AR", "types": ["administrative_area_level_1", "political"]}, {"long_name": "United States", "short_name": "US", "types": ["country", "political"]}, {"long_name": "72032", "short_name": "72032", "types": ["postal_code"]}, {"long_name": "3080", "short_name": "3080", "types": ["postal_code_suffix"]}], "formatted_address": "1600 Washington Ave, Conway, AR 72032, USA", "geometry": {"location": {"lat": 35.1000469, "lng": -92.4420118}, "location_type": "ROOFTOP", "viewport": {"northeast": {"lat": 35.10139588029149, "lng": -92.4406628197085}, "southwest": {"lat": 35.0986979197085, "lng": -92.44336078029151}}}, "place_id": "ChIJO-EaUyCC0ocRzKTqQQUhs6c", "types": ["establishment", "point_of_interest", "university"]}]}, "154057602": {"AfN": "henry ford health system", "Location": [{"address_components": [{"long_name": "100", "short_name": "100", "types": ["subpremise"]}, {"long_name": "15420", "short_name": "15420", "types": ["street_number"]}, {"long_name": "19 Mile Road", "short_name": "19 Mile Rd", "types": ["route"]}, {"long_name": "Charter Township of Clinton", "short_name": "Charter Twp of Clinton", "types": ["locality", "political"]}, {"long_name": "Macomb County", "short_name": "Macomb County", "types": ["administrative_area_level_2", "political"]}, {"long_name": "Michigan", "short_name": "MI", "types": ["administrative_area_level_1", "political"]}, {"long_name": "United States", "short_name": "US", "types": ["country", "political"]}, {"long_name": "48038", "short_name": "48038", "types": ["postal_code"]}], "formatted_address": "15420 19 Mile Rd #100, Charter Twp of Clinton, MI 48038, USA", "geometry": {"location": {"lat": 42.611419, "lng": -82.969747}, "location_type": "ROOFTOP", "viewport": {"northeast": {"lat": 42.61276798029149, "lng": -82.96839801970849}, "southwest": {"lat": 42.61007001970849, "lng": -82.97109598029151}}}, "place_id": "ChIJi_gSrl_eJIgRTG25qXb1CJo", "types": ["doctor", "establishment", "health", "point_of_interest"]}]}, "1338637020": {"AfN": "henry l stimson center", "Location": [{"address_components": [{"long_name": "Washington", "short_name": "Washington", "types": ["locality", "political"]}, {"long_name": "District of Columbia", "short_name": "DC", "types": ["administrative_area_level_1", "political"]}, {"long_name": "United States", "short_name": "US", "types": ["country", "political"]}, {"long_name": "20036", "short_name": "20036", "types": ["postal_code"]}], "formatted_address": "1211 Connecticut Avenue Northwest, 8th floor, Washington, DC 20036, United States", "geometry": {"location": {"lat": 38.9062194, "lng": -77.0411748}, "location_type": "GEOMETRIC_CENTER", "viewport": {"northeast": {"lat": 38.9075683802915, "lng": -77.0398258197085}, "southwest": {"lat": 38.9048704197085, "lng": -77.0425237802915}}}, "place_id": "ChIJ94znsrm3t4kRWaHBBsBUE4o", "types": ["establishment", "point_of_interest"]}]}, "1280259254": {"AfN": "henry m jackson foundation for the advancement of military medicine", "Location": [{"address_components": [{"long_name": "6720A", "short_name": "6720A", "types": ["street_number"]}, {"long_name": "Rockledge Drive", "short_name": "Rockledge Dr", "types": ["route"]}, {"long_name": "Bethesda", "short_name": "Bethesda", "types": ["locality", "political"]}, {"long_name": "4", "short_name": "4", "types": ["administrative_area_level_3", "political"]}, {"long_name": "Montgomery County", "short_name": "Montgomery County", "types": ["administrative_area_level_2", "political"]}, {"long_name": "Maryland", "short_name": "MD", "types": ["administrative_area_level_1", "political"]}, {"long_name": "United States", "short_name": "US", "types": ["country", "political"]}, {"long_name": "20817", "short_name": "20817", "types": ["postal_code"]}, {"long_name": "1891", "short_name": "1891", "types": ["postal_code_suffix"]}], "formatted_address": "6720A Rockledge Dr, Bethesda, MD 20817, USA", "geometry": {"location": {"lat": 39.0293844, "lng": -77.137356}, "location_type": "ROOFTOP", "viewport": {"northeast": {"lat": 39.0307333802915, "lng": -77.1360070197085}, "southwest": {"lat": 39.0280354197085, "lng": -77.13870498029151}}}, "place_id": "ChIJadNYWnDMt4kR56fwmxhCpXY", "types": ["establishment", "point_of_interest"]}]}, "32062511": {"AfN": "heriot watt university", "Location": [{"address_components": [{"long_name": "Edinburgh Campus", "short_name": "Edinburgh Campus", "types": ["premise"]}, {"long_name": "Edinburgh", "short_name": "Edinburgh", "types": ["postal_town"]}, {"long_name": "Edinburgh", "short_name": "Edinburgh", "types": ["administrative_area_level_2", "political"]}, {"long_name": "Scotland", "short_name": "Scotland", "types": ["administrative_area_level_1", "political"]}, {"long_name": "United Kingdom", "short_name": "GB", "types": ["country", "political"]}, {"long_name": "EH14 4AS", "short_name": "EH14 4AS", "types": ["postal_code"]}], "formatted_address": "Edinburgh Campus, Edinburgh EH14 4AS, UK", "geometry": {"location": {"lat": 55.9096602, "lng": -3.3203494}, "location_type": "ROOFTOP", "viewport": {"northeast": {"lat": 55.91100918029151, "lng": -3.319000419708498}, "southwest": {"lat": 55.90831121970851, "lng": -3.321698380291502}}}, "place_id": "ChIJMf9u8GrEh0gRJrKTndU7Ruo", "types": ["establishment", "point_of_interest", "university"]}]}, "45647351": {"AfN": "heritage college of osteopathic medicine", "Location": [{"address_components": [{"long_name": "35", "short_name": "35", "types": ["street_number"]}, {"long_name": "West Green Drive", "short_name": "W Green Dr", "types": ["route"]}, {"long_name": "Athens", "short_name": "Athens", "types": ["locality", "political"]}, {"long_name": "Athens Township", "short_name": "Athens Township", "types": ["administrative_area_level_3", "political"]}, {"long_name": "Athens County", "short_name": "Athens County", "types": ["administrative_area_level_2", "political"]}, {"long_name": "Ohio", "short_name": "OH", "types": ["administrative_area_level_1", "political"]}, {"long_name": "United States", "short_name": "US", "types": ["country", "political"]}, {"long_name": "45701", "short_name": "45701", "types": ["postal_code"]}], "formatted_address": "35 W Green Dr, Athens, OH 45701, USA", "geometry": {"location": {"lat": 39.3243858, "lng": -82.10576089999999}, "location_type": "ROOFTOP", "viewport": {"northeast": {"lat": 39.3257347802915, "lng": -82.10441191970848}, "southwest": {"lat": 39.32303681970851, "lng": -82.10710988029149}}}, "place_id": "ChIJmSPi3adzSIgRwnErmeBjI4w", "types": ["establishment", "health", "point_of_interest", "university"]}, {"address_components": [{"long_name": "Athens", "short_name": "Athens", "types": ["locality", "political"]}, {"long_name": "Athens Township", "short_name": "Athens Township", "types": ["administrative_area_level_3", "political"]}, {"long_name": "Athens County", "short_name": "Athens County", "types": ["administrative_area_level_2", "political"]}, {"long_name": "Ohio", "short_name": "OH", "types": ["administrative_area_level_1", "political"]}, {"long_name": "United States", "short_name": "US", "types": ["country", "political"]}, {"long_name": "45701", "short_name": "45701", "types": ["postal_code"]}], "formatted_address": "Athens, OH 45701, USA", "geometry": {"location": {"lat": 39.324358, "lng": -82.10138889999999}, "location_type": "GEOMETRIC_CENTER", "viewport": {"northeast": {"lat": 39.32570698029149, "lng": -82.1000399197085}, "southwest": {"lat": 39.3230090197085, "lng": -82.1027378802915}}}, "place_id": "ChIJswiEvrhzSIgR9udJdKNks2s", "types": ["establishment", "point_of_interest", "university"]}]}, "48151418": {"AfN": "heritage institute of technology", "Location": [{"address_components": [{"long_name": "Kolkata", "short_name": "Kolkata", "types": ["locality", "political"]}, {"long_name": "West Bengal", "short_name": "WB", "types": ["administrative_area_level_1", "political"]}, {"long_name": "India", "short_name": "IN", "types": ["country", "political"]}, {"long_name": "700107", "short_name": "700107", "types": ["postal_code"]}], "formatted_address": "Chowbaga Road, Anandapur, P.O East Kolkata Township, Kolkata, West Bengal 700107, India", "geometry": {"location": {"lat": 22.517282, "lng": 88.4186638}, "location_type": "GEOMETRIC_CENTER", "viewport": {"northeast": {"lat": 22.5186309802915, "lng": 88.42001278029151}, "southwest": {"lat": 22.51593301970849, "lng": 88.41731481970851}}}, "place_id": "ChIJVSA49Ql0AjoRwnO_GQz5fKQ", "types": ["establishment", "point_of_interest", "university"]}]}, "6100803": {"AfN": "heritage university", "Location": [{"address_components": [{"long_name": "3240", "short_name": "3240", "types": ["street_number"]}, {"long_name": "Fort Road", "short_name": "Fort Rd", "types": ["route"]}, {"long_name": "Toppenish", "short_name": "Toppenish", "types": ["locality", "political"]}, {"long_name": "Yakima County", "short_name": "Yakima County", "types": ["administrative_area_level_2", "political"]}, {"long_name": "Washington", "short_name": "WA", "types": ["administrative_area_level_1", "political"]}, {"long_name": "United States", "short_name": "US", "types": ["country", "political"]}, {"long_name": "98948", "short_name": "98948", "types": ["postal_code"]}], "formatted_address": "3240 Fort Rd, Toppenish, WA 98948, USA", "geometry": {"location": {"lat": 46.373833, "lng": -120.3947462}, "location_type": "ROOFTOP", "viewport": {"northeast": {"lat": 46.3751819802915, "lng": -120.3933972197085}, "southwest": {"lat": 46.3724840197085, "lng": -120.3960951802915}}}, "place_id": "ChIJmRTdIJiGl1QRxslDHovVFD8", "types": ["establishment", "point_of_interest", "university"]}]}, "24830596": {"AfN": "hertie school of governance", "Location": [{"address_components": [{"long_name": "180", "short_name": "180", "types": ["street_number"]}, {"long_name": "Friedrichstra\u00dfe", "short_name": "Friedrichstra\u00dfe", "types": ["route"]}, {"long_name": "Mitte", "short_name": "Mitte", "types": ["political", "sublocality", "sublocality_level_1"]}, {"long_name": "Berlin", "short_name": "Berlin", "types": ["locality", "political"]}, {"long_name": "Berlin", "short_name": "Berlin", "types": ["administrative_area_level_1", "political"]}, {"long_name": "Germany", "short_name": "DE", "types": ["country", "political"]}, {"long_name": "10117", "short_name": "10117", "types": ["postal_code"]}], "formatted_address": "Friedrichstra\u00dfe 180, 10117 Berlin, Germany", "geometry": {"location": {"lat": 52.5125702, "lng": 13.3892893}, "location_type": "ROOFTOP", "viewport": {"northeast": {"lat": 52.5139191802915, "lng": 13.3906382802915}, "southwest": {"lat": 52.5112212197085, "lng": 13.3879403197085}}}, "place_id": "ChIJfU5-HlRQqEcRFi85HC5SYQQ", "types": ["establishment", "point_of_interest", "university"]}]}, "123576224": {"AfN": "herzberg institute of astrophysics", "Location": [{"address_components": [{"long_name": "5071", "short_name": "5071", "types": ["street_number"]}, {"long_name": "West Saanich Road", "short_name": "W Saanich Rd", "types": ["route"]}, {"long_name": "Victoria", "short_name": "Victoria", "types": ["locality", "political"]}, {"long_name": "Saanich", "short_name": "Saanich", "types": ["administrative_area_level_3", "political"]}, {"long_name": "Capital", "short_name": "Capital", "types": ["administrative_area_level_2", "political"]}, {"long_name": "British Columbia", "short_name": "BC", "types": ["administrative_area_level_1", "political"]}, {"long_name": "Canada", "short_name": "CA", "types": ["country", "political"]}, {"long_name": "V9E 2E7", "short_name": "V9E 2E7", "types": ["postal_code"]}], "formatted_address": "5071 W Saanich Rd, Victoria, BC V9E 2E7, Canada", "geometry": {"location": {"lat": 48.519264, "lng": -123.416261}, "location_type": "ROOFTOP", "viewport": {"northeast": {"lat": 48.5206129802915, "lng": -123.4149120197085}, "southwest": {"lat": 48.5179150197085, "lng": -123.4176099802915}}}, "place_id": "ChIJWbdGrNFtj1QRlHbXHVEslwQ", "types": ["establishment", "point_of_interest"]}]}, "16718484": {"AfN": "hess corporation", "Location": [{"address_components": [{"long_name": "Hess Tower", "short_name": "Hess Tower", "types": ["premise"]}, {"long_name": "1501", "short_name": "1501", "types": ["street_number"]}, {"long_name": "McKinney Street", "short_name": "McKinney St", "types": ["route"]}, {"long_name": "Central Business District", "short_name": "Central Business District", "types": ["neighborhood", "political"]}, {"long_name": "Houston", "short_name": "Houston", "types": ["locality", "political"]}, {"long_name": "Harris County", "short_name": "Harris County", "types": ["administrative_area_level_2", "political"]}, {"long_name": "Texas", "short_name": "TX", "types": ["administrative_area_level_1", "political"]}, {"long_name": "United States", "short_name": "US", "types": ["country", "political"]}, {"long_name": "77010", "short_name": "77010", "types": ["postal_code"]}, {"long_name": "4010", "short_name": "4010", "types": ["postal_code_suffix"]}], "formatted_address": "Hess Tower, 1501 McKinney St, Houston, TX 77010, USA", "geometry": {"location": {"lat": 29.7546294, "lng": -95.3599019}, "location_type": "ROOFTOP", "viewport": {"northeast": {"lat": 29.7559783802915, "lng": -95.35855291970849}, "southwest": {"lat": 29.7532804197085, "lng": -95.3612508802915}}}, "place_id": "ChIJfy2iBDm_QIYRjgKEE3GFL9Y", "types": ["establishment", "point_of_interest"]}]}, "1324840837": {"AfN": "hewlett packard", "Location": [{"address_components": [{"long_name": "Tulsa", "short_name": "Tulsa", "types": ["locality", "political"]}, {"long_name": "Deco District", "short_name": "Deco District", "types": ["neighborhood", "political"]}, {"long_name": "Tulsa County", "short_name": "Tulsa County", "types": ["administrative_area_level_2", "political"]}, {"long_name": "Oklahoma", "short_name": "OK", "types": ["administrative_area_level_1", "political"]}, {"long_name": "United States", "short_name": "US", "types": ["country", "political"]}, {"long_name": "74103", "short_name": "74103", "types": ["postal_code"]}], "formatted_address": "Tulsa, OK 74103, USA", "geometry": {"location": {"lat": 36.1539816, "lng": -95.99277500000001}, "location_type": "GEOMETRIC_CENTER", "viewport": {"northeast": {"lat": 36.1553305802915, "lng": -95.99142601970851}, "southwest": {"lat": 36.1526326197085, "lng": -95.99412398029152}}}, "place_id": "ChIJ8cFBy3nrtocRDuzoyTaeVPs", "types": ["establishment", "point_of_interest"]}]}, "86725329": {"AfN": "hgst", "Location": [{"address_components": [{"long_name": "5601", "short_name": "5601", "types": ["street_number"]}, {"long_name": "Great Oaks Parkway", "short_name": "Great Oaks Pkwy", "types": ["route"]}, {"long_name": "Edenvale", "short_name": "Edenvale", "types": ["neighborhood", "political"]}, {"long_name": "San Jose", "short_name": "San Jose", "types": ["locality", "political"]}, {"long_name": "Santa Clara County", "short_name": "Santa Clara County", "types": ["administrative_area_level_2", "political"]}, {"long_name": "California", "short_name": "CA", "types": ["administrative_area_level_1", "political"]}, {"long_name": "United States", "short_name": "US", "types": ["country", "political"]}, {"long_name": "95119", "short_name": "95119", "types": ["postal_code"]}], "formatted_address": "5601 Great Oaks Pkwy, San Jose, CA 95119, USA", "geometry": {"location": {"lat": 37.2479526, "lng": -121.7920282}, "location_type": "ROOFTOP", "viewport": {"northeast": {"lat": 37.24930158029149, "lng": -121.7906792197085}, "southwest": {"lat": 37.2466036197085, "lng": -121.7933771802915}}}, "place_id": "ChIJ9faGua8DLhURpR1t2SffGFg", "types": ["establishment", "point_of_interest"]}]}, "115194318": {"AfN": "high altitude observatory", "Location": [{"address_components": [{"long_name": "3080", "short_name": "3080", "types": ["street_number"]}, {"long_name": "Center Green Drive", "short_name": "Center Green Dr", "types": ["route"]}, {"long_name": "Boulder", "short_name": "Boulder", "types": ["locality", "political"]}, {"long_name": "Colorado", "short_name": "CO", "types": ["administrative_area_level_1", "political"]}, {"long_name": "United States", "short_name": "US", "types": ["country", "political"]}, {"long_name": "80301", "short_name": "80301", "types": ["postal_code"]}, {"long_name": "2252", "short_name": "2252", "types": ["postal_code_suffix"]}], "formatted_address": "2252, 3080 Center Green Dr, Boulder, CO 80301, United States", "geometry": {"location": {"lat": 40.0315278, "lng": -105.245847}, "location_type": "ROOFTOP", "viewport": {"northeast": {"lat": 40.0328767802915, "lng": -105.2444980197085}, "southwest": {"lat": 40.0301788197085, "lng": -105.2471959802915}}}, "place_id": "ChIJeUkannPua4cR-yxR9RTYiZ0", "types": ["establishment", "point_of_interest"]}, {"address_components": [{"long_name": "NCAR Mesa Laboratory", "short_name": "NCAR Mesa Laboratory", "types": ["art_gallery", "establishment", "park", "point_of_interest", "travel_agency"]}, {"long_name": "1850", "short_name": "1850", "types": ["street_number"]}, {"long_name": "Table Mesa Drive", "short_name": "Table Mesa Dr", "types": ["route"]}, {"long_name": "Boulder", "short_name": "Boulder", "types": ["locality", "political"]}, {"long_name": "Boulder County", "short_name": "Boulder County", "types": ["administrative_area_level_2", "political"]}, {"long_name": "Colorado", "short_name": "CO", "types": ["administrative_area_level_1", "political"]}, {"long_name": "United States", "short_name": "US", "types": ["country", "political"]}, {"long_name": "80305", "short_name": "80305", "types": ["postal_code"]}], "formatted_address": "NCAR Mesa Laboratory, 1850 Table Mesa Dr, Boulder, CO 80305, USA", "geometry": {"location": {"lat": 39.9783179, "lng": -105.2750307}, "location_type": "ROOFTOP", "viewport": {"northeast": {"lat": 39.9796668802915, "lng": -105.2736817197085}, "southwest": {"lat": 39.9769689197085, "lng": -105.2763796802915}}}, "place_id": "ChIJcZxNHFXsa4cR2oo880PDcGE", "types": ["art_gallery", "establishment", "park", "point_of_interest", "travel_agency"]}]}, "101240087": {"AfN": "high point university", "Location": [{"address_components": [{"long_name": "High Point", "short_name": "High Point", "types": ["locality", "political"]}, {"long_name": "North Carolina", "short_name": "NC", "types": ["administrative_area_level_1", "political"]}, {"long_name": "United States", "short_name": "US", "types": ["country", "political"]}, {"long_name": "27262", "short_name": "27262", "types": ["postal_code"]}], "formatted_address": "1 University Parkway, High Point, NC 27262, United States", "geometry": {"location": {"lat": 35.9723841, "lng": -79.9953079}, "location_type": "GEOMETRIC_CENTER", "viewport": {"northeast": {"lat": 35.9737330802915, "lng": -79.99395891970849}, "southwest": {"lat": 35.9710351197085, "lng": -79.9966568802915}}}, "place_id": "ChIJUx4anycPU4gRqYdkaUBQvR4", "types": ["establishment", "point_of_interest", "university"]}]}, "119744171": {"AfN": "higher colleges of technology", "Location": [{"address_components": [{"long_name": "8820", "short_name": "8820", "types": ["street_number"]}, {"long_name": "East Pine Street", "short_name": "E Pine St", "types": ["route"]}, {"long_name": "Tulsa", "short_name": "Tulsa", "types": ["locality", "political"]}, {"long_name": "Tulsa County", "short_name": "Tulsa County", "types": ["administrative_area_level_2", "political"]}, {"long_name": "Oklahoma", "short_name": "OK", "types": ["administrative_area_level_1", "political"]}, {"long_name": "United States", "short_name": "US", "types": ["country", "political"]}, {"long_name": "74115", "short_name": "74115", "types": ["postal_code"]}, {"long_name": "5800", "short_name": "5800", "types": ["postal_code_suffix"]}], "formatted_address": "8820 E Pine St, Tulsa, OK 74115, USA", "geometry": {"location": {"lat": 36.17648, "lng": -95.879233}, "location_type": "ROOFTOP", "viewport": {"northeast": {"lat": 36.1778289802915, "lng": -95.87788401970849}, "southwest": {"lat": 36.1751310197085, "lng": -95.88058198029151}}}, "place_id": "ChIJ9YiEnmjytocRD7Y6QMI4zi8", "types": ["establishment", "point_of_interest", "university"]}]}, "68879011": {"AfN": "higher education academy", "Location": [{"address_components": [{"long_name": "York Science Park", "short_name": "York Science Park", "types": ["premise"]}, {"long_name": "Innovation Way", "short_name": "Innovation Way", "types": ["route"]}, {"long_name": "Heslington", "short_name": "Heslington", "types": ["locality", "political"]}, {"long_name": "York", "short_name": "York", "types": ["postal_town"]}, {"long_name": "York", "short_name": "York", "types": ["administrative_area_level_2", "political"]}, {"long_name": "England", "short_name": "England", "types": ["administrative_area_level_1", "political"]}, {"long_name": "United Kingdom", "short_name": "GB", "types": ["country", "political"]}, {"long_name": "YO10 5BR", "short_name": "YO10 5BR", "types": ["postal_code"]}], "formatted_address": "York Science Park, Innovation Way, Heslington, York YO10 5BR, UK", "geometry": {"location": {"lat": 53.9508194, "lng": -1.0464815}, "location_type": "ROOFTOP", "viewport": {"northeast": {"lat": 53.9521683802915, "lng": -1.045132519708498}, "southwest": {"lat": 53.9494704197085, "lng": -1.047830480291502}}}, "place_id": "ChIJX_0Y3dIxeUgRd53hQLa5Gcw", "types": ["establishment", "point_of_interest"]}]}, "19495125": {"AfN": "higher technical institute of cyprus", "Location": [{"address_components": [{"long_name": "Platy", "short_name": "Platy", "types": ["neighborhood", "political"]}, {"long_name": "Aglantzia", "short_name": "Aglantzia", "types": ["locality", "political"]}, {"long_name": "Nicosia", "short_name": "Nicosia", "types": ["administrative_area_level_1", "political"]}, {"long_name": "Cyprus", "short_name": "CY", "types": ["country", "political"]}], "formatted_address": "Platy, Aglantzia, Cyprus", "geometry": {"location": {"lat": 35.1414642, "lng": 33.3799819}, "location_type": "GEOMETRIC_CENTER", "viewport": {"northeast": {"lat": 35.1428131802915, "lng": 33.3813308802915}, "southwest": {"lat": 35.14011521970851, "lng": 33.3786329197085}}}, "place_id": "ChIJl1vkZsYZ3hQR9i7Wuysj-Rc", "types": ["establishment", "point_of_interest"]}]}, "122147150": {"AfN": "higher university of san andres", "Location": [{"address_components": [{"long_name": "J.J.Perez", "short_name": "J.J.Perez", "types": ["route"]}, {"long_name": "Macrodistrito Centro", "short_name": "Macrodistrito Centro", "types": ["political", "sublocality", "sublocality_level_1"]}, {"long_name": "La Paz", "short_name": "La Paz", "types": ["locality", "political"]}, {"long_name": "Departamento de La Paz", "short_name": "Departamento de La Paz", "types": ["administrative_area_level_1", "political"]}, {"long_name": "Bolivia", "short_name": "BO", "types": ["country", "political"]}], "formatted_address": "J.J.Perez, La Paz, Bolivia", "geometry": {"location": {"lat": -16.5047667, "lng": -68.1299168}, "location_type": "GEOMETRIC_CENTER", "viewport": {"northeast": {"lat": -16.5034177197085, "lng": -68.1285678197085}, "southwest": {"lat": -16.5061156802915, "lng": -68.13126578029151}}}, "place_id": "ChIJ3T15IGUgX5ERdpnGbDTf9lM", "types": ["establishment", "point_of_interest", "university"]}]}, "58494807": {"AfN": "hilbert college", "Location": [{"address_components": [{"long_name": "5200", "short_name": "5200", "types": ["street_number"]}, {"long_name": "South Park Avenue", "short_name": "South Park Ave", "types": ["route"]}, {"long_name": "Hamburg", "short_name": "Hamburg", "types": ["locality", "political"]}, {"long_name": "Hamburg", "short_name": "Hamburg", "types": ["administrative_area_level_3", "political"]}, {"long_name": "Erie County", "short_name": "Erie County", "types": ["administrative_area_level_2", "political"]}, {"long_name": "New York", "short_name": "NY", "types": ["administrative_area_level_1", "political"]}, {"long_name": "United States", "short_name": "US", "types": ["country", "political"]}, {"long_name": "14075", "short_name": "14075", "types": ["postal_code"]}], "formatted_address": "5200 South Park Ave, Hamburg, NY 14075, USA", "geometry": {"location": {"lat": 42.7536002, "lng": -78.82143429999999}, "location_type": "ROOFTOP", "viewport": {"northeast": {"lat": 42.7549491802915, "lng": -78.8200853197085}, "southwest": {"lat": 42.7522512197085, "lng": -78.8227832802915}}}, "place_id": "ChIJGVyQjjwF04kRvc7jGIiAYCc", "types": ["establishment", "point_of_interest", "university"]}]}, "15632735": {"AfN": "hindustan aeronautics limited", "Location": [{"address_components": [{"long_name": "11109", "short_name": "11109", "types": ["street_number"]}, {"long_name": "Cutten Road", "short_name": "Cutten Rd", "types": ["route"]}, {"long_name": "Houston", "short_name": "Houston", "types": ["locality", "political"]}, {"long_name": "Harris County", "short_name": "Harris County", "types": ["administrative_area_level_2", "political"]}, {"long_name": "Texas", "short_name": "TX", "types": ["administrative_area_level_1", "political"]}, {"long_name": "United States", "short_name": "US", "types": ["country", "political"]}, {"long_name": "77066", "short_name": "77066", "types": ["postal_code"]}, {"long_name": "3720", "short_name": "3720", "types": ["postal_code_suffix"]}], "formatted_address": "11109 Cutten Rd, Houston, TX 77066, USA", "geometry": {"location": {"lat": 29.9437565, "lng": -95.5165146},