{"131687978": {"AfN": "genencor", "Location": [{"address_components": [{"long_name": "925", "short_name": "925", "types": ["street_number"]}, {"long_name": "Page Mill Road", "short_name": "Page Mill Rd", "types": ["route"]}, {"long_name": "Palo Alto", "short_name": "Palo Alto", "types": ["locality", "political"]}, {"long_name": "Santa Clara County", "short_name": "Santa Clara County", "types": ["administrative_area_level_2", "political"]}, {"long_name": "California", "short_name": "CA", "types": ["administrative_area_level_1", "political"]}, {"long_name": "United States", "short_name": "US", "types": ["country", "political"]}, {"long_name": "94304", "short_name": "94304", "types": ["postal_code"]}, {"long_name": "1013", "short_name": "1013", "types": ["postal_code_suffix"]}], "formatted_address": "925 Page Mill Rd, Palo Alto, CA 94304, USA", "geometry": {"location": {"lat": 37.418962, "lng": -122.1437169}, "location_type": "ROOFTOP", "viewport": {"northeast": {"lat": 37.4203109802915, "lng": -122.1423679197085}, "southwest": {"lat": 37.4176130197085, "lng": -122.1450658802915}}}, "place_id": "ChIJIbFFVOy6j4ARRMhVJU34twg", "types": ["establishment", "point_of_interest"]}]}, "183934855": {"AfN": "genentech", "Location": [{"address_components": [{"long_name": "1", "short_name": "1", "types": ["street_number"]}, {"long_name": "DNA Way", "short_name": "DNA Way", "types": ["route"]}, {"long_name": "The East Side", "short_name": "The East Side", "types": ["neighborhood", "political"]}, {"long_name": "South San Francisco", "short_name": "South San Francisco", "types": ["locality", "political"]}, {"long_name": "San Mateo County", "short_name": "San Mateo County", "types": ["administrative_area_level_2", "political"]}, {"long_name": "California", "short_name": "CA", "types": ["administrative_area_level_1", "political"]}, {"long_name": "United States", "short_name": "US", "types": ["country", "political"]}, {"long_name": "94080", "short_name": "94080", "types": ["postal_code"]}, {"long_name": "4918", "short_name": "4918", "types": ["postal_code_suffix"]}], "formatted_address": "1 DNA Way, South San Francisco, CA 94080, USA", "geometry": {"location": {"lat": 37.6562262, "lng": -122.3775297}, "location_type": "ROOFTOP", "viewport": {"northeast": {"lat": 37.6575751802915, "lng": -122.3761807197085}, "southwest": {"lat": 37.6548772197085, "lng": -122.3788786802915}}}, "place_id": "ChIJ3Xmd_xqjj4ARC2vcmfdZvNQ", "types": ["establishment", "point_of_interest"]}]}, "63533367": {"AfN": "general atomics", "Location": [{"address_components": [{"long_name": "3550", "short_name": "3550", "types": ["street_number"]}, {"long_name": "General Atomics Court", "short_name": "General Atomics Ct", "types": ["route"]}, {"long_name": "La Jolla", "short_name": "La Jolla", "types": ["neighborhood", "political"]}, {"long_name": "San Diego", "short_name": "San Diego", "types": ["locality", "political"]}, {"long_name": "San Diego County", "short_name": "San Diego County", "types": ["administrative_area_level_2", "political"]}, {"long_name": "California", "short_name": "CA", "types": ["administrative_area_level_1", "political"]}, {"long_name": "United States", "short_name": "US", "types": ["country", "political"]}, {"long_name": "92121", "short_name": "92121", "types": ["postal_code"]}, {"long_name": "1122", "short_name": "1122", "types": ["postal_code_suffix"]}], "formatted_address": "3550 General Atomics Ct, San Diego, CA 92121, USA", "geometry": {"location": {"lat": 32.893864, "lng": -117.2360666}, "location_type": "ROOFTOP", "viewport": {"northeast": {"lat": 32.8952129802915, "lng": -117.2347176197085}, "southwest": {"lat": 32.8925150197085, "lng": -117.2374155802915}}}, "place_id": "ChIJDZhAQO4G3IARnM8B_qwCxxk", "types": ["establishment", "point_of_interest"]}]}, "133630973": {"AfN": "general directorate of security", "Location": [{"address_components": [{"long_name": "Resistencia", "short_name": "Resistencia", "types": ["locality", "political"]}, {"long_name": "San Fernando", "short_name": "San Fernando", "types": ["administrative_area_level_2", "political"]}, {"long_name": "Chaco", "short_name": "Chaco", "types": ["administrative_area_level_1", "political"]}, {"long_name": "Argentina", "short_name": "AR", "types": ["country", "political"]}, {"long_name": "3500", "short_name": "3500", "types": ["postal_code"]}], "formatted_address": "Ruta 11 Km. 1001, Barberan, 3500 Resistencia, Chaco, Argentina", "geometry": {"location": {"lat": -27.4532239, "lng": -59.03214699999999}, "location_type": "GEOMETRIC_CENTER", "viewport": {"northeast": {"lat": -27.4518749197085, "lng": -59.03079801970849}, "southwest": {"lat": -27.4545728802915, "lng": -59.0334959802915}}}, "partial_match": true, "place_id": "ChIJtQu71p4LRZQRpQiDuzFQNP4", "types": ["establishment", "point_of_interest", "police"]}]}, "1343953105": {"AfN": "general dynamics", "Location": [{"address_components": [{"long_name": "1422", "short_name": "1422", "types": ["street_number"]}, {"long_name": "Grand Avenue", "short_name": "Grand Ave", "types": ["route"]}, {"long_name": "Parsons", "short_name": "Parsons", "types": ["locality", "political"]}, {"long_name": "Labette County", "short_name": "Labette County", "types": ["administrative_area_level_2", "political"]}, {"long_name": "Kansas", "short_name": "KS", "types": ["administrative_area_level_1", "political"]}, {"long_name": "United States", "short_name": "US", "types": ["country", "political"]}, {"long_name": "67357", "short_name": "67357", "types": ["postal_code"]}, {"long_name": "4259", "short_name": "4259", "types": ["postal_code_suffix"]}], "formatted_address": "1422 Grand Ave, Parsons, KS 67357, USA", "geometry": {"location": {"lat": 37.3366605, "lng": -95.2569601}, "location_type": "ROOFTOP", "viewport": {"northeast": {"lat": 37.3380094802915, "lng": -95.2556111197085}, "southwest": {"lat": 37.3353115197085, "lng": -95.25830908029151}}}, "place_id": "ChIJN4-qlpEauIcRJltmhg-GYEM", "types": ["establishment", "point_of_interest"]}]}, "19245665": {"AfN": "general dynamics advanced information systems", "Location": [{"address_components": [{"long_name": "100", "short_name": "100", "types": ["street_number"]}, {"long_name": "Plastics Avenue", "short_name": "Plastics Ave", "types": ["route"]}, {"long_name": "Pittsfield", "short_name": "Pittsfield", "types": ["locality", "political"]}, {"long_name": "Berkshire County", "short_name": "Berkshire County", "types": ["administrative_area_level_2", "political"]}, {"long_name": "Massachusetts", "short_name": "MA", "types": ["administrative_area_level_1", "political"]}, {"long_name": "United States", "short_name": "US", "types": ["country", "political"]}, {"long_name": "01201", "short_name": "01201", "types": ["postal_code"]}, {"long_name": "3632", "short_name": "3632", "types": ["postal_code_suffix"]}], "formatted_address": "100 Plastics Ave, Pittsfield, MA 01201, USA", "geometry": {"location": {"lat": 42.4590586, "lng": -73.2127332}, "location_type": "ROOFTOP", "viewport": {"northeast": {"lat": 42.4604075802915, "lng": -73.21138421970849}, "southwest": {"lat": 42.4577096197085, "lng": -73.21408218029151}}}, "place_id": "ChIJ29oIU5dO54kRjYAWmqTtQ6Q", "types": ["establishment", "point_of_interest"]}]}, "1332737386": {"AfN": "general electric", "Location": [{"address_components": [{"long_name": "# 215", "short_name": "# 215", "types": ["subpremise"]}, {"long_name": "2508", "short_name": "2508", "types": ["street_number"]}, {"long_name": "Highlander Way", "short_name": "Highlander Way", "types": ["route"]}, {"long_name": "Southwest Carrollton", "short_name": "Southwest Carrollton", "types": ["neighborhood", "political"]}, {"long_name": "Carrollton", "short_name": "Carrollton", "types": ["locality", "political"]}, {"long_name": "Dallas County", "short_name": "Dallas County", "types": ["administrative_area_level_2", "political"]}, {"long_name": "Texas", "short_name": "TX", "types": ["administrative_area_level_1", "political"]}, {"long_name": "United States", "short_name": "US", "types": ["country", "political"]}, {"long_name": "75006", "short_name": "75006", "types": ["postal_code"]}, {"long_name": "2532", "short_name": "2532", "types": ["postal_code_suffix"]}], "formatted_address": "2508 Highlander Way # 215, Carrollton, TX 75006, USA", "geometry": {"location": {"lat": 32.9837028, "lng": -96.8453899}, "location_type": "ROOFTOP", "viewport": {"northeast": {"lat": 32.9850517802915, "lng": -96.84404091970849}, "southwest": {"lat": 32.9823538197085, "lng": -96.84673888029151}}}, "place_id": "ChIJ9ybg0AIkTIYRLQS0tQB6j1A", "types": ["electrician", "establishment", "point_of_interest"]}]}, "165488384": {"AfN": "general mills", "Location": [{"address_components": [{"long_name": "1157", "short_name": "1157", "types": ["street_number"]}, {"long_name": "Doughboy Drive", "short_name": "Doughboy Dr", "types": ["route"]}, {"long_name": "Vinita", "short_name": "Vinita", "types": ["locality", "political"]}, {"long_name": "Craig County", "short_name": "Craig County", "types": ["administrative_area_level_2", "political"]}, {"long_name": "Oklahoma", "short_name": "OK", "types": ["administrative_area_level_1", "political"]}, {"long_name": "United States", "short_name": "US", "types": ["country", "political"]}, {"long_name": "74301", "short_name": "74301", "types": ["postal_code"]}, {"long_name": "4834", "short_name": "4834", "types": ["postal_code_suffix"]}], "formatted_address": "1157 Doughboy Dr, Vinita, OK 74301, USA", "geometry": {"location": {"lat": 36.6590441, "lng": -95.1380681}, "location_type": "ROOFTOP", "viewport": {"northeast": {"lat": 36.66039308029149, "lng": -95.1367191197085}, "southwest": {"lat": 36.65769511970849, "lng": -95.13941708029151}}}, "place_id": "ChIJWfKNdU7Xt4cRbqxBhmLntgE", "types": ["establishment", "food", "point_of_interest"]}]}, "118136607": {"AfN": "general motors", "Location": [{"address_components": [{"long_name": "2800", "short_name": "2800", "types": ["street_number"]}, {"long_name": "North 6th Street", "short_name": "N 6th St", "types": ["route"]}, {"long_name": "Fort Smith", "short_name": "Fort Smith", "types": ["locality", "political"]}, {"long_name": "Arkansas", "short_name": "AR", "types": ["administrative_area_level_1", "political"]}, {"long_name": "United States", "short_name": "US", "types": ["country", "political"]}, {"long_name": "72904", "short_name": "72904", "types": ["postal_code"]}], "formatted_address": "4102, 2800 N 6th St, Fort Smith, AR 72904, United States", "geometry": {"location": {"lat": 35.406962, "lng": -94.402936}, "location_type": "ROOFTOP", "viewport": {"northeast": {"lat": 35.4083109802915, "lng": -94.4015870197085}, "southwest": {"lat": 35.4056130197085, "lng": -94.40428498029151}}}, "place_id": "ChIJxc_8IVJLyocRw2mVwP0HxMM", "types": ["car_dealer", "establishment", "point_of_interest", "store"]}]}, "15950307": {"AfN": "genetic alliance", "Location": [{"address_components": [{"long_name": "4301", "short_name": "4301", "types": ["street_number"]}, {"long_name": "Connecticut Avenue Northwest", "short_name": "Connecticut Ave NW", "types": ["route"]}, {"long_name": "Forest Hills", "short_name": "Forest Hills", "types": ["neighborhood", "political"]}, {"long_name": "Washington", "short_name": "Washington", "types": ["locality", "political"]}, {"long_name": "District of Columbia", "short_name": "DC", "types": ["administrative_area_level_1", "political"]}, {"long_name": "United States", "short_name": "US", "types": ["country", "political"]}, {"long_name": "20008", "short_name": "20008", "types": ["postal_code"]}], "formatted_address": "4301 Connecticut Ave NW, Washington, DC 20008, USA", "geometry": {"location": {"lat": 38.9448321, "lng": -77.063363}, "location_type": "ROOFTOP", "viewport": {"northeast": {"lat": 38.9461810802915, "lng": -77.06201401970849}, "southwest": {"lat": 38.9434831197085, "lng": -77.06471198029149}}}, "place_id": "ChIJVXtius7Jt4kRnPQAKNZ3lek", "types": ["establishment", "health", "point_of_interest"]}]}, "171955805": {"AfN": "genetic information research institute", "Location": [{"address_components": [{"long_name": "Suite 201", "short_name": "Suite 201", "types": ["subpremise"]}, {"long_name": "465", "short_name": "465", "types": ["street_number"]}, {"long_name": "Fairchild Drive", "short_name": "Fairchild Dr", "types": ["route"]}, {"long_name": "Mountain View", "short_name": "Mountain View", "types": ["locality", "political"]}, {"long_name": "Santa Clara County", "short_name": "Santa Clara County", "types": ["administrative_area_level_2", "political"]}, {"long_name": "California", "short_name": "CA", "types": ["administrative_area_level_1", "political"]}, {"long_name": "United States", "short_name": "US", "types": ["country", "political"]}, {"long_name": "94043", "short_name": "94043", "types": ["postal_code"]}], "formatted_address": "465 Fairchild Dr Suite 201, Mountain View, CA 94043, USA", "geometry": {"location": {"lat": 37.4195603, "lng": -122.088499}, "location_type": "ROOFTOP", "viewport": {"northeast": {"lat": 37.4209092802915, "lng": -122.0871500197085}, "southwest": {"lat": 37.4182113197085, "lng": -122.0898479802915}}}, "place_id": "ChIJnZlqdwO6j4ARZq4fE46dJyM", "types": ["establishment", "point_of_interest"]}]}, "871966649": {"AfN": "genetics institute inc", "Location": [{"address_components": [{"long_name": "200", "short_name": "200", "types": ["subpremise"]}, {"long_name": "20925", "short_name": "20925", "types": ["street_number"]}, {"long_name": "Crossroads Circle", "short_name": "Crossroads Cir", "types": ["route"]}, {"long_name": "Waukesha", "short_name": "Waukesha", "types": ["locality", "political"]}, {"long_name": "Brookfield", "short_name": "Brookfield", "types": ["administrative_area_level_3", "political"]}, {"long_name": "Waukesha County", "short_name": "Waukesha County", "types": ["administrative_area_level_2", "political"]}, {"long_name": "Wisconsin", "short_name": "WI", "types": ["administrative_area_level_1", "political"]}, {"long_name": "United States", "short_name": "US", "types": ["country", "political"]}, {"long_name": "53186", "short_name": "53186", "types": ["postal_code"]}], "formatted_address": "20925 Crossroads Cir #200, Waukesha, WI 53186, USA", "geometry": {"location": {"lat": 43.028844, "lng": -88.17268399999999}, "location_type": "ROOFTOP", "viewport": {"northeast": {"lat": 43.0301929802915, "lng": -88.17133501970848}, "southwest": {"lat": 43.0274950197085, "lng": -88.1740329802915}}}, "place_id": "ChIJVVVVVWWoBYgRJqcIV9z7AMI", "types": ["doctor", "establishment", "health", "point_of_interest"]}]}, "6312358": {"AfN": "geneva college", "Location": [{"address_components": [{"long_name": "3200", "short_name": "3200", "types": ["street_number"]}, {"long_name": "College Avenue", "short_name": "College Ave", "types": ["route"]}, {"long_name": "Beaver Falls", "short_name": "Beaver Falls", "types": ["locality", "political"]}, {"long_name": "Beaver County", "short_name": "Beaver County", "types": ["administrative_area_level_2", "political"]}, {"long_name": "Pennsylvania", "short_name": "PA", "types": ["administrative_area_level_1", "political"]}, {"long_name": "United States", "short_name": "US", "types": ["country", "political"]}, {"long_name": "15010", "short_name": "15010", "types": ["postal_code"]}], "formatted_address": "3200 College Ave, Beaver Falls, PA 15010, USA", "geometry": {"location": {"lat": 40.7713156, "lng": -80.3218472}, "location_type": "ROOFTOP", "viewport": {"northeast": {"lat": 40.7726645802915, "lng": -80.3204982197085}, "southwest": {"lat": 40.76996661970851, "lng": -80.3231961802915}}}, "place_id": "ChIJZz5uNR5xNIgRP7N5hfXZWSI", "types": ["establishment", "point_of_interest", "university"]}]}, "1324310836": {"AfN": "genomatica", "Location": [{"address_components": [{"long_name": "4755", "short_name": "4755", "types": ["street_number"]}, {"long_name": "Nexus Center Drive", "short_name": "Nexus Center Dr", "types": ["route"]}, {"long_name": "La Jolla Commons", "short_name": "La Jolla Commons", "types": ["neighborhood", "political"]}, {"long_name": "San Diego", "short_name": "San Diego", "types": ["locality", "political"]}, {"long_name": "San Diego County", "short_name": "San Diego County", "types": ["administrative_area_level_2", "political"]}, {"long_name": "California", "short_name": "CA", "types": ["administrative_area_level_1", "political"]}, {"long_name": "United States", "short_name": "US", "types": ["country", "political"]}, {"long_name": "92121", "short_name": "92121", "types": ["postal_code"]}], "formatted_address": "4755 Nexus Center Dr, San Diego, CA 92121, USA", "geometry": {"location": {"lat": 32.8782629, "lng": -117.2039106}, "location_type": "ROOFTOP", "viewport": {"northeast": {"lat": 32.87961188029149, "lng": -117.2025616197085}, "southwest": {"lat": 32.87691391970849, "lng": -117.2052595802915}}}, "place_id": "ChIJv4mQvYQI3IAR0Pu0F-k3MEk", "types": ["establishment", "health", "point_of_interest"]}, {"address_components": [{"long_name": "4757", "short_name": "4757", "types": ["street_number"]}, {"long_name": "Nexus Center Drive", "short_name": "Nexus Center Dr", "types": ["route"]}, {"long_name": "University City", "short_name": "University City", "types": ["neighborhood", "political"]}, {"long_name": "San Diego", "short_name": "San Diego", "types": ["locality", "political"]}, {"long_name": "San Diego County", "short_name": "San Diego County", "types": ["administrative_area_level_2", "political"]}, {"long_name": "California", "short_name": "CA", "types": ["administrative_area_level_1", "political"]}, {"long_name": "United States", "short_name": "US", "types": ["country", "political"]}, {"long_name": "92121", "short_name": "92121", "types": ["postal_code"]}, {"long_name": "3051", "short_name": "3051", "types": ["postal_code_suffix"]}], "formatted_address": "4757 Nexus Center Dr, San Diego, CA 92121, USA", "geometry": {"location": {"lat": 32.878106, "lng": -117.2026}, "location_type": "ROOFTOP", "viewport": {"northeast": {"lat": 32.87945498029149, "lng": -117.2012510197085}, "southwest": {"lat": 32.8767570197085, "lng": -117.2039489802915}}}, "place_id": "ChIJvWQvsjYH3IARORtVv2aTf04", "types": ["establishment", "point_of_interest"]}]}, "66068411": {"AfN": "genome institute of singapore", "Location": [{"address_components": [{"long_name": "4444", "short_name": "4444", "types": ["street_number"]}, {"long_name": "Forest Park Avenue", "short_name": "Forest Park Ave", "types": ["route"]}, {"long_name": "Central West End", "short_name": "Central West End", "types": ["neighborhood", "political"]}, {"long_name": "St. Louis", "short_name": "St. Louis", "types": ["locality", "political"]}, {"long_name": "Missouri", "short_name": "MO", "types": ["administrative_area_level_1", "political"]}, {"long_name": "United States", "short_name": "US", "types": ["country", "political"]}, {"long_name": "63108", "short_name": "63108", "types": ["postal_code"]}], "formatted_address": "4444 Forest Park Ave, St. Louis, MO 63108, USA", "geometry": {"location": {"lat": 38.6370468, "lng": -90.25721999999999}, "location_type": "ROOFTOP", "viewport": {"northeast": {"lat": 38.6383957802915, "lng": -90.2558710197085}, "southwest": {"lat": 38.6356978197085, "lng": -90.2585689802915}}}, "place_id": "ChIJjYJA_9u02IcRsr8gwb2Z6P8", "types": ["establishment", "health", "point_of_interest", "university"]}]}, "127128434": {"AfN": "genomics institute of the novartis research foundation", "Location": [{"address_components": [{"long_name": "10675", "short_name": "10675", "types": ["street_number"]}, {"long_name": "John Jay Hopkins Dr", "short_name": "John Jay Hopkins Dr", "types": ["route"]}, {"long_name": "La Jolla", "short_name": "La Jolla", "types": ["neighborhood", "political"]}, {"long_name": "San Diego", "short_name": "San Diego", "types": ["locality", "political"]}, {"long_name": "San Diego County", "short_name": "San Diego County", "types": ["administrative_area_level_2", "political"]}, {"long_name": "California", "short_name": "CA", "types": ["administrative_area_level_1", "political"]}, {"long_name": "United States", "short_name": "US", "types": ["country", "political"]}, {"long_name": "92121", "short_name": "92121", "types": ["postal_code"]}], "formatted_address": "10675 John Jay Hopkins Dr, San Diego, CA 92121, USA", "geometry": {"location": {"lat": 32.896128, "lng": -117.2390526}, "location_type": "ROOFTOP", "viewport": {"northeast": {"lat": 32.89747698029149, "lng": -117.2377036197085}, "southwest": {"lat": 32.89477901970849, "lng": -117.2404015802915}}}, "place_id": "ChIJ8cb4PfIG3IARU3ZXYdmNSMQ", "types": ["establishment", "health", "point_of_interest"]}]}, "1309629988": {"AfN": "genzyme", "Location": [{"address_components": [{"long_name": "500", "short_name": "500", "types": ["street_number"]}, {"long_name": "Kendall Street", "short_name": "Kendall St", "types": ["route"]}, {"long_name": "East Cambridge", "short_name": "East Cambridge", "types": ["neighborhood", "political"]}, {"long_name": "Cambridge", "short_name": "Cambridge", "types": ["locality", "political"]}, {"long_name": "Middlesex County", "short_name": "Middlesex County", "types": ["administrative_area_level_2", "political"]}, {"long_name": "Massachusetts", "short_name": "MA", "types": ["administrative_area_level_1", "political"]}, {"long_name": "United States", "short_name": "US", "types": ["country", "political"]}, {"long_name": "02142", "short_name": "02142", "types": ["postal_code"]}], "formatted_address": "500 Kendall St, Cambridge, MA 02142, USA", "geometry": {"location": {"lat": 42.36411, "lng": -71.081613}, "location_type": "ROOFTOP", "viewport": {"northeast": {"lat": 42.36545898029149, "lng": -71.08026401970851}, "southwest": {"lat": 42.3627610197085, "lng": -71.08296198029151}}}, "place_id": "ChIJoQj37qRw44kRh9aHV5GiaKU", "types": ["establishment", "point_of_interest"]}]}, "30783399": {"AfN": "geokinetics", "Location": [{"address_components": [{"long_name": "1500", "short_name": "1500", "types": ["street_number"]}, {"long_name": "CityWest Boulevard", "short_name": "CityWest Blvd", "types": ["route"]}, {"long_name": "Houston", "short_name": "Houston", "types": ["locality", "political"]}, {"long_name": "Texas", "short_name": "TX", "types": ["administrative_area_level_1", "political"]}, {"long_name": "United States", "short_name": "US", "types": ["country", "political"]}, {"long_name": "77042", "short_name": "77042", "types": ["postal_code"]}], "formatted_address": "2380, 1500 CityWest Blvd, Houston, TX 77042, United States", "geometry": {"location": {"lat": 29.7465505, "lng": -95.5614794}, "location_type": "ROOFTOP", "viewport": {"northeast": {"lat": 29.7478994802915, "lng": -95.56013041970849}, "southwest": {"lat": 29.7452015197085, "lng": -95.5628283802915}}}, "place_id": "ChIJdcBzs7TcQIYRJD9CnAytlQY", "types": ["establishment", "point_of_interest"]}]}, "1295755447": {"AfN": "geological museum", "Location": [{"address_components": [{"long_name": "Lewis G. Weeks Hall for Geological Sciences", "short_name": "Lewis G. Weeks Hall for Geological Sciences", "types": ["premise"]}, {"long_name": "Madison", "short_name": "Madison", "types": ["locality", "political"]}, {"long_name": "Dane County", "short_name": "Dane County", "types": ["administrative_area_level_2", "political"]}, {"long_name": "Wisconsin", "short_name": "WI", "types": ["administrative_area_level_1", "political"]}, {"long_name": "United States", "short_name": "US", "types": ["country", "political"]}, {"long_name": "53715", "short_name": "53715", "types": ["postal_code"]}], "formatted_address": "Lewis G. Weeks Hall for Geological Sciences, Madison, WI 53715, USA", "geometry": {"bounds": {"northeast": {"lat": 43.0708723, "lng": -89.4058599}, "southwest": {"lat": 43.070199, "lng": -89.4065845}}, "location": {"lat": 43.070481, "lng": -89.4062476}, "location_type": "ROOFTOP", "viewport": {"northeast": {"lat": 43.07188463029149, "lng": -89.40487321970849}, "southwest": {"lat": 43.06918666970849, "lng": -89.4075711802915}}}, "place_id": "ChIJZ4JTO8-sB4gRM_aoKl1Q3V0", "types": ["premise"]}]}, "250102252": {"AfN": "geological society of america", "Location": [{"address_components": [{"long_name": "3300", "short_name": "3300", "types": ["street_number"]}, {"long_name": "Penrose Place", "short_name": "Penrose Pl", "types": ["route"]}, {"long_name": "North Boulder", "short_name": "North Boulder", "types": ["neighborhood", "political"]}, {"long_name": "Boulder", "short_name": "Boulder", "types": ["locality", "political"]}, {"long_name": "Boulder County", "short_name": "Boulder County", "types": ["administrative_area_level_2", "political"]}, {"long_name": "Colorado", "short_name": "CO", "types": ["administrative_area_level_1", "political"]}, {"long_name": "United States", "short_name": "US", "types": ["country", "political"]}, {"long_name": "80301", "short_name": "80301", "types": ["postal_code"]}, {"long_name": "1806", "short_name": "1806", "types": ["postal_code_suffix"]}], "formatted_address": "3300 Penrose Pl, Boulder, CO 80301, USA", "geometry": {"location": {"lat": 40.0374403, "lng": -105.2504209}, "location_type": "ROOFTOP", "viewport": {"northeast": {"lat": 40.0387892802915, "lng": -105.2490719197085}, "southwest": {"lat": 40.0360913197085, "lng": -105.2517698802915}}}, "place_id": "ChIJq5Cm9m7ua4cRf9XNmOwU9EI", "types": ["establishment", "point_of_interest"]}]}, "1327020802": {"AfN": "geological survey of canada", "Location": [{"address_components": [{"long_name": "601", "short_name": "601", "types": ["street_number"]}, {"long_name": "Booth Street", "short_name": "Booth St", "types": ["route"]}, {"long_name": "Centretown West", "short_name": "Centretown West", "types": ["neighborhood", "political"]}, {"long_name": "Ottawa", "short_name": "Ottawa", "types": ["locality", "political"]}, {"long_name": "Ottawa Division", "short_name": "Ottawa Division", "types": ["administrative_area_level_2", "political"]}, {"long_name": "Ontario", "short_name": "ON", "types": ["administrative_area_level_1", "political"]}, {"long_name": "Canada", "short_name": "CA", "types": ["country", "political"]}, {"long_name": "K1A 0E8", "short_name": "K1A 0E8", "types": ["postal_code"]}], "formatted_address": "601 Booth St, Ottawa, ON K1A 0E8, Canada", "geometry": {"location": {"lat": 45.4018939, "lng": -75.7056182}, "location_type": "ROOFTOP", "viewport": {"northeast": {"lat": 45.40324288029149, "lng": -75.70426921970851}, "southwest": {"lat": 45.4005449197085, "lng": -75.70696718029151}}}, "place_id": "ChIJtzHbJssFzkwRSFQUXEwBTQc", "types": ["establishment", "point_of_interest"]}]}, "1333622710": {"AfN": "geological survey of finland", "Location": [{"address_components": [{"long_name": "Finland", "short_name": "FI", "types": ["country", "political"]}], "formatted_address": "Finland", "geometry": {"bounds": {"northeast": {"lat": 70.0922932, "lng": 31.5870999}, "southwest": {"lat": 59.693623, "lng": 20.4565002}}, "location": {"lat": 61.92410999999999, "lng": 25.7481511}, "location_type": "APPROXIMATE", "viewport": {"northeast": {"lat": 70.0922932, "lng": 31.5870999}, "southwest": {"lat": 59.693623, "lng": 20.4565002}}}, "partial_match": true, "place_id": "ChIJ3fYyS9_KgUYREKh1PNZGAQA", "types": ["country", "political"]}]}, "64389444": {"AfN": "geological survey of india", "Location": [{"address_components": [{"long_name": "2020", "short_name": "2020", "types": ["street_number"]}, {"long_name": "Industrial Boulevard", "short_name": "Industrial Blvd", "types": ["route"]}, {"long_name": "Norman", "short_name": "Norman", "types": ["locality", "political"]}, {"long_name": "Cleveland County", "short_name": "Cleveland County", "types": ["administrative_area_level_2", "political"]}, {"long_name": "Oklahoma", "short_name": "OK", "types": ["administrative_area_level_1", "political"]}, {"long_name": "United States", "short_name": "US", "types": ["country", "political"]}, {"long_name": "73069", "short_name": "73069", "types": ["postal_code"]}, {"long_name": "8512", "short_name": "8512", "types": ["postal_code_suffix"]}], "formatted_address": "2020 Industrial Blvd, Norman, OK 73069, USA", "geometry": {"location": {"lat": 35.243015, "lng": -97.45606599999999}, "location_type": "ROOFTOP", "viewport": {"northeast": {"lat": 35.2443639802915, "lng": -97.4547170197085}, "southwest": {"lat": 35.2416660197085, "lng": -97.4574149802915}}}, "place_id": "ChIJlRmLifNpsocRDXQNW-Ta_HE", "types": ["establishment", "local_government_office", "point_of_interest"]}]}, "1306099058": {"AfN": "geological survey of slovenia", "Location": [{"address_components": [{"long_name": "14", "short_name": "14", "types": ["street_number"]}, {"long_name": "Dimi\u010deva ulica", "short_name": "Dimi\u010deva ulica", "types": ["route"]}, {"long_name": "Ljubljana", "short_name": "Ljubljana", "types": ["postal_town"]}, {"long_name": "Ljubljana", "short_name": "Ljubljana", "types": ["administrative_area_level_1", "political"]}, {"long_name": "Slovenia", "short_name": "SI", "types": ["country", "political"]}, {"long_name": "1000", "short_name": "1000", "types": ["postal_code"]}], "formatted_address": "Dimi\u010deva ulica 14, 1000 Ljubljana, Slovenia", "geometry": {"location": {"lat": 46.07095899999999, "lng": 14.5146649}, "location_type": "ROOFTOP", "viewport": {"northeast": {"lat": 46.0723079802915, "lng": 14.5160138802915}, "southwest": {"lat": 46.0696100197085, "lng": 14.5133159197085}}}, "place_id": "ChIJoWd6W5MyZUcR44BdGWqTFUI", "types": ["establishment", "point_of_interest"]}]}, "1296875392": {"AfN": "geological survey of western australia", "Location": [{"address_components": [{"long_name": "# 100", "short_name": "# 100", "types": ["subpremise"]}, {"long_name": "1300", "short_name": "1300", "types": ["street_number"]}, {"long_name": "Southeast Cardinal Court", "short_name": "SE Cardinal Ct", "types": ["route"]}, {"long_name": "Bennington", "short_name": "Bennington", "types": ["neighborhood", "political"]}, {"long_name": "Vancouver", "short_name": "Vancouver", "types": ["locality", "political"]}, {"long_name": "Clark County", "short_name": "Clark County", "types": ["administrative_area_level_2", "political"]}, {"long_name": "Washington", "short_name": "WA", "types": ["administrative_area_level_1", "political"]}, {"long_name": "United States", "short_name": "US", "types": ["country", "political"]}, {"long_name": "98683", "short_name": "98683", "types": ["postal_code"]}, {"long_name": "9683", "short_name": "9683", "types": ["postal_code_suffix"]}], "formatted_address": "1300 SE Cardinal Ct # 100, Vancouver, WA 98683, USA", "geometry": {"location": {"lat": 45.610851, "lng": -122.496341}, "location_type": "ROOFTOP", "viewport": {"northeast": {"lat": 45.6121999802915, "lng": -122.4949920197085}, "southwest": {"lat": 45.6095020197085, "lng": -122.4976899802915}}}, "partial_match": true, "place_id": "ChIJJVkWncuklVQRCKHs7nW7mvQ", "types": ["establishment", "local_government_office", "point_of_interest"]}]}, "191217947": {"AfN": "geophysical fluid dynamics laboratory", "Location": [{"address_components": [{"long_name": "201", "short_name": "201", "types": ["street_number"]}, {"long_name": "Forrestal Road", "short_name": "Forrestal Rd", "types": ["route"]}, {"long_name": "Princeton", "short_name": "Princeton", "types": ["locality", "political"]}, {"long_name": "Plainsboro Township", "short_name": "Plainsboro Township", "types": ["administrative_area_level_3", "political"]}, {"long_name": "Middlesex County", "short_name": "Middlesex County", "types": ["administrative_area_level_2", "political"]}, {"long_name": "New Jersey", "short_name": "NJ", "types": ["administrative_area_level_1", "political"]}, {"long_name": "United States", "short_name": "US", "types": ["country", "political"]}, {"long_name": "08540", "short_name": "08540", "types": ["postal_code"]}, {"long_name": "6649", "short_name": "6649", "types": ["postal_code_suffix"]}], "formatted_address": "201 Forrestal Rd, Princeton, NJ 08540, USA", "geometry": {"location": {"lat": 40.3453984, "lng": -74.6162331}, "location_type": "ROOFTOP", "viewport": {"northeast": {"lat": 40.3467473802915, "lng": -74.61488411970849}, "southwest": {"lat": 40.3440494197085, "lng": -74.61758208029151}}}, "place_id": "ChIJ_VtXY0Dnw4kRnSoAzpFBySY", "types": ["establishment", "point_of_interest"]}]}, "159411136": {"AfN": "geophysical institute university of bergen", "Location": [{"address_components": [{"long_name": "Bergen", "short_name": "Bergen", "types": ["locality", "political"]}, {"long_name": "Hordaland", "short_name": "Hordaland", "types": ["administrative_area_level_1", "political"]}, {"long_name": "Norway", "short_name": "NO", "types": ["country", "political"]}], "formatted_address": "Bergen, Norway", "geometry": {"location": {"lat": 60.3878586, "lng": 5.3217549}, "location_type": "GEOMETRIC_CENTER", "viewport": {"northeast": {"lat": 60.3892075802915, "lng": 5.323103880291502}, "southwest": {"lat": 60.3865096197085, "lng": 5.320405919708498}}}, "place_id": "ChIJKbgI86r-PEYRXgwHwCnc1Xo", "types": ["establishment", "point_of_interest", "university"]}]}, "179651463": {"AfN": "george fox university", "Location": [{"address_components": [{"long_name": "414", "short_name": "414", "types": ["street_number"]}, {"long_name": "North Meridian Street", "short_name": "N Meridian St", "types": ["route"]}, {"long_name": "Newberg", "short_name": "Newberg", "types": ["locality", "political"]}, {"long_name": "Yamhill County", "short_name": "Yamhill County", "types": ["administrative_area_level_2", "political"]}, {"long_name": "Oregon", "short_name": "OR", "types": ["administrative_area_level_1", "political"]}, {"long_name": "United States", "short_name": "US", "types": ["country", "political"]}, {"long_name": "97132", "short_name": "97132", "types": ["postal_code"]}, {"long_name": "2697", "short_name": "2697", "types": ["postal_code_suffix"]}], "formatted_address": "414 N Meridian St, Newberg, OR 97132, USA", "geometry": {"location": {"lat": 45.3033817, "lng": -122.9667381}, "location_type": "ROOFTOP", "viewport": {"northeast": {"lat": 45.30473068029149, "lng": -122.9653891197085}, "southwest": {"lat": 45.3020327197085, "lng": -122.9680870802915}}}, "place_id": "ChIJFdIbDn9qlVQRgyFF5Akv0l8", "types": ["establishment", "point_of_interest", "university"]}]}, "162714631": {"AfN": "george mason university", "Location": [{"address_components": [{"long_name": "4400", "short_name": "4400", "types": ["street_number"]}, {"long_name": "University Drive", "short_name": "University Dr", "types": ["route"]}, {"long_name": "Fairfax", "short_name": "Fairfax", "types": ["locality", "political"]}, {"long_name": "Braddock", "short_name": "Braddock", "types": ["administrative_area_level_3", "political"]}, {"long_name": "Fairfax County", "short_name": "Fairfax County", "types": ["administrative_area_level_2", "political"]}, {"long_name": "Virginia", "short_name": "VA", "types": ["administrative_area_level_1", "political"]}, {"long_name": "United States", "short_name": "US", "types": ["country", "political"]}, {"long_name": "22030", "short_name": "22030", "types": ["postal_code"]}], "formatted_address": "4400 University Dr, Fairfax, VA 22030, USA", "geometry": {"location": {"lat": 38.8314875, "lng": -77.3119442}, "location_type": "ROOFTOP", "viewport": {"northeast": {"lat": 38.8328364802915, "lng": -77.31059521970849}, "southwest": {"lat": 38.8301385197085, "lng": -77.31329318029151}}}, "place_id": "ChIJvX5Ce2BOtokRRHVV5lOmZtc", "types": ["establishment", "point_of_interest", "university"]}]}, "193531525": {"AfN": "george washington university", "Location": [{"address_components": [{"long_name": "2121", "short_name": "2121", "types": ["street_number"]}, {"long_name": "I Street Northwest", "short_name": "I St NW", "types": ["route"]}, {"long_name": "George Washington University", "short_name": "George Washington University", "types": ["neighborhood", "political"]}, {"long_name": "Washington", "short_name": "Washington", "types": ["locality", "political"]}, {"long_name": "District of Columbia", "short_name": "DC", "types": ["administrative_area_level_1", "political"]}, {"long_name": "United States", "short_name": "US", "types": ["country", "political"]}, {"long_name": "20052", "short_name": "20052", "types": ["postal_code"]}], "formatted_address": "2121 I St NW, Washington, DC 20052, USA", "geometry": {"location": {"lat": 38.8997145, "lng": -77.0485992}, "location_type": "ROOFTOP", "viewport": {"northeast": {"lat": 38.9010634802915, "lng": -77.04725021970849}, "southwest": {"lat": 38.8983655197085, "lng": -77.0499481802915}}}, "place_id": "ChIJpXo8DrG3t4kRCKgn3Bv0e9o", "types": ["establishment", "point_of_interest", "university"]}]}, "1286207013": {"AfN": "george washington university hospital", "Location": [{"address_components": [{"long_name": "900", "short_name": "900", "types": ["street_number"]}, {"long_name": "23rd St NW", "short_name": "23rd St NW", "types": ["route"]}, {"long_name": "George Washington University", "short_name": "George Washington University", "types": ["neighborhood", "political"]}, {"long_name": "Washington", "short_name": "Washington", "types": ["locality", "political"]}, {"long_name": "District of Columbia", "short_name": "DC", "types": ["administrative_area_level_1", "political"]}, {"long_name": "United States", "short_name": "US", "types": ["country", "political"]}, {"long_name": "20037", "short_name": "20037", "types": ["postal_code"]}], "formatted_address": "900 23rd St NW, Washington, DC 20037, USA", "geometry": {"location": {"lat": 38.901305, "lng": -77.050646}, "location_type": "ROOFTOP", "viewport": {"northeast": {"lat": 38.9026539802915, "lng": -77.04929701970849}, "southwest": {"lat": 38.8999560197085, "lng": -77.05199498029151}}}, "place_id": "ChIJO3_02LO3t4kRZdyvdVH8OSE", "types": ["establishment", "hospital", "point_of_interest"]}]}, "865166595": {"AfN": "george washington university virginia campus", "Location": [{"address_components": [{"long_name": "45085", "short_name": "45085", "types": ["street_number"]}, {"long_name": "University Drive", "short_name": "University Dr", "types": ["route"]}, {"long_name": "Ashburn", "short_name": "Ashburn", "types": ["locality", "political"]}, {"long_name": "Broad Run", "short_name": "Broad Run", "types": ["administrative_area_level_3", "political"]}, {"long_name": "Loudoun County", "short_name": "Loudoun County", "types": ["administrative_area_level_2", "political"]}, {"long_name": "Virginia", "short_name": "VA", "types": ["administrative_area_level_1", "political"]}, {"long_name": "United States", "short_name": "US", "types": ["country", "political"]}, {"long_name": "20147", "short_name": "20147", "types": ["postal_code"]}, {"long_name": "2766", "short_name": "2766", "types": ["postal_code_suffix"]}], "formatted_address": "45085 University Dr, Ashburn, VA 20147, USA", "geometry": {"location": {"lat": 39.0579819, "lng": -77.4433945}, "location_type": "ROOFTOP", "viewport": {"northeast": {"lat": 39.0593308802915, "lng": -77.44204551970849}, "southwest": {"lat": 39.0566329197085, "lng": -77.44474348029149}}}, "place_id": "ChIJ9RGj3N47tokRebFag2jsfyo", "types": ["establishment", "point_of_interest"]}]}, "184565670": {"AfN": "georgetown university", "Location": [{"address_components": [{"long_name": "3700", "short_name": "3700", "types": ["street_number"]}, {"long_name": "O Street Northwest", "short_name": "O St NW", "types": ["route"]}, {"long_name": "Georgetown", "short_name": "Georgetown", "types": ["neighborhood", "political"]}, {"long_name": "Washington", "short_name": "Washington", "types": ["locality", "political"]}, {"long_name": "District of Columbia", "short_name": "DC", "types": ["administrative_area_level_1", "political"]}, {"long_name": "United States", "short_name": "US", "types": ["country", "political"]}, {"long_name": "20057", "short_name": "20057", "types": ["postal_code"]}], "formatted_address": "3700 O St NW, Washington, DC 20057, USA", "geometry": {"location": {"lat": 38.9076089, "lng": -77.07225849999999}, "location_type": "ROOFTOP", "viewport": {"northeast": {"lat": 38.9089578802915, "lng": -77.07090951970848}, "southwest": {"lat": 38.9062599197085, "lng": -77.0736074802915}}}, "place_id": "ChIJa4-fzkC2t4kRgihmVAVtnRw", "types": ["establishment", "point_of_interest", "university"]}]}, "138220800": {"AfN": "georgia college state university", "Location": [{"address_components": [{"long_name": "231", "short_name": "231", "types": ["street_number"]}, {"long_name": "West Hancock Street", "short_name": "W Hancock St", "types": ["route"]}, {"long_name": "Milledgeville", "short_name": "Milledgeville", "types": ["locality", "political"]}, {"long_name": "Baldwin County", "short_name": "Baldwin County", "types": ["administrative_area_level_2", "political"]}, {"long_name": "Georgia", "short_name": "GA", "types": ["administrative_area_level_1", "political"]}, {"long_name": "United States", "short_name": "US", "types": ["country", "political"]}, {"long_name": "31061", "short_name": "31061", "types": ["postal_code"]}], "formatted_address": "231 W Hancock St, Milledgeville, GA 31061, USA", "geometry": {"location": {"lat": 33.0798884, "lng": -83.2318054}, "location_type": "ROOFTOP", "viewport": {"northeast": {"lat": 33.0812373802915, "lng": -83.2304564197085}, "southwest": {"lat": 33.07853941970851, "lng": -83.23315438029151}}}, "place_id": "ChIJraNH6ebH9ogRRzqlHqKWHTw", "types": ["establishment", "point_of_interest", "university"]}]}, "130701444": {"AfN": "georgia institute of technology", "Location": [{"address_components": [{"long_name": "North Ave NW", "short_name": "North Ave NW", "types": ["route"]}, {"long_name": "Atlanta", "short_name": "Atlanta", "types": ["locality", "political"]}, {"long_name": "Fulton County", "short_name": "Fulton County", "types": ["administrative_area_level_2", "political"]}, {"long_name": "Georgia", "short_name": "GA", "types": ["administrative_area_level_1", "political"]}, {"long_name": "United States", "short_name": "US", "types": ["country", "political"]}, {"long_name": "30332", "short_name": "30332", "types": ["postal_code"]}], "formatted_address": "North Ave NW, Atlanta, GA 30332, USA", "geometry": {"location": {"lat": 33.7756178, "lng": -84.39628499999999}, "location_type": "GEOMETRIC_CENTER", "viewport": {"northeast": {"lat": 33.7769667802915, "lng": -84.3949360197085}, "southwest": {"lat": 33.7742688197085, "lng": -84.3976339802915}}}, "place_id": "ChIJ40_D64oE9YgRD8XYOj7QKrU", "types": ["establishment", "point_of_interest", "school", "university"]}]}, "136313497": {"AfN": "georgia perimeter college", "Location": [{"address_components": [{"long_name": "3705", "short_name": "3705", "types": ["street_number"]}, {"long_name": "Brookside Parkway", "short_name": "Brookside Pkwy", "types": ["route"]}, {"long_name": "Alpharetta", "short_name": "Alpharetta", "types": ["locality", "political"]}, {"long_name": "Fulton County", "short_name": "Fulton County", "types": ["administrative_area_level_2", "political"]}, {"long_name": "Georgia", "short_name": "GA", "types": ["administrative_area_level_1", "political"]}, {"long_name": "United States", "short_name": "US", "types": ["country", "political"]}, {"long_name": "30022", "short_name": "30022", "types": ["postal_code"]}, {"long_name": "4408", "short_name": "4408", "types": ["postal_code_suffix"]}], "formatted_address": "3705 Brookside Pkwy, Alpharetta, GA 30022, USA", "geometry": {"location": {"lat": 34.0610523, "lng": -84.2551412}, "location_type": "ROOFTOP", "viewport": {"northeast": {"lat": 34.0624012802915, "lng": -84.25379221970849}, "southwest": {"lat": 34.0597033197085, "lng": -84.2564901802915}}}, "place_id": "ChIJ85IyQMyf9YgRsu8AtoI03sE", "types": ["establishment", "point_of_interest", "university"]}]}, "25041050": {"AfN": "georgia regents university", "Location": [{"address_components": [{"long_name": "1120", "short_name": "1120", "types": ["street_number"]}, {"long_name": "15th St", "short_name": "15th St", "types": ["route"]}, {"long_name": "Medical District", "short_name": "Medical District", "types": ["neighborhood", "political"]}, {"long_name": "Augusta", "short_name": "Augusta", "types": ["locality", "political"]}, {"long_name": "Richmond County", "short_name": "Richmond County", "types": ["administrative_area_level_2", "political"]}, {"long_name": "Georgia", "short_name": "GA", "types": ["administrative_area_level_1", "political"]}, {"long_name": "United States", "short_name": "US", "types": ["country", "political"]}, {"long_name": "30912", "short_name": "30912", "types": ["postal_code"]}], "formatted_address": "1120 15th St, Augusta, GA 30912, USA", "geometry": {"location": {"lat": 33.4708579, "lng": -81.9875923}, "location_type": "ROOFTOP", "viewport": {"northeast": {"lat": 33.47220688029149, "lng": -81.98624331970849}, "southwest": {"lat": 33.4695089197085, "lng": -81.98894128029151}}}, "place_id": "ChIJ29i_FjbM-YgRrnmZLbqqiPI", "types": ["establishment", "point_of_interest", "university"]}]}, "39815113": {"AfN": "georgia southern university", "Location": [{"address_components": [{"long_name": "1332", "short_name": "1332", "types": ["street_number"]}, {"long_name": "Southern Drive", "short_name": "Southern Dr", "types": ["route"]}, {"long_name": "Statesboro", "short_name": "Statesboro", "types": ["locality", "political"]}, {"long_name": "Bulloch County", "short_name": "Bulloch County", "types": ["administrative_area_level_2", "political"]}, {"long_name": "Georgia", "short_name": "GA", "types": ["administrative_area_level_1", "political"]}, {"long_name": "United States", "short_name": "US", "types": ["country", "political"]}, {"long_name": "30458", "short_name": "30458", "types": ["postal_code"]}], "formatted_address": "1332 Southern Dr, Statesboro, GA 30458, USA", "geometry": {"location": {"lat": 32.42054890000001, "lng": -81.78653469999999}, "location_type": "ROOFTOP", "viewport": {"northeast": {"lat": 32.42189788029151, "lng": -81.7851857197085}, "southwest": {"lat": 32.41919991970851, "lng": -81.7878836802915}}}, "place_id": "ChIJH5neYdFA-ogRtExwVK1ETn8", "types": ["establishment", "point_of_interest", "university"]}]}, "130075709": {"AfN": "georgia southwestern state university", "Location": [{"address_components": [{"long_name": "800", "short_name": "800", "types": ["street_number"]}, {"long_name": "Georgia Southwestern State University Drive", "short_name": "Georgia Southwestern State University Drive", "types": ["route"]}, {"long_name": "Americus", "short_name": "Americus", "types": ["locality", "political"]}, {"long_name": "Sumter County", "short_name": "Sumter County", "types": ["administrative_area_level_2", "political"]}, {"long_name": "Georgia", "short_name": "GA", "types": ["administrative_area_level_1", "political"]}, {"long_name": "United States", "short_name": "US", "types": ["country", "political"]}, {"long_name": "31709", "short_name": "31709", "types": ["postal_code"]}], "formatted_address": "800 Georgia Southwestern State University Drive, Americus, GA 31709, USA", "geometry": {"location": {"lat": 32.0562795, "lng": -84.2176343}, "location_type": "ROOFTOP", "viewport": {"northeast": {"lat": 32.0622754, "lng": -84.2089568}, "southwest": {"lat": 32.0509688, "lng": -84.2250823}}}, "place_id": "ChIJJ5uTr3NX8ogRo2C9gJOt_rI", "types": ["establishment", "point_of_interest", "university"]}]}, "181565077": {"AfN": "georgia state university", "Location": [{"address_components": [{"long_name": "Atlanta", "short_name": "Atlanta", "types": ["locality", "political"]}, {"long_name": "Downtown", "short_name": "Downtown", "types": ["neighborhood", "political"]}, {"long_name": "Fulton County", "short_name": "Fulton County", "types": ["administrative_area_level_2", "political"]}, {"long_name": "Georgia", "short_name": "GA", "types": ["administrative_area_level_1", "political"]}, {"long_name": "United States", "short_name": "US", "types": ["country", "political"]}, {"long_name": "30302", "short_name": "30302", "types": ["postal_code"]}], "formatted_address": "Atlanta, GA 30302, USA", "geometry": {"location": {"lat": 33.753068, "lng": -84.38528190000001}, "location_type": "GEOMETRIC_CENTER", "viewport": {"northeast": {"lat": 33.7544169802915, "lng": -84.38393291970851}, "southwest": {"lat": 33.7517190197085, "lng": -84.38663088029152}}}, "place_id": "ChIJueHvE4YD9YgRl25c4JufwUo", "types": ["establishment", "point_of_interest", "university"]}]}, "927275310": {"AfN": "georgia tech research institute", "Location": [{"address_components": [{"long_name": "400", "short_name": "400", "types": ["street_number"]}, {"long_name": "10th Street Northwest", "short_name": "10th St NW", "types": ["route"]}, {"long_name": "Georgia Tech", "short_name": "Georgia Tech", "types": ["neighborhood", "political"]}, {"long_name": "Atlanta", "short_name": "Atlanta", "types": ["locality", "political"]}, {"long_name": "Fulton County", "short_name": "Fulton County", "types": ["administrative_area_level_2", "political"]}, {"long_name": "Georgia", "short_name": "GA", "types": ["administrative_area_level_1", "political"]}, {"long_name": "United States", "short_name": "US", "types": ["country", "political"]}, {"long_name": "30318", "short_name": "30318", "types": ["postal_code"]}, {"long_name": "5712", "short_name": "5712", "types": ["postal_code_suffix"]}], "formatted_address": "400 10th St NW, Atlanta, GA 30318, USA", "geometry": {"location": {"lat": 33.7810109, "lng": -84.40039929999999}, "location_type": "ROOFTOP", "viewport": {"northeast": {"lat": 33.78235988029149, "lng": -84.39905031970848}, "southwest": {"lat": 33.7796619197085, "lng": -84.40174828029149}}}, "place_id": "ChIJd_KISIsE9YgRs2PgPM3q_aU", "types": ["establishment", "point_of_interest"]}]}, "1331816111": {"AfN": "geoscience australia", "Location": [{"address_components": [{"long_name": "101", "short_name": "101", "types": ["street_number"]}, {"long_name": "Jerrabomberra Avenue", "short_name": "Jerrabomberra Ave", "types": ["route"]}, {"long_name": "Symonston", "short_name": "Symonston", "types": ["locality", "political"]}, {"long_name": "Australian Capital Territory", "short_name": "ACT", "types": ["administrative_area_level_1", "political"]}, {"long_name": "Australia", "short_name": "AU", "types": ["country", "political"]}, {"long_name": "2609", "short_name": "2609", "types": ["postal_code"]}], "formatted_address": "101 Jerrabomberra Ave, Symonston ACT 2609, Australia", "geometry": {"location": {"lat": -35.3434587, "lng": 149.1585017}, "location_type": "ROOFTOP", "viewport": {"northeast": {"lat": -35.3421097197085, "lng": 149.1598506802915}, "southwest": {"lat": -35.3448076802915, "lng": 149.1571527197085}}}, "place_id": "ChIJ5cWp_2RMFmsRULUEQ4_jKeg", "types": ["establishment", "point_of_interest"]}]}, "165755214": {"AfN": "geoscience research institute", "Location": [{"address_components": [{"long_name": "11060", "short_name": "11060", "types": ["street_number"]}, {"long_name": "Campus Street", "short_name": "Campus St", "types": ["route"]}, {"long_name": "Loma Linda", "short_name": "Loma Linda", "types": ["locality", "political"]}, {"long_name": "San Bernardino County", "short_name": "San Bernardino County", "types": ["administrative_area_level_2", "political"]}, {"long_name": "California", "short_name": "CA", "types": ["administrative_area_level_1", "political"]}, {"long_name": "United States", "short_name": "US", "types": ["country", "political"]}, {"long_name": "92354", "short_name": "92354", "types": ["postal_code"]}], "formatted_address": "11060 Campus St, Loma Linda, CA 92354, USA", "geometry": {"location": {"lat": 34.0526712, "lng": -117.2660023}, "location_type": "ROOFTOP", "viewport": {"northeast": {"lat": 34.0540201802915, "lng": -117.2646533197085}, "southwest": {"lat": 34.0513222197085, "lng": -117.2673512802915}}}, "place_id": "ChIJxymDDIer3IARGnBL28faG3E", "types": ["establishment", "point_of_interest"]}]}, "17937529": {"AfN": "german cancer research center", "Location": [{"address_components": [{"long_name": "280", "short_name": "280", "types": ["street_number"]}, {"long_name": "Im Neuenheimer Feld", "short_name": "Im Neuenheimer Feld", "types": ["route"]}, {"long_name": "Heidelberg", "short_name": "Heidelberg", "types": ["locality", "political"]}, {"long_name": "Karlsruhe", "short_name": "KA", "types": ["administrative_area_level_2", "political"]}, {"long_name": "Baden-W\u00fcrttemberg", "short_name": "BW", "types": ["administrative_area_level_1", "political"]}, {"long_name": "Germany", "short_name": "DE", "types": ["country", "political"]}, {"long_name": "69120", "short_name": "69120", "types": ["postal_code"]}], "formatted_address": "Im Neuenheimer Feld 280, 69120 Heidelberg, Germany", "geometry": {"location": {"lat": 49.414414, "lng": 8.672960699999999}, "location_type": "ROOFTOP", "viewport": {"northeast": {"lat": 49.4157629802915, "lng": 8.6743096802915}, "southwest": {"lat": 49.4130650197085, "lng": 8.671611719708496}}}, "place_id": "ChIJxe8fCC_Bl0cRcQaGAXPAeP8", "types": ["establishment", "point_of_interest"]}]}, "120402012": {"AfN": "german historical institute", "Location": [{"address_components": [{"long_name": "1607", "short_name": "1607", "types": ["street_number"]}, {"long_name": "New Hampshire Avenue Northwest", "short_name": "New Hampshire Ave NW", "types": ["route"]}, {"long_name": "Northwest Washington", "short_name": "Northwest Washington", "types": ["neighborhood", "political"]}, {"long_name": "Washington", "short_name": "Washington", "types": ["locality", "political"]}, {"long_name": "District of Columbia", "short_name": "DC", "types": ["administrative_area_level_1", "political"]}, {"long_name": "United States", "short_name": "US", "types": ["country", "political"]}, {"long_name": "20009", "short_name": "20009", "types": ["postal_code"]}], "formatted_address": "1607 New Hampshire Ave NW, Washington, DC 20009, USA", "geometry": {"location": {"lat": 38.91176, "lng": -77.0410436}, "location_type": "ROOFTOP", "viewport": {"northeast": {"lat": 38.9131089802915, "lng": -77.03969461970848}, "southwest": {"lat": 38.9104110197085, "lng": -77.0423925802915}}}, "place_id": "ChIJJ_g_nMa3t4kRqxvx2QMj4G4", "types": ["establishment", "library", "point_of_interest"]}]}, "1282776028": {"AfN": "german institute for economic research", "Location": [{"address_components": [{"long_name": "58", "short_name": "58", "types": ["street_number"]}, {"long_name": "Mohrenstra\u00dfe", "short_name": "Mohrenstra\u00dfe", "types": ["route"]}, {"long_name": "Mitte", "short_name": "Mitte", "types": ["political", "sublocality", "sublocality_level_1"]}, {"long_name": "Berlin", "short_name": "Berlin", "types": ["locality", "political"]}, {"long_name": "Berlin", "short_name": "Berlin", "types": ["administrative_area_level_1", "political"]}, {"long_name": "Germany", "short_name": "DE", "types": ["country", "political"]}, {"long_name": "10117", "short_name": "10117", "types": ["postal_code"]}], "formatted_address": "Mohrenstra\u00dfe 58, 10117 Berlin, Germany", "geometry": {"location": {"lat": 52.5121577, "lng": 13.3886677}, "location_type": "ROOFTOP", "viewport": {"northeast": {"lat": 52.51350668029151, "lng": 13.3900166802915}, "southwest": {"lat": 52.51080871970851, "lng": 13.3873187197085}}}, "place_id": "ChIJO_U-CtBRqEcRDLDWTzoCD5s", "types": ["establishment", "point_of_interest"]}]}, "1285933455": {"AfN": "german national metrology institute", "Location": [{"address_components": [{"long_name": "100", "short_name": "100", "types": ["street_number"]}, {"long_name": "Bundesallee", "short_name": "Bundesallee", "types": ["route"]}, {"long_name": "Lehndorf-Watenb\u00fcttel", "short_name": "Lehndorf-Watenb\u00fcttel", "types": ["political", "sublocality", "sublocality_level_1"]}, {"long_name": "Braunschweig", "short_name": "BS", "types": ["locality", "political"]}, {"long_name": "Niedersachsen", "short_name": "NDS", "types": ["administrative_area_level_1", "political"]}, {"long_name": "Germany", "short_name": "DE", "types": ["country", "political"]}, {"long_name": "38116", "short_name": "38116", "types": ["postal_code"]}], "formatted_address": "Bundesallee 100, 38116 Braunschweig, Germany", "geometry": {"location": {"lat": 52.29648419999999, "lng": 10.4631555}, "location_type": "ROOFTOP", "viewport": {"northeast": {"lat": 52.2978331802915, "lng": 10.4645044802915}, "southwest": {"lat": 52.2951352197085, "lng": 10.4618065197085}}}, "place_id": "ChIJawCzoxD3r0cRX7XbUg8fw30", "types": ["establishment", "point_of_interest"]}]}, "137533716": {"AfN": "german sport university cologne", "Location": [{"address_components": [{"long_name": "6", "short_name": "6", "types": ["street_number"]}, {"long_name": "Am Sportpark M\u00fcngersdorf", "short_name": "Am Sportpark M\u00fcngersdorf", "types": ["route"]}, {"long_name": "Lindenthal", "short_name": "Lindenthal", "types": ["political", "sublocality", "sublocality_level_1"]}, {"long_name": "K\u00f6ln", "short_name": "K\u00f6ln", "types": ["locality", "political"]}, {"long_name": "K\u00f6ln", "short_name": "K", "types": ["administrative_area_level_2", "political"]}, {"long_name": "Nordrhein-Westfalen", "short_name": "NRW", "types": ["administrative_area_level_1", "political"]}, {"long_name": "Germany", "short_name": "DE", "types": ["country", "political"]}, {"long_name": "50933", "short_name": "50933", "types": ["postal_code"]}], "formatted_address": "Am Sportpark M\u00fcngersdorf 6, 50933 K\u00f6ln, Germany", "geometry": {"location": {"lat": 50.9354425, "lng": 6.869907100000001}, "location_type": "ROOFTOP", "viewport": {"northeast": {"lat": 50.9367914802915, "lng": 6.871256080291503}, "southwest": {"lat": 50.9340935197085, "lng": 6.868558119708499}}}, "place_id": "ChIJUfriryA7v0cRYtI3Rai6AYk", "types": ["establishment", "point_of_interest", "university"]}]}, "176113532": {"AfN": "gettysburg college", "Location": [{"address_components": [{"long_name": "300", "short_name": "300", "types": ["street_number"]}, {"long_name": "North Washington Street", "short_name": "N Washington St", "types": ["route"]}, {"long_name": "Gettysburg", "short_name": "Gettysburg", "types": ["locality", "political"]}, {"long_name": "Adams County", "short_name": "Adams County", "types": ["administrative_area_level_2", "political"]}, {"long_name": "Pennsylvania", "short_name": "PA", "types": ["administrative_area_level_1", "political"]}, {"long_name": "United States", "short_name": "US", "types": ["country", "political"]}, {"long_name": "17325", "short_name": "17325", "types": ["postal_code"]}], "formatted_address": "300 N Washington St, Gettysburg, PA 17325, USA", "geometry": {"location": {"lat": 39.8362073, "lng": -77.2375078}, "location_type": "ROOFTOP", "viewport": {"northeast": {"lat": 39.83755628029149, "lng": -77.23615881970849}, "southwest": {"lat": 39.8348583197085, "lng": -77.23885678029151}}}, "place_id": "ChIJC0FDYoisyYkRAhAi68Dzre8", "types": ["establishment", "point_of_interest", "university"]}]}, "1327735512": {"AfN": "gevo inc", "Location": [{"address_components": [{"long_name": "345", "short_name": "345", "types": ["street_number"]}, {"long_name": "Inverness Drive South", "short_name": "Inverness Dr S", "types": ["route"]}, {"long_name": "Meridian", "short_name": "Meridian", "types": ["neighborhood", "political"]}, {"long_name": "Englewood", "short_name": "Englewood", "types": ["locality", "political"]}, {"long_name": "Douglas County", "short_name": "Douglas County", "types": ["administrative_area_level_2", "political"]}, {"long_name": "Colorado", "short_name": "CO", "types": ["administrative_area_level_1", "political"]}, {"long_name": "United States", "short_name": "US", "types": ["country", "political"]}, {"long_name": "80112", "short_name": "80112", "types": ["postal_code"]}, {"long_name": "5892", "short_name": "5892", "types": ["postal_code_suffix"]}], "formatted_address": "345 Inverness Dr S, Englewood, CO 80112, USA", "geometry": {"location": {"lat": 39.5590521, "lng": -104.8552108}, "location_type": "ROOFTOP", "viewport": {"northeast": {"lat": 39.5604010802915, "lng": -104.8538618197085}, "southwest": {"lat": 39.5577031197085, "lng": -104.8565597802915}}}, "place_id": "ChIJy47tEJuFbIcRHXXtruFLHGc", "types": ["establishment", "point_of_interest"]}]}, "37622773": {"AfN": "ghana atomic energy commission", "Location": [{"address_components": [{"long_name": "Ghana", "short_name": "GH", "types": ["country", "political"]}, {"long_name": "Accra Metropolis", "short_name": "Accra Metropolis", "types": ["administrative_area_level_2", "political"]}, {"long_name": "Greater Accra Region", "short_name": "Greater Accra Region", "types": ["administrative_area_level_1", "political"]}], "formatted_address": "Ghana", "geometry": {"location": {"lat": 5.6778257, "lng": -0.2202415}, "location_type": "GEOMETRIC_CENTER", "viewport": {"northeast": {"lat": 5.679174680291502, "lng": -0.218892519708498}, "southwest": {"lat": 5.676476719708498, "lng": -0.221590480291502}}}, "place_id": "ChIJD9Curyic3w8RWOFi-qj0UpM", "types": ["establishment", "point_of_interest"]}]}, "34828755": {"AfN": "ghd group", "Location": [{"address_components": [{"long_name": "11004", "short_name": "11004", "types": ["street_number"]}, {"long_name": "East 51st Street", "short_name": "E 51st St", "types": ["route"]}, {"long_name": "Tulsa", "short_name": "Tulsa", "types": ["locality", "political"]}, {"long_name": "Tulsa County", "short_name": "Tulsa County", "types": ["administrative_area_level_2", "political"]}, {"long_name": "Oklahoma", "short_name": "OK", "types": ["administrative_area_level_1", "political"]}, {"long_name": "United States", "short_name": "US", "types": ["country", "political"]}, {"long_name": "74146", "short_name": "74146", "types": ["postal_code"]}], "formatted_address": "11004 E 51st St, Tulsa, OK 74146, USA", "geometry": {"location": {"lat": 36.0896197, "lng": -95.85381799999999}, "location_type": "ROOFTOP", "viewport": {"northeast": {"lat": 36.0909686802915, "lng": -95.85246901970848}, "southwest": {"lat": 36.0882707197085, "lng": -95.85516698029149}}}, "place_id": "ChIJsV2kBOOMtocRwsTbOOqFKc0", "types": ["establishment", "point_of_interest"]}]}, "32597200": {"AfN": "ghent university", "Location": [{"address_components": [{"long_name": "33", "short_name": "33", "types": ["street_number"]}, {"long_name": "St. Pietersnieuwstraat", "short_name": "St. Pietersnieuwstraat", "types": ["route"]}, {"long_name": "Gent", "short_name": "Gent", "types": ["locality", "political"]}, {"long_name": "Oost-Vlaanderen", "short_name": "OV", "types": ["administrative_area_level_2", "political"]}, {"long_name": "Vlaanderen", "short_name": "Vlaanderen", "types": ["administrative_area_level_1", "political"]}, {"long_name": "Belgium", "short_name": "BE", "types": ["country", "political"]}, {"long_name": "9000", "short_name": "9000", "types": ["postal_code"]}], "formatted_address": "St. Pietersnieuwstraat 33, 9000 Gent, Belgium", "geometry": {"location": {"lat": 51.0465619, "lng": 3.727918099999999}, "location_type": "ROOFTOP", "viewport": {"northeast": {"lat": 51.0479108802915, "lng": 3.729267080291502}, "southwest": {"lat": 51.0452129197085, "lng": 3.726569119708497}}}, "place_id": "ChIJP_Kmegh0w0cRg0cQjgEi89c", "types": ["establishment", "point_of_interest", "university"]}]}, "5400463": {"AfN": "ghulam ishaq khan institute of engineering sciences and technology", "Location": [{"address_components": [{"long_name": "Topi", "short_name": "Topi", "types": ["locality", "political"]}, {"long_name": "Pakistan", "short_name": "PK", "types": ["country", "political"]}, {"long_name": "23640", "short_name": "23640", "types": ["postal_code"]}], "formatted_address": "Tarbela Road, District Swabi, Khyber Pakhtoon Khwa\u060c Topi, 23640, Pakistan", "geometry": {"location": {"lat": 34.0691452, "lng": 72.6441351}, "location_type": "GEOMETRIC_CENTER", "viewport": {"northeast": {"lat": 34.0704941802915, "lng": 72.64548408029151}, "southwest": {"lat": 34.06779621970851, "lng": 72.64278611970849}}}, "place_id": "ChIJ18CXVzz53jgRJbaavoVZRJU", "types": ["establishment", "point_of_interest", "university"]}]}, "1304620757": {"AfN": "gibbon conservation center", "Location": [{"address_components": [{"long_name": "19100", "short_name": "19100", "types": ["street_number"]}, {"long_name": "Esguerra Road", "short_name": "Esguerra Rd", "types": ["route"]}, {"long_name": "Santa Clarita", "short_name": "Santa Clarita", "types": ["locality", "political"]}, {"long_name": "Los Angeles County", "short_name": "Los Angeles County", "types": ["administrative_area_level_2", "political"]}, {"long_name": "California", "short_name": "CA", "types": ["administrative_area_level_1", "political"]}, {"long_name": "United States", "short_name": "US", "types": ["country", "political"]}, {"long_name": "91390", "short_name": "91390", "types": ["postal_code"]}], "formatted_address": "19100 Esguerra Rd, Santa Clarita, CA 91390, USA", "geometry": {"location": {"lat": 34.4653967, "lng": -118.4697983}, "location_type": "ROOFTOP", "viewport": {"northeast": {"lat": 34.4667456802915, "lng": -118.4684493197085}, "southwest": {"lat": 34.4640477197085, "lng": -118.4711472802915}}}, "place_id": "ChIJEaGprqZiwoARfy8MOd7zMRI", "types": ["establishment", "point_of_interest", "zoo"]}]}, "927599936": {"AfN": "gibraltar hardware", "Location": [{"address_components": [{"long_name": "32234", "short_name": "32234", "types": ["street_number"]}, {"long_name": "West Jefferson Avenue", "short_name": "W Jefferson Ave", "types": ["route"]}, {"long_name": "Rockwood", "short_name": "Rockwood", "types": ["locality", "political"]}, {"long_name": "Wayne County", "short_name": "Wayne County", "types": ["administrative_area_level_2", "political"]}, {"long_name": "Michigan", "short_name": "MI", "types": ["administrative_area_level_1", "political"]}, {"long_name": "United States", "short_name": "US", "types": ["country", "political"]}, {"long_name": "48173", "short_name": "48173", "types": ["postal_code"]}, {"long_name": "9644", "short_name": "9644", "types": ["postal_code_suffix"]}], "formatted_address": "32234 W Jefferson Ave, Rockwood, MI 48173, USA", "geometry": {"location": {"lat": 42.07294599999999, "lng": -83.211398}, "location_type": "ROOFTOP", "viewport": {"northeast": {"lat": 42.07429498029149, "lng": -83.2100490197085}, "southwest": {"lat": 42.07159701970849, "lng": -83.21274698029151}}}, "place_id": "ChIJmRsdTKo_O4gRjUWoWnpCjXo", "types": ["establishment", "hardware_store", "liquor_store", "point_of_interest", "store"]}]}, "173865709": {"AfN": "gifu pharmaceutical university", "Location": [{"address_components": [{"long_name": "4", "short_name": "4", "types": ["premise"]}, {"long_name": "25", "short_name": "25", "types": ["political", "sublocality", "sublocality_level_4"]}, {"long_name": "1 Chome", "short_name": "1 Chome", "types": ["political", "sublocality", "sublocality_level_3"]}, {"long_name": "Daigakunishi", "short_name": "Daigakunishi", "types": ["political", "sublocality", "sublocality_level_2"]}, {"long_name": "Gifu", "short_name": "Gifu", "types": ["locality", "political"]}, {"long_name": "Gifu Prefecture", "short_name": "Gifu Prefecture", "types": ["administrative_area_level_1", "political"]}, {"long_name": "Japan", "short_name": "JP", "types": ["country", "political"]}, {"long_name": "501-1196", "short_name": "501-1196", "types": ["postal_code"]}], "formatted_address": "1 Chome-25-4 Daigakunishi, Gifu, Gifu Prefecture 501-1196, Japan", "geometry": {"location": {"lat": 35.465692, "lng": 136.733819}, "location_type": "ROOFTOP", "viewport": {"northeast": {"lat": 35.46704098029149, "lng": 136.7351679802915}, "southwest": {"lat": 35.46434301970849, "lng": 136.7324700197085}}}, "place_id": "ChIJw5wpjZGsA2ARsvOoLsadsXM", "types": ["establishment", "point_of_interest", "university"]}, {"address_components": [{"long_name": "1-1", "short_name": "1-1", "types": ["premise"]}, {"long_name": "Yanagido", "short_name": "Yanagido", "types": ["political", "sublocality", "sublocality_level_2"]}, {"long_name": "Gifu", "short_name": "Gifu", "types": ["locality", "political"]}, {"long_name": "Gifu Prefecture", "short_name": "Gifu Prefecture", "types": ["administrative_area_level_1", "political"]}, {"long_name": "Japan", "short_name": "JP", "types": ["country", "political"]}, {"long_name": "501-1193", "short_name": "501-1193", "types": ["postal_code"]}], "formatted_address": "1-1 Yanagido, Gifu, Gifu Prefecture 501-1193, Japan", "geometry": {"location": {"lat": 35.4662236, "lng": 136.7365752}, "location_type": "ROOFTOP", "viewport": {"northeast": {"lat": 35.4675725802915, "lng": 136.7379241802915}, "southwest": {"lat": 35.4648746197085, "lng": 136.7352262197085}}}, "place_id": "ChIJq_NVmoWsA2ARnquhtViNn_g", "types": ["establishment", "point_of_interest", "university"]}]}, "42405503": {"AfN": "gifu university", "Location": [{"address_components": [{"long_name": "1-1", "short_name": "1-1", "types": ["premise"]}, {"long_name": "Yanagido", "short_name": "Yanagido", "types": ["political", "sublocality", "sublocality_level_2"]}, {"long_name": "Gifu", "short_name": "Gifu", "types": ["locality", "political"]}, {"long_name": "Gifu Prefecture", "short_name": "Gifu Prefecture", "types": ["administrative_area_level_1", "political"]}, {"long_name": "Japan", "short_name": "JP", "types": ["country", "political"]}, {"long_name": "501-1193", "short_name": "501-1193", "types": ["postal_code"]}], "formatted_address": "1-1 Yanagido, Gifu, Gifu Prefecture 501-1193, Japan", "geometry": {"location": {"lat": 35.4662236, "lng": 136.7365752}, "location_type": "ROOFTOP", "viewport": {"northeast": {"lat": 35.4675725802915, "lng": 136.7379241802915}, "southwest": {"lat": 35.4648746197085, "lng": 136.7352262197085}}}, "place_id": "ChIJq_NVmoWsA2ARnquhtViNn_g", "types": ["establishment", "point_of_interest", "university"]}]}, "40502580": {"AfN": "gifu university of medical science", "Location": [{"address_components": [{"long_name": "795-1", "short_name": "795-1", "types": ["premise"]}, {"long_name": "\u5b57\u9577\u5cf0", "short_name": "\u5b57\u9577\u5cf0", "types": ["political", "sublocality", "sublocality_level_3"]}, {"long_name": "\u5e73\u8cc0", "short_name": "\u5e73\u8cc0", "types": ["political", "sublocality", "sublocality_level_2"]}, {"long_name": "Seki", "short_name": "Seki", "types": ["locality", "political"]}, {"long_name": "Gifu Prefecture", "short_name": "Gifu Prefecture", "types": ["administrative_area_level_1", "political"]}, {"long_name": "Japan", "short_name": "JP", "types": ["country", "political"]}, {"long_name": "501-3892", "short_name": "501-3892", "types": ["postal_code"]}], "formatted_address": "Japan, \u3012501-3892 Gifu Prefecture, Seki, \u5e73\u8cc0\u5b57\u9577\u5cf0\uff17\uff19\uff15\u2212\uff11", "geometry": {"location": {"lat": 35.4911495, "lng": 136.9515415}, "location_type": "ROOFTOP", "viewport": {"northeast": {"lat": 35.49249848029149, "lng": 136.9528904802915}, "southwest": {"lat": 35.4898005197085, "lng": 136.9501925197085}}}, "place_id": "ChIJ-1Oj0O8EA2AREAbl0VIIo40", "types": ["establishment", "point_of_interest", "school", "university"]}]}, "904437910": {"AfN": "gkn", "Location": [{"address_components": [{"long_name": "429", "short_name": "429", "types": ["street_number"]}, {"long_name": "North West Road", "short_name": "N West Rd", "types": ["route"]}, {"long_name": "Wellington", "short_name": "Wellington", "types": ["locality", "political"]}, {"long_name": "Seventy-Six", "short_name": "Seventy-Six", "types": ["administrative_area_level_3", "political"]}, {"long_name": "Sumner County", "short_name": "Sumner County", "types": ["administrative_area_level_2", "political"]}, {"long_name": "Kansas", "short_name": "KS", "types": ["administrative_area_level_1", "political"]}, {"long_name": "United States", "short_name": "US", "types": ["country", "political"]}, {"long_name": "67152", "short_name": "67152", "types": ["postal_code"]}, {"long_name": "8047", "short_name": "8047", "types": ["postal_code_suffix"]}], "formatted_address": "429 N West Rd, Wellington, KS 67152, USA", "geometry": {"location": {"lat": 37.3228851, "lng": -97.3855928}, "location_type": "ROOFTOP", "viewport": {"northeast": {"lat": 37.3242340802915, "lng": -97.38424381970849}, "southwest": {"lat": 37.3215361197085, "lng": -97.3869417802915}}}, "place_id": "ChIJ-R653I-WuocR08Nrw3SqjIk", "types": ["establishment", "point_of_interest"]}]}, "82571370": {"AfN": "gla university", "Location": [{"address_components": [{"long_name": "Mathura", "short_name": "Mathura", "types": ["locality", "political"]}, {"long_name": "Uttar Pradesh", "short_name": "UP", "types": ["administrative_area_level_1", "political"]}, {"long_name": "India", "short_name": "IN", "types": ["country", "political"]}, {"long_name": "281406", "short_name": "281406", "types": ["postal_code"]}], "formatted_address": "17km Stone, NH-2, Mathura-Delhi Road P.O. Chaumuhan, Mathura, Uttar Pradesh 281406, India", "geometry": {"location": {"lat": 27.6055924, "lng": 77.5930345}, "location_type": "GEOMETRIC_CENTER", "viewport": {"northeast": {"lat": 27.6069413802915, "lng": 77.5943834802915}, "southwest": {"lat": 27.6042434197085, "lng": 77.59168551970849}}}, "place_id": "ChIJOcD_e-RsczkRQWMsqT385Q8", "types": ["establishment", "point_of_interest", "university"]}, {"address_components": [{"long_name": "Bharthia", "short_name": "Bharthia", "types": ["locality", "political"]}, {"long_name": "Mathura", "short_name": "Mathura", "types": ["administrative_area_level_2", "political"]}, {"long_name": "Uttar Pradesh", "short_name": "UP", "types": ["administrative_area_level_1", "political"]}, {"long_name": "India", "short_name": "IN", "types": ["country", "political"]}, {"long_name": "281406", "short_name": "281406", "types": ["postal_code"]}], "formatted_address": "Bharthia, Uttar Pradesh 281406, India", "geometry": {"location": {"lat": 27.6033168, "lng": 77.5959534}, "location_type": "GEOMETRIC_CENTER", "viewport": {"northeast": {"lat": 27.6046657802915, "lng": 77.59730238029151}, "southwest": {"lat": 27.60196781970849, "lng": 77.5946044197085}}}, "place_id": "ChIJDxIBLuNsczkRvJucLYRtTDw", "types": ["establishment", "point_of_interest", "university"]}]}, "1321430492": {"AfN": "gladstone institutes", "Location": [{"address_components": [{"long_name": "1650", "short_name": "1650", "types": ["street_number"]}, {"long_name": "Owens Street", "short_name": "Owens St", "types": ["route"]}, {"long_name": "Mission Bay", "short_name": "Mission Bay", "types": ["neighborhood", "political"]}, {"long_name": "San Francisco", "short_name": "SF", "types": ["locality", "political"]}, {"long_name": "San Francisco County", "short_name": "San Francisco County", "types": ["administrative_area_level_2", "political"]}, {"long_name": "California", "short_name": "CA", "types": ["administrative_area_level_1", "political"]}, {"long_name": "United States", "short_name": "US", "types": ["country", "political"]}, {"long_name": "94158", "short_name": "94158", "types": ["postal_code"]}], "formatted_address": "1650 Owens St, San Francisco, CA 94158, USA", "geometry": {"location": {"lat": 37.76784079999999, "lng": -122.3945215}, "location_type": "ROOFTOP", "viewport": {"northeast": {"lat": 37.7691897802915, "lng": -122.3931725197085}, "southwest": {"lat": 37.7664918197085, "lng": -122.3958704802915}}}, "place_id": "ChIJwUMsi85_j4ARlMeQfkWh7Ec", "types": ["establishment", "point_of_interest"]}]}, "195939026": {"AfN": "glasgow caledonian university", "Location": [{"address_components": [{"long_name": "Cowcaddens Road", "short_name": "Cowcaddens Rd", "types": ["route"]}, {"long_name": "Glasgow", "short_name": "Glasgow", "types": ["postal_town"]}, {"long_name": "Glasgow City", "short_name": "Glasgow City", "types": ["administrative_area_level_2", "political"]}, {"long_name": "Scotland", "short_name": "Scotland", "types": ["administrative_area_level_1", "political"]}, {"long_name": "United Kingdom", "short_name": "GB", "types": ["country", "political"]}, {"long_name": "G4 0BA", "short_name": "G4 0BA", "types": ["postal_code"]}], "formatted_address": "Cowcaddens Rd, Glasgow G4 0BA, UK", "geometry": {"location": {"lat": 55.8661538, "lng": -4.2508041}, "location_type": "GEOMETRIC_CENTER", "viewport": {"northeast": {"lat": 55.8675027802915, "lng": -4.249455119708498}, "southwest": {"lat": 55.8648048197085, "lng": -4.252153080291502}}}, "place_id": "ChIJO-c3bR9EiEgR9Z_ij6hmT-Q", "types": ["establishment", "point_of_interest", "university"]}]}, "224216475": {"AfN": "glasgow clinical research facility", "Location": [{"address_components": [{"long_name": "Glasgow", "short_name": "Glasgow", "types": ["postal_town"]}, {"long_name": "United Kingdom", "short_name": "GB", "types": ["country", "political"]}, {"long_name": "G11 6NT", "short_name": "G11 6NT", "types": ["postal_code"]}], "formatted_address": "38 Church Street, Western Infirmary, Glasgow G11 6NT, United Kingdom", "geometry": {"location": {"lat": 55.871205, "lng": -4.297048999999999}, "location_type": "GEOMETRIC_CENTER", "viewport": {"northeast": {"lat": 55.8725539802915, "lng": -4.295700019708497}, "southwest": {"lat": 55.8698560197085, "lng": -4.298397980291502}}}, "place_id": "ChIJC_XEDtBFiEgREl6nWt601-Y", "types": ["establishment", "point_of_interest"]}]}, "67484417": {"AfN": "glasgow dental hospital and school", "Location": [{"address_components": [{"long_name": "378", "short_name": "378", "types": ["street_number"]}, {"long_name": "Sauchiehall Street", "short_name": "Sauchiehall St", "types": ["route"]}, {"long_name": "Glasgow", "short_name": "Glasgow", "types": ["postal_town"]}, {"long_name": "Glasgow City", "short_name": "Glasgow City", "types": ["administrative_area_level_2", "political"]}, {"long_name": "Scotland", "short_name": "Scotland", "types": ["administrative_area_level_1", "political"]}, {"long_name": "United Kingdom", "short_name": "GB", "types": ["country", "political"]}, {"long_name": "G2 3JZ", "short_name": "G2 3JZ", "types": ["postal_code"]}], "formatted_address": "378 Sauchiehall St, Glasgow G2 3JZ, UK", "geometry": {"location": {"lat": 55.8657905, "lng": -4.2656976}, "location_type": "ROOFTOP", "viewport": {"northeast": {"lat": 55.86713948029149, "lng": -4.264348619708498}, "southwest": {"lat": 55.86444151970849, "lng": -4.267046580291503}}}, "place_id": "ChIJnT62PSZEiEgRn9oJ7eodEqA", "types": ["establishment", "health", "point_of_interest", "university"]}]}, "188950975": {"AfN": "glaxosmithkline", "Location": [{"address_components": [{"long_name": "2149", "short_name": "2149", "types": ["street_number"]}, {"long_name": "Harbor Avenue", "short_name": "Harbor Ave", "types": ["route"]}, {"long_name": "Memphis", "short_name": "Memphis", "types": ["locality", "political"]}, {"long_name": "Shelby County", "short_name": "Shelby County", "types": ["administrative_area_level_2", "political"]}, {"long_name": "Tennessee", "short_name": "TN", "types": ["administrative_area_level_1", "political"]}, {"long_name": "United States", "short_name": "US", "types": ["country", "political"]}, {"long_name": "38113", "short_name": "38113", "types": ["postal_code"]}], "formatted_address": "2149 Harbor Ave, Memphis, TN 38113, USA", "geometry": {"location": {"lat": 35.0903611, "lng": -90.1147733}, "location_type": "ROOFTOP", "viewport": {"northeast": {"lat": 35.09171008029149, "lng": -90.11342431970849}, "southwest": {"lat": 35.08901211970849, "lng": -90.11612228029149}}}, "place_id": "ChIJ7cnq3VN61YcRbgARCXW9bTk", "types": ["establishment", "health", "point_of_interest", "store"]}]}, "157066012": {"AfN": "gleason corporation", "Location": [{"address_components": [{"long_name": "1000", "short_name": "1000", "types": ["street_number"]}, {"long_name": "University Avenue", "short_name": "University Ave", "types": ["route"]}, {"long_name": "Neighborhood of the Arts", "short_name": "Neighborhood of the Arts", "types": ["neighborhood", "political"]}, {"long_name": "Rochester", "short_name": "Rochester", "types": ["locality", "political"]}, {"long_name": "Monroe County", "short_name": "Monroe County", "types": ["administrative_area_level_2", "political"]}, {"long_name": "New York", "short_name": "NY", "types": ["administrative_area_level_1", "political"]}, {"long_name": "United States", "short_name": "US", "types": ["country", "political"]}, {"long_name": "14607", "short_name": "14607", "types": ["postal_code"]}, {"long_name": "1286", "short_name": "1286", "types": ["postal_code_suffix"]}], "formatted_address": "1000 University Ave, Rochester, NY 14607, USA", "geometry": {"location": {"lat": 43.1540235, "lng": -77.5763592}, "location_type": "ROOFTOP", "viewport": {"northeast": {"lat": 43.1553724802915, "lng": -77.57501021970849}, "southwest": {"lat": 43.1526745197085, "lng": -77.57770818029151}}}, "place_id": "ChIJkTWsqp211okRhlIlq7TKIoc", "types": ["establishment", "point_of_interest"]}]}, "45135547": {"AfN": "glendale community college", "Location": [{"address_components": [{"long_name": "1500", "short_name": "1500", "types": ["street_number"]}, {"long_name": "North Verdugo Road", "short_name": "N Verdugo Rd", "types": ["route"]}, {"long_name": "College Hills", "short_name": "College Hills", "types": ["neighborhood", "political"]}, {"long_name": "Glendale", "short_name": "Glendale", "types": ["locality", "political"]}, {"long_name": "Los Angeles County", "short_name": "Los Angeles County", "types": ["administrative_area_level_2", "political"]}, {"long_name": "California", "short_name": "CA", "types": ["administrative_area_level_1", "political"]}, {"long_name": "United States", "short_name": "US", "types": ["country", "political"]}, {"long_name": "91208", "short_name": "91208", "types": ["postal_code"]}, {"long_name": "2809", "short_name": "2809", "types": ["postal_code_suffix"]}], "formatted_address": "1500 N Verdugo Rd, Glendale, CA 91208, USA", "geometry": {"location": {"lat": 34.1674129, "lng": -118.2286536}, "location_type": "ROOFTOP", "viewport": {"northeast": {"lat": 34.16876188029149, "lng": -118.2273046197085}, "southwest": {"lat": 34.1660639197085, "lng": -118.2300025802915}}}, "place_id": "ChIJxWjthr3BwoARGyyKBZoVJcg", "types": ["establishment", "point_of_interest", "university"]}, {"address_components": [{"long_name": "6000", "short_name": "6000", "types": ["street_number"]}, {"long_name": "West Olive Avenue", "short_name": "W Olive Ave", "types": ["route"]}, {"long_name": "Glendale", "short_name": "Glendale", "types": ["locality", "political"]}, {"long_name": "Maricopa County", "short_name": "Maricopa County", "types": ["administrative_area_level_2", "political"]}, {"long_name": "Arizona", "short_name": "AZ", "types": ["administrative_area_level_1", "political"]}, {"long_name": "United States", "short_name": "US", "types": ["country", "political"]}, {"long_name": "85302", "short_name": "85302", "types": ["postal_code"]}], "formatted_address": "6000 W Olive Ave, Glendale, AZ 85302, USA", "geometry": {"location": {"lat": 33.5708012, "lng": -112.1901081}, "location_type": "ROOFTOP", "viewport": {"northeast": {"lat": 33.5721501802915, "lng": -112.1887591197085}, "southwest": {"lat": 33.5694522197085, "lng": -112.1914570802915}}}, "place_id": "ChIJ52NxVbVrK4cR5bhfbuWYPw0", "types": ["establishment", "point_of_interest", "school", "university"]}]}, "232950416": {"AfN": "global alliance for improved nutrition", "Location": [{"address_components": [{"long_name": "7", "short_name": "7", "types": ["street_number"]}, {"long_name": "Rue de Varemb\u00e9", "short_name": "Rue de Varemb\u00e9", "types": ["route"]}, {"long_name": "Servette - Petit-Saconnex", "short_name": "Servette - Petit-Saconnex", "types": ["political", "sublocality", "sublocality_level_1"]}, {"long_name": "Gen\u00e8ve", "short_name": "Gen\u00e8ve", "types": ["locality", "political"]}, {"long_name": "Gen\u00e8ve", "short_name": "Gen\u00e8ve", "types": ["administrative_area_level_2", "political"]}, {"long_name": "Gen\u00e8ve", "short_name": "GE", "types": ["administrative_area_level_1", "political"]}, {"long_name": "Switzerland", "short_name": "CH", "types": ["country", "political"]}, {"long_name": "1202", "short_name": "1202", "types": ["postal_code"]}], "formatted_address": "Rue de Varemb\u00e9 7, 1202 Gen\u00e8ve, Switzerland", "geometry": {"location": {"lat": 46.2187476, "lng": 6.137353399999999}, "location_type": "ROOFTOP", "viewport": {"northeast": {"lat": 46.2200965802915, "lng": 6.138702380291502}, "southwest": {"lat": 46.2173986197085, "lng": 6.136004419708497}}}, "place_id": "ChIJ6XfSVuZkjEcRrDj-YhlnoqI", "types": ["establishment", "point_of_interest"]}]}, "868760640": {"AfN": "global alliance in management education", "Location": [{"address_components": [{"long_name": "Suite 1300", "short_name": "Suite 1300", "types": ["subpremise"]}, {"long_name": "8770", "short_name": "8770", "types": ["street_number"]}, {"long_name": "West Bryn Mawr Avenue", "short_name": "W Bryn Mawr Ave", "types": ["route"]}, {"long_name": "O'Hare", "short_name": "O'Hare", "types": ["neighborhood", "political"]}, {"long_name": "Chicago", "short_name": "Chicago", "types": ["locality", "political"]}, {"long_name": "Cook County", "short_name": "Cook County", "types": ["administrative_area_level_2", "political"]}, {"long_name": "Illinois", "short_name": "IL", "types": ["administrative_area_level_1", "political"]}, {"long_name": "United States", "short_name": "US", "types": ["country", "political"]}, {"long_name": "60631", "short_name": "60631", "types": ["postal_code"]}], "formatted_address": "8770 W Bryn Mawr Ave Suite 1300, Chicago, IL 60631, USA", "geometry": {"location": {"lat": 41.9830094, "lng": -87.8456199}, "location_type": "ROOFTOP", "viewport": {"northeast": {"lat": 41.9843583802915, "lng": -87.84427091970849}, "southwest": {"lat": 41.9816604197085, "lng": -87.84696888029151}}}, "place_id": "ChIJnxCCMfjJD4gR92FPBKz3r0w", "types": ["establishment", "point_of_interest"]}]}, "170040867": {"AfN": "global environment facility", "Location": [{"address_components": [{"long_name": "1899", "short_name": "1899", "types": ["street_number"]}, {"long_name": "Pennsylvania Avenue Northwest", "short_name": "Pennsylvania Ave NW", "types": ["route"]}, {"long_name": "Downtown", "short_name": "Downtown", "types": ["neighborhood", "political"]}, {"long_name": "Washington", "short_name": "Washington", "types": ["locality", "political"]}, {"long_name": "District of Columbia", "short_name": "DC", "types": ["administrative_area_level_1", "political"]}, {"long_name": "United States", "short_name": "US", "types": ["country", "political"]}, {"long_name": "20006", "short_name": "20006", "types": ["postal_code"]}], "formatted_address": "1899 Pennsylvania Ave NW, Washington, DC 20006, USA", "geometry": {"location": {"lat": 38.9003923, "lng": -77.04317499999999}, "location_type": "ROOFTOP", "viewport": {"northeast": {"lat": 38.9017412802915, "lng": -77.04182601970848}, "southwest": {"lat": 38.8990433197085, "lng": -77.0445239802915}}}, "place_id": "ChIJd1NSF7u3t4kRt-pLX5lMjOY", "types": ["establishment", "point_of_interest"]}]}, "892812274": {"AfN": "global hospitals group", "Location": []}, "887825562": {"AfN": "global reporting initiative", "Location": [{"address_components": [{"long_name": "222", "short_name": "222", "types": ["street_number"]}, {"long_name": "Las Colinas Blvd W", "short_name": "Las Colinas Blvd W", "types": ["route"]}, {"long_name": "Las Colinas", "short_name": "Las Colinas", "types": ["neighborhood", "political"]}, {"long_name": "Irving", "short_name": "Irving", "types": ["locality", "political"]}, {"long_name": "Dallas County", "short_name": "Dallas County", "types": ["administrative_area_level_2", "political"]}, {"long_name": "Texas", "short_name": "TX", "types": ["administrative_area_level_1", "political"]}, {"long_name": "United States", "short_name": "US", "types": ["country", "political"]}, {"long_name": "75039", "short_name": "75039", "types": ["postal_code"]}, {"long_name": "5421", "short_name": "5421", "types": ["postal_code_suffix"]}], "formatted_address": "222 Las Colinas Blvd W, Irving, TX 75039, USA", "geometry": {"location": {"lat": 32.871478, "lng": -96.943924}, "location_type": "ROOFTOP", "viewport": {"northeast": {"lat": 32.87282698029149, "lng": -96.94257501970849}, "southwest": {"lat": 32.87012901970849, "lng": -96.9452729802915}}}, "partial_match": true, "place_id": "ChIJJa9yIJaCToYRuNI4k9p4_CE", "types": ["establishment", "point_of_interest"]}, {"address_components": [{"long_name": "9750", "short_name": "9750", "types": ["street_number"]}, {"long_name": "Southwest Nimbus Avenue", "short_name": "SW Nimbus Ave", "types": ["route"]}, {"long_name": "Greenway", "short_name": "Greenway", "types": ["neighborhood", "political"]}, {"long_name": "Beaverton", "short_name": "Beaverton", "types": ["locality", "political"]}, {"long_name": "Washington County", "short_name": "Washington County", "types": ["administrative_area_level_2", "political"]}, {"long_name": "Oregon", "short_name": "OR", "types": ["administrative_area_level_1", "political"]}, {"long_name": "United States", "short_name": "US", "types": ["country", "political"]}, {"long_name": "97008", "short_name": "97008", "types": ["postal_code"]}], "formatted_address": "9750 SW Nimbus Ave, Beaverton, OR 97008, USA", "geometry": {"location": {"lat": 45.4487667, "lng": -122.7888175}, "location_type": "ROOFTOP", "viewport": {"northeast": {"lat": 45.4501156802915, "lng": -122.7874685197085}, "southwest": {"lat": 45.4474177197085, "lng": -122.7901664802915}}}, "partial_match": true, "place_id": "ChIJS77EegYMlVQRLNM1Y52kItU", "types": ["establishment", "point_of_interest"]}]}, "867562470": {"AfN": "global tungsten powders corp", "Location": [{"address_components": [{"long_name": "1", "short_name": "1", "types": ["street_number"]}, {"long_name": "Hawes Lane", "short_name": "Hawes Ln", "types": ["route"]}, {"long_name": "Towanda", "short_name": "Towanda", "types": ["locality", "political"]}, {"long_name": "North Towanda Township", "short_name": "North Towanda Township", "types": ["administrative_area_level_3", "political"]}, {"long_name": "Bradford County", "short_name": "Bradford County", "types": ["administrative_area_level_2", "political"]}, {"long_name": "Pennsylvania", "short_name": "PA", "types": ["administrative_area_level_1", "political"]}, {"long_name": "United States", "short_name": "US", "types": ["country", "political"]}, {"long_name": "18848", "short_name": "18848", "types": ["postal_code"]}, {"long_name": "2140", "short_name": "2140", "types": ["postal_code_suffix"]}], "formatted_address": "1 Hawes Ln, Towanda, PA 18848, USA", "geometry": {"location": {"lat": 41.7862993, "lng": -76.446077}, "location_type": "ROOFTOP", "viewport": {"northeast": {"lat": 41.7876482802915, "lng": -76.44472801970849}, "southwest": {"lat": 41.7849503197085, "lng": -76.4474259802915}}}, "place_id": "ChIJ1fD4CJeq2okRll3sPkdnuiY", "types": ["establishment", "point_of_interest"]}]}, "35662394": {"AfN": "globalfoundries", "Location": [{"address_components": [{"long_name": "5113", "short_name": "5113", "types": ["street_number"]}, {"long_name": "Southwest Parkway", "short_name": "Southwest Pkwy", "types": ["route"]}, {"long_name": "East Oak Hill", "short_name": "East Oak Hill", "types": ["neighborhood", "political"]}, {"long_name": "Austin", "short_name": "Austin", "types": ["locality", "political"]}, {"long_name": "Travis County", "short_name": "Travis County", "types": ["administrative_area_level_2", "political"]}, {"long_name": "Texas", "short_name": "TX", "types": ["administrative_area_level_1", "political"]}, {"long_name": "United States", "short_name": "US", "types": ["country", "political"]}, {"long_name": "78735", "short_name": "78735", "types": ["postal_code"]}, {"long_name": "8915", "short_name": "8915", "types": ["postal_code_suffix"]}], "formatted_address": "5113 Southwest Pkwy, Austin, TX 78735, USA", "geometry": {"location": {"lat": 30.24203409999999, "lng": -97.84041359999999}, "location_type": "ROOFTOP", "viewport": {"northeast": {"lat": 30.24338308029149, "lng": -97.83906461970848}, "southwest": {"lat": 30.24068511970849, "lng": -97.84176258029149}}}, "place_id": "ChIJjzVcbrJLW4YRhOH4IITEpl0", "types": ["establishment", "point_of_interest"]}]}, "1290398291": {"AfN": "gmc", "Location": [{"address_components": [{"long_name": "2001", "short_name": "2001", "types": ["street_number"]}, {"long_name": "Southeast Washington Boulevard", "short_name": "SE Washington Blvd", "types": ["route"]}, {"long_name": "Bartlesville", "short_name": "Bartlesville", "types": ["locality", "political"]}, {"long_name": "Washington County", "short_name": "Washington County", "types": ["administrative_area_level_2", "political"]}, {"long_name": "Oklahoma", "short_name": "OK", "types": ["administrative_area_level_1", "political"]}, {"long_name": "United States", "short_name": "US", "types": ["country", "political"]}, {"long_name": "74006", "short_name": "74006", "types": ["postal_code"]}], "formatted_address": "2001 SE Washington Blvd, Bartlesville, OK 74006, USA", "geometry": {"location": {"lat": 36.72199, "lng": -95.93645599999999}, "location_type": "ROOFTOP", "viewport": {"northeast": {"lat": 36.7233389802915, "lng": -95.93510701970848}, "southwest": {"lat": 36.7206410197085, "lng": -95.9378049802915}}}, "place_id": "ChIJvQ2kJCoSt4cRzGXDrT33wDA", "types": ["car_dealer", "car_repair", "establishment", "point_of_interest", "store"]}]}, "11886867": {"AfN": "gns science", "Location": [{"address_components": [{"long_name": "196", "short_name": "196", "types": ["street_number"]}, {"long_name": "Broadway", "short_name": "Broadway", "types": ["route"]}, {"long_name": "The Port", "short_name": "The Port", "types": ["neighborhood", "political"]}, {"long_name": "Cambridge", "short_name": "Cambridge", "types": ["locality", "political"]}, {"long_name": "Middlesex County", "short_name": "Middlesex County", "types": ["administrative_area_level_2", "political"]}, {"long_name": "Massachusetts", "short_name": "MA", "types": ["administrative_area_level_1", "political"]}, {"long_name": "United States", "short_name": "US", "types": ["country", "political"]}, {"long_name": "02139", "short_name": "02139", "types": ["postal_code"]}, {"long_name": "1902", "short_name": "1902", "types": ["postal_code_suffix"]}], "formatted_address": "196 Broadway, Cambridge, MA 02139, USA", "geometry": {"location": {"lat": 42.365677, "lng": -71.092415}, "location_type": "ROOFTOP", "viewport": {"northeast": {"lat": 42.36702598029149, "lng": -71.09106601970849}, "southwest": {"lat": 42.36432801970849, "lng": -71.0937639802915}}}, "place_id": "ChIJpeOC9Lxw44kRnT5fRNbzT-g", "types": ["establishment", "point_of_interest"]}]}, "140887281": {"AfN": "goa university", "Location": [{"address_components": [{"long_name": "Taleigao Plateau", "short_name": "Taleigao Plateau", "types": ["locality", "political"]}, {"long_name": "North Goa", "short_name": "North Goa", "types": ["administrative_area_level_2", "political"]}, {"long_name": "Goa", "short_name": "GA", "types": ["administrative_area_level_1", "political"]}, {"long_name": "India", "short_name": "IN", "types": ["country", "political"]}, {"long_name": "403206", "short_name": "403206", "types": ["postal_code"]}], "formatted_address": "Taleigao Plateau, Goa 403206, India", "geometry": {"location": {"lat": 15.458414, "lng": 73.834555}, "location_type": "GEOMETRIC_CENTER", "viewport": {"northeast": {"lat": 15.4597629802915, "lng": 73.8359039802915}, "southwest": {"lat": 15.4570650197085, "lng": 73.83320601970848}}}, "place_id": "ChIJ0Vh1eVPHvzsRROmOeihVIUg", "types": ["establishment", "point_of_interest", "university"]}]}, "116578957": {"AfN": "goddard institute for space studies", "Location": [{"address_components": [{"long_name": "2880", "short_name": "2880", "types": ["street_number"]}, {"long_name": "Broadway", "short_name": "Broadway", "types": ["route"]}, {"long_name": "Manhattan", "short_name": "Manhattan", "types": ["political", "sublocality", "sublocality_level_1"]}, {"long_name": "New York", "short_name": "New York", "types": ["locality", "political"]}, {"long_name": "New York County", "short_name": "New York County", "types": ["administrative_area_level_2", "political"]}, {"long_name": "New York", "short_name": "NY", "types": ["administrative_area_level_1", "political"]}, {"long_name": "United States", "short_name": "US", "types": ["country", "political"]}, {"long_name": "10025", "short_name": "10025", "types": ["postal_code"]}], "formatted_address": "2880 Broadway, New York, NY 10025, USA", "geometry": {"location": {"lat": 40.8054715, "lng": -73.9652249}, "location_type": "ROOFTOP", "viewport": {"northeast": {"lat": 40.80682048029149, "lng": -73.96387591970849}, "southwest": {"lat": 40.80412251970849, "lng": -73.96657388029149}}}, "place_id": "ChIJF7WnrcpYwokRxSS0a4xl9Mg", "types": ["establishment", "point_of_interest"]}]}, "1306266525": {"AfN": "goddard space flight center", "Location": [{"address_components": [{"long_name": "8800", "short_name": "8800", "types": ["street_number"]}, {"long_name": "Greenbelt Road", "short_name": "Greenbelt Rd", "types": ["route"]}, {"long_name": "Greenbelt", "short_name": "Greenbelt", "types": ["locality", "political"]}, {"long_name": "Prince George's County", "short_name": "Prince George's County", "types": ["administrative_area_level_2", "political"]}, {"long_name": "Maryland", "short_name": "MD", "types": ["administrative_area_level_1", "political"]}, {"long_name": "United States", "short_name": "US", "types": ["country", "political"]}, {"long_name": "20771", "short_name": "20771", "types": ["postal_code"]}], "formatted_address": "8800 Greenbelt Rd, Greenbelt, MD 20771, USA", "geometry": {"location": {"lat": 38.9917856, "lng": -76.8524228}, "location_type": "ROOFTOP", "viewport": {"northeast": {"lat": 38.9931345802915, "lng": -76.85107381970849}, "southwest": {"lat": 38.9904366197085, "lng": -76.8537717802915}}}, "place_id": "ChIJEzLb1RnCt4kRs44Ru4t7rn0", "types": ["establishment", "point_of_interest"]}]}, "114090438": {"AfN": "goethe university frankfurt", "Location": [{"address_components": [{"long_name": "Frankfurt", "short_name": "Frankfurt", "types": ["locality", "political"]}, {"long_name": "Innenstadt", "short_name": "Innenstadt", "types": ["political", "sublocality", "sublocality_level_1"]}, {"long_name": "Darmstadt", "short_name": "DA", "types": ["administrative_area_level_2", "political"]}, {"long_name": "Hesse", "short_name": "HE", "types": ["administrative_area_level_1", "political"]}, {"long_name": "Germany", "short_name": "DE", "types": ["country", "political"]}, {"long_name": "60323", "short_name": "60323", "types": ["postal_code"]}], "formatted_address": "60323 Frankfurt, Germany", "geometry": {"location": {"lat": 50.1270675, "lng": 8.6677635}, "location_type": "GEOMETRIC_CENTER", "viewport": {"northeast": {"lat": 50.12841648029149, "lng": 8.669112480291503}, "southwest": {"lat": 50.12571851970849, "lng": 8.666414519708498}}}, "place_id": "ChIJ10izLFsJvUcRs2vFqTOSKk8", "types": ["establishment", "point_of_interest", "university"]}]}, "876505261": {"AfN": "golden village", "Location": [{"address_components": [{"long_name": "405", "short_name": "405", "types": ["street_number"]}, {"long_name": "East 1st Street", "short_name": "E 1st St", "types": ["route"]}, {"long_name": "Ogallala", "short_name": "Ogallala", "types": ["locality", "political"]}, {"long_name": "Keith County", "short_name": "Keith County", "types": ["administrative_area_level_2", "political"]}, {"long_name": "Nebraska", "short_name": "NE", "types": ["administrative_area_level_1", "political"]}, {"long_name": "United States", "short_name": "US", "types": ["country", "political"]}, {"long_name": "69153", "short_name": "69153", "types": ["postal_code"]}], "formatted_address": "405 E 1st St, Ogallala, NE 69153, USA", "geometry": {"location": {"lat": 41.1254498, "lng": -101.7152362}, "location_type": "ROOFTOP", "viewport": {"northeast": {"lat": 41.1267987802915, "lng": -101.7138872197085},