{"141461282": {"AfN": "dana corporation", "Location": [{"address_components": [{"long_name": "2400", "short_name": "2400", "types": ["street_number"]}, {"long_name": "Lemone Industrial Boulevard", "short_name": "Lemone Industrial Blvd", "types": ["route"]}, {"long_name": "Columbia", "short_name": "Columbia", "types": ["locality", "political"]}, {"long_name": "Columbia Township", "short_name": "Columbia Township", "types": ["administrative_area_level_3", "political"]}, {"long_name": "Boone County", "short_name": "Boone County", "types": ["administrative_area_level_2", "political"]}, {"long_name": "Missouri", "short_name": "MO", "types": ["administrative_area_level_1", "political"]}, {"long_name": "United States", "short_name": "US", "types": ["country", "political"]}, {"long_name": "65201", "short_name": "65201", "types": ["postal_code"]}, {"long_name": "8263", "short_name": "8263", "types": ["postal_code_suffix"]}], "formatted_address": "2400 Lemone Industrial Blvd, Columbia, MO 65201, USA", "geometry": {"location": {"lat": 38.9250169, "lng": -92.289524}, "location_type": "ROOFTOP", "viewport": {"northeast": {"lat": 38.92636588029149, "lng": -92.28817501970849}, "southwest": {"lat": 38.9236679197085, "lng": -92.2908729802915}}}, "place_id": "ChIJK8YrGDO43IcRrRBUy_j6zEc", "types": ["establishment", "point_of_interest"]}]}, "873985674": {"AfN": "danisco", "Location": [{"address_components": [{"long_name": "4", "short_name": "4", "types": ["street_number"]}, {"long_name": "New Century Parkway", "short_name": "New Century Pkwy", "types": ["route"]}, {"long_name": "New Century", "short_name": "New Century", "types": ["locality", "political"]}, {"long_name": "Gardner", "short_name": "Gardner", "types": ["administrative_area_level_3", "political"]}, {"long_name": "Johnson County", "short_name": "Johnson County", "types": ["administrative_area_level_2", "political"]}, {"long_name": "Kansas", "short_name": "KS", "types": ["administrative_area_level_1", "political"]}, {"long_name": "United States", "short_name": "US", "types": ["country", "political"]}, {"long_name": "66031", "short_name": "66031", "types": ["postal_code"]}, {"long_name": "1144", "short_name": "1144", "types": ["postal_code_suffix"]}], "formatted_address": "4 New Century Pkwy, New Century, KS 66031, USA", "geometry": {"location": {"lat": 38.838575, "lng": -94.89769299999999}, "location_type": "ROOFTOP", "viewport": {"northeast": {"lat": 38.83992398029149, "lng": -94.89634401970848}, "southwest": {"lat": 38.8372260197085, "lng": -94.89904198029149}}}, "place_id": "ChIJEXQqGy6jwIcRSe1r9VAHFBs", "types": ["establishment", "point_of_interest"]}]}, "183542713": {"AfN": "danish institute for international studies", "Location": [{"address_components": [{"long_name": "117", "short_name": "117", "types": ["street_number"]}, {"long_name": "\u00d8stbanegade", "short_name": "\u00d8stbanegade", "types": ["route"]}, {"long_name": "K\u00f8benhavn \u00d8", "short_name": "K\u00f8benhavn \u00d8", "types": ["political", "sublocality", "sublocality_level_1"]}, {"long_name": "K\u00f8benhavn", "short_name": "K\u00f8benhavn", "types": ["locality", "political"]}, {"long_name": "Denmark", "short_name": "DK", "types": ["country", "political"]}, {"long_name": "2100", "short_name": "2100", "types": ["postal_code"]}], "formatted_address": "\u00d8stbanegade 117, 2100 K\u00f8benhavn, Denmark", "geometry": {"location": {"lat": 55.704732, "lng": 12.590559}, "location_type": "ROOFTOP", "viewport": {"northeast": {"lat": 55.7060809802915, "lng": 12.5919079802915}, "southwest": {"lat": 55.7033830197085, "lng": 12.5892100197085}}}, "place_id": "ChIJ5wXNL-9SUkYRDboAZCUW8fg", "types": ["establishment", "point_of_interest"]}]}, "32686375": {"AfN": "danish meteorological institute", "Location": [{"address_components": [{"long_name": "Denmark", "short_name": "DK", "types": ["country", "political"]}], "formatted_address": "Denmark", "geometry": {"bounds": {"northeast": {"lat": 58.02846, "lng": 15.2298}, "southwest": {"lat": 54.4317001, "lng": 7.855200099999999}}, "location": {"lat": 56.26392, "lng": 9.501785}, "location_type": "APPROXIMATE", "viewport": {"northeast": {"lat": 58.02846, "lng": 15.2298}, "southwest": {"lat": 54.4317001, "lng": 7.855200099999999}}}, "partial_match": true, "place_id": "ChIJ-1-U7rYnS0YRzZLgw9BDh1I", "types": ["country", "political"]}]}, "146056509": {"AfN": "danish space research institute", "Location": []}, "89015989": {"AfN": "dankook university", "Location": [{"address_components": [{"long_name": "152", "short_name": "152", "types": ["premise"]}, {"long_name": "Jukjeon-ro", "short_name": "Jukjeon-ro", "types": ["political", "sublocality", "sublocality_level_4"]}, {"long_name": "Jukjeon 1(il)-dong", "short_name": "Jukjeon 1(il)-dong", "types": ["political", "sublocality", "sublocality_level_2"]}, {"long_name": "Suji-gu", "short_name": "Suji-gu", "types": ["political", "sublocality", "sublocality_level_1"]}, {"long_name": "Yongin-si", "short_name": "Yongin-si", "types": ["locality", "political"]}, {"long_name": "Gyeonggi-do", "short_name": "Gyeonggi-do", "types": ["administrative_area_level_1", "political"]}, {"long_name": "South Korea", "short_name": "KR", "types": ["country", "political"]}, {"long_name": "448-701", "short_name": "448-701", "types": ["postal_code"]}], "formatted_address": "152 Jukjeon-ro, Jukjeon 1(il)-dong, Suji-gu, Yongin-si, Gyeonggi-do, South Korea", "geometry": {"location": {"lat": 37.3215984, "lng": 127.1267503}, "location_type": "ROOFTOP", "viewport": {"northeast": {"lat": 37.3229473802915, "lng": 127.1280992802915}, "southwest": {"lat": 37.3202494197085, "lng": 127.1254013197085}}}, "place_id": "ChIJUZ6sy1VXezUR88Xpf5o3Ddo", "types": ["establishment", "point_of_interest", "university"]}]}, "132976966": {"AfN": "danube university krems", "Location": [{"address_components": [{"long_name": "30", "short_name": "30", "types": ["street_number"]}, {"long_name": "Doktor-Karl-Dorrek-Stra\u00dfe", "short_name": "Dr.-Karl-Dorrek-Stra\u00dfe", "types": ["route"]}, {"long_name": "Krems an der Donau", "short_name": "Krems an der Donau", "types": ["locality", "political"]}, {"long_name": "Krems an der Donau", "short_name": "Krems an der Donau", "types": ["administrative_area_level_2", "political"]}, {"long_name": "Nieder\u00f6sterreich", "short_name": "Nieder\u00f6sterreich", "types": ["administrative_area_level_1", "political"]}, {"long_name": "Austria", "short_name": "AT", "types": ["country", "political"]}, {"long_name": "3500", "short_name": "3500", "types": ["postal_code"]}], "formatted_address": "Dr.-Karl-Dorrek-Stra\u00dfe 30, 3500 Krems an der Donau, Austria", "geometry": {"location": {"lat": 48.4081548, "lng": 15.5862305}, "location_type": "ROOFTOP", "viewport": {"northeast": {"lat": 48.40950378029149, "lng": 15.5875794802915}, "southwest": {"lat": 48.4068058197085, "lng": 15.5848815197085}}}, "place_id": "ChIJY4IuFkmEckcRthSPHNgHCVI", "types": ["establishment", "point_of_interest", "university"]}, {"address_components": [{"long_name": "124", "short_name": "124", "types": ["street_number"]}, {"long_name": "Steiner Landstra\u00dfe", "short_name": "Steiner Landstra\u00dfe", "types": ["route"]}, {"long_name": "Krems an der Donau", "short_name": "Krems an der Donau", "types": ["locality", "political"]}, {"long_name": "Krems an der Donau", "short_name": "Krems an der Donau", "types": ["administrative_area_level_2", "political"]}, {"long_name": "Nieder\u00f6sterreich", "short_name": "Nieder\u00f6sterreich", "types": ["administrative_area_level_1", "political"]}, {"long_name": "Austria", "short_name": "AT", "types": ["country", "political"]}, {"long_name": "3500", "short_name": "3500", "types": ["postal_code"]}], "formatted_address": "Steiner Landstra\u00dfe 124, 3500 Krems an der Donau, Austria", "geometry": {"location": {"lat": 48.400332, "lng": 15.575746}, "location_type": "ROOFTOP", "viewport": {"northeast": {"lat": 48.4016809802915, "lng": 15.5770949802915}, "southwest": {"lat": 48.3989830197085, "lng": 15.5743970197085}}}, "place_id": "ChIJ0x65mSFtCUERwTqrglZV6l8", "types": ["establishment", "point_of_interest", "university"]}]}, "195608997": {"AfN": "dar es salaam institute of technology", "Location": [{"address_components": [{"long_name": "Morogoro Road", "short_name": "Morogoro Rd", "types": ["route"]}, {"long_name": "Upanga", "short_name": "Upanga", "types": ["political", "sublocality", "sublocality_level_1"]}, {"long_name": "Dar es Salaam", "short_name": "DSM", "types": ["locality", "political"]}, {"long_name": "Ilala", "short_name": "Ilala", "types": ["administrative_area_level_2", "political"]}, {"long_name": "Tanzania", "short_name": "TZ", "types": ["country", "political"]}], "formatted_address": "Morogoro Rd, Dar es Salaam, Tanzania", "geometry": {"location": {"lat": -6.815322399999999, "lng": 39.2801296}, "location_type": "GEOMETRIC_CENTER", "viewport": {"northeast": {"lat": -6.813973419708497, "lng": 39.28147858029149}, "southwest": {"lat": -6.816671380291502, "lng": 39.27878061970849}}}, "place_id": "ChIJLclI6AlLXBgREsnWw7Mt0JA", "types": ["establishment", "point_of_interest", "university"]}]}, "126604212": {"AfN": "dar es salaam university college of education", "Location": [{"address_components": [{"long_name": "Taifa Road", "short_name": "Taifa Rd", "types": ["route"]}, {"long_name": "Chang'ombe", "short_name": "Chang'ombe", "types": ["political", "sublocality", "sublocality_level_1"]}, {"long_name": "Dar es Salaam", "short_name": "DSM", "types": ["locality", "political"]}, {"long_name": "Temeke", "short_name": "Temeke", "types": ["administrative_area_level_2", "political"]}, {"long_name": "Tanzania", "short_name": "TZ", "types": ["country", "political"]}], "formatted_address": "Taifa Rd, Dar es Salaam, Tanzania", "geometry": {"location": {"lat": -6.847776, "lng": 39.273646}, "location_type": "GEOMETRIC_CENTER", "viewport": {"northeast": {"lat": -6.846427019708497, "lng": 39.2749949802915}, "southwest": {"lat": -6.849124980291502, "lng": 39.2722970197085}}}, "place_id": "ChIJ_0FTJmRKXBgRK-1j0QHsFhM", "types": ["establishment", "point_of_interest", "university"]}, {"address_components": [{"long_name": "University Road", "short_name": "University Rd", "types": ["route"]}, {"long_name": "Ubungo", "short_name": "Ubungo", "types": ["political", "sublocality", "sublocality_level_1"]}, {"long_name": "Dar es Salaam", "short_name": "DSM", "types": ["locality", "political"]}, {"long_name": "Kinondoni", "short_name": "Kinondoni", "types": ["administrative_area_level_2", "political"]}, {"long_name": "Tanzania", "short_name": "TZ", "types": ["country", "political"]}], "formatted_address": "University Rd, Dar es Salaam, Tanzania", "geometry": {"location": {"lat": -6.7804132, "lng": 39.20531400000001}, "location_type": "GEOMETRIC_CENTER", "viewport": {"northeast": {"lat": -6.779064219708498, "lng": 39.20666298029151}, "southwest": {"lat": -6.781762180291502, "lng": 39.20396501970851}}}, "place_id": "ChIJvT_BBehOXBgRABoULIT39sU", "types": ["establishment", "point_of_interest", "university"]}]}, "107257983": {"AfN": "darmstadt university of applied sciences", "Location": [{"address_components": [{"long_name": "3", "short_name": "3", "types": ["street_number"]}, {"long_name": "Sch\u00f6fferstra\u00dfe", "short_name": "Sch\u00f6fferstra\u00dfe", "types": ["route"]}, {"long_name": "Darmstadt", "short_name": "Darmstadt", "types": ["locality", "political"]}, {"long_name": "Germany", "short_name": "DE", "types": ["country", "political"]}, {"long_name": "64295", "short_name": "64295", "types": ["postal_code"]}], "formatted_address": "Geb\u00e4ude C10, Sch\u00f6fferstra\u00dfe 3, 64295 Darmstadt, Germany", "geometry": {"location": {"lat": 49.8672694, "lng": 8.6381765}, "location_type": "ROOFTOP", "viewport": {"northeast": {"lat": 49.86861838029149, "lng": 8.639525480291503}, "southwest": {"lat": 49.86592041970849, "lng": 8.636827519708499}}}, "place_id": "ChIJsftgRoNwvUcRoLviV6mxrMY", "types": ["establishment", "point_of_interest", "university"]}]}, "1280581677": {"AfN": "darpa", "Location": [{"address_components": [{"long_name": "675", "short_name": "675", "types": ["street_number"]}, {"long_name": "North Randolph Street", "short_name": "N Randolph St", "types": ["route"]}, {"long_name": "Ashton Heights", "short_name": "Ashton Heights", "types": ["neighborhood", "political"]}, {"long_name": "Arlington", "short_name": "Arlington", "types": ["locality", "political"]}, {"long_name": "Arlington County", "short_name": "Arlington County", "types": ["administrative_area_level_2", "political"]}, {"long_name": "Virginia", "short_name": "VA", "types": ["administrative_area_level_1", "political"]}, {"long_name": "United States", "short_name": "US", "types": ["country", "political"]}, {"long_name": "22203", "short_name": "22203", "types": ["postal_code"]}], "formatted_address": "675 N Randolph St, Arlington, VA 22203, USA", "geometry": {"location": {"lat": 38.8787048, "lng": -77.108694}, "location_type": "ROOFTOP", "viewport": {"northeast": {"lat": 38.8800537802915, "lng": -77.10734501970849}, "southwest": {"lat": 38.87735581970851, "lng": -77.11004298029151}}}, "place_id": "ChIJ86nXeSi0t4kRAKRNPWR7FV8", "types": ["establishment", "point_of_interest"]}]}, "107672454": {"AfN": "dartmouth college", "Location": [{"address_components": [{"long_name": "Hanover", "short_name": "Hanover", "types": ["locality", "political"]}, {"long_name": "Hanover", "short_name": "Hanover", "types": ["neighborhood", "political"]}, {"long_name": "Hanover", "short_name": "Hanover", "types": ["administrative_area_level_3", "political"]}, {"long_name": "Grafton County", "short_name": "Grafton County", "types": ["administrative_area_level_2", "political"]}, {"long_name": "New Hampshire", "short_name": "NH", "types": ["administrative_area_level_1", "political"]}, {"long_name": "United States", "short_name": "US", "types": ["country", "political"]}, {"long_name": "03755", "short_name": "03755", "types": ["postal_code"]}], "formatted_address": "Hanover, NH 03755, USA", "geometry": {"location": {"lat": 43.7044406, "lng": -72.2886935}, "location_type": "GEOMETRIC_CENTER", "viewport": {"northeast": {"lat": 43.70578958029149, "lng": -72.28734451970848}, "southwest": {"lat": 43.70309161970849, "lng": -72.2900424802915}}}, "place_id": "ChIJEYl1T93JtEwRzAi5TUxXuL0", "types": ["establishment", "point_of_interest", "university"]}]}, "1289422878": {"AfN": "dartmouth hitchcock medical center", "Location": [{"address_components": [{"long_name": "1080", "short_name": "1080", "types": ["street_number"]}, {"long_name": "Hospital Drive", "short_name": "Hospital Dr", "types": ["route"]}, {"long_name": "St. Johnsbury", "short_name": "St. Johnsbury", "types": ["neighborhood", "political"]}, {"long_name": "Saint Johnsbury", "short_name": "St Johnsbury", "types": ["locality", "political"]}, {"long_name": "Caledonia County", "short_name": "Caledonia County", "types": ["administrative_area_level_2", "political"]}, {"long_name": "Vermont", "short_name": "VT", "types": ["administrative_area_level_1", "political"]}, {"long_name": "United States", "short_name": "US", "types": ["country", "political"]}, {"long_name": "05819", "short_name": "05819", "types": ["postal_code"]}, {"long_name": "9806", "short_name": "9806", "types": ["postal_code_suffix"]}], "formatted_address": "1080 Hospital Dr, St Johnsbury, VT 05819, USA", "geometry": {"location": {"lat": 44.444729, "lng": -72.01379399999999}, "location_type": "ROOFTOP", "viewport": {"northeast": {"lat": 44.44607798029149, "lng": -72.01244501970848}, "southwest": {"lat": 44.44338001970849, "lng": -72.0151429802915}}}, "place_id": "ChIJDUmCnHZItEwRHyumF94fGNY", "types": ["establishment", "hospital", "point_of_interest"]}]}, "1307600426": {"AfN": "dassault aviation", "Location": [{"address_components": [{"long_name": "Bill and Hillary Clinton National Airport (LIT)", "short_name": "Bill and Hillary Clinton National Airport (LIT)", "types": ["premise"]}, {"long_name": "Little Rock", "short_name": "Little Rock", "types": ["locality", "political"]}, {"long_name": "Big Rock Township", "short_name": "Big Rock Township", "types": ["administrative_area_level_3", "political"]}, {"long_name": "Pulaski County", "short_name": "Pulaski County", "types": ["administrative_area_level_2", "political"]}, {"long_name": "Arkansas", "short_name": "AR", "types": ["administrative_area_level_1", "political"]}, {"long_name": "United States", "short_name": "US", "types": ["country", "political"]}, {"long_name": "72202", "short_name": "72202", "types": ["postal_code"]}], "formatted_address": "Bill and Hillary Clinton National Airport (LIT), Little Rock, AR 72202, USA", "geometry": {"location": {"lat": 34.7342209, "lng": -92.23120019999999}, "location_type": "ROOFTOP", "viewport": {"northeast": {"lat": 34.73556988029149, "lng": -92.2298512197085}, "southwest": {"lat": 34.7328719197085, "lng": -92.2325491802915}}}, "place_id": "ChIJP6U5eOa70ocRmKAmLTBQCe0", "types": ["establishment", "point_of_interest", "store"]}]}, "47431100": {"AfN": "dassault systemes", "Location": [{"address_components": [{"long_name": "Suite 1150", "short_name": "Suite 1150", "types": ["subpremise"]}, {"long_name": "220", "short_name": "220", "types": ["street_number"]}, {"long_name": "East Las Colinas Boulevard", "short_name": "E Las Colinas Blvd", "types": ["route"]}, {"long_name": "Las Colinas", "short_name": "Las Colinas", "types": ["neighborhood", "political"]}, {"long_name": "Irving", "short_name": "Irving", "types": ["locality", "political"]}, {"long_name": "Dallas County", "short_name": "Dallas County", "types": ["administrative_area_level_2", "political"]}, {"long_name": "Texas", "short_name": "TX", "types": ["administrative_area_level_1", "political"]}, {"long_name": "United States", "short_name": "US", "types": ["country", "political"]}, {"long_name": "75039", "short_name": "75039", "types": ["postal_code"]}], "formatted_address": "220 E Las Colinas Blvd Suite 1150, Irving, TX 75039, USA", "geometry": {"location": {"lat": 32.8665975, "lng": -96.93870299999999}, "location_type": "ROOFTOP", "viewport": {"northeast": {"lat": 32.86794648029149, "lng": -96.93735401970848}, "southwest": {"lat": 32.8652485197085, "lng": -96.94005198029149}}}, "place_id": "ChIJe_VSKYUgTIYRk7u-QrntSJ0", "types": ["establishment", "point_of_interest"]}]}, "144291393": {"AfN": "data storage institute", "Location": [{"address_components": [{"long_name": "265", "short_name": "265", "types": ["street_number"]}, {"long_name": "Sydney Road", "short_name": "Sydney Rd", "types": ["route"]}, {"long_name": "Holland", "short_name": "Holland", "types": ["locality", "political"]}, {"long_name": "Northampton Township", "short_name": "Northampton Township", "types": ["administrative_area_level_3", "political"]}, {"long_name": "Bucks County", "short_name": "Bucks County", "types": ["administrative_area_level_2", "political"]}, {"long_name": "Pennsylvania", "short_name": "PA", "types": ["administrative_area_level_1", "political"]}, {"long_name": "United States", "short_name": "US", "types": ["country", "political"]}, {"long_name": "18966", "short_name": "18966", "types": ["postal_code"]}], "formatted_address": "265 Sydney Rd, Holland, PA 18966, USA", "geometry": {"location": {"lat": 40.2159049, "lng": -74.9695843}, "location_type": "ROOFTOP", "viewport": {"northeast": {"lat": 40.21725388029149, "lng": -74.96823531970848}, "southwest": {"lat": 40.2145559197085, "lng": -74.9709332802915}}}, "place_id": "ChIJR8-kE1WrxokRVwpWkqxrz_k", "types": ["establishment", "point_of_interest", "storage"]}]}, "218757237": {"AfN": "dav institute of engineering and technology", "Location": [{"address_components": [{"long_name": "Jalandhar", "short_name": "Jalandhar", "types": ["locality", "political"]}, {"long_name": "Punjab", "short_name": "PB", "types": ["administrative_area_level_1", "political"]}, {"long_name": "India", "short_name": "IN", "types": ["country", "political"]}, {"long_name": "144008", "short_name": "144008", "types": ["postal_code"]}], "formatted_address": "Kabir Nagar, Jalandhar, Punjab 144008, India", "geometry": {"location": {"lat": 31.3454502, "lng": 75.5564637}, "location_type": "GEOMETRIC_CENTER", "viewport": {"northeast": {"lat": 31.34679918029149, "lng": 75.5578126802915}, "southwest": {"lat": 31.3441012197085, "lng": 75.5551147197085}}}, "place_id": "ChIJb27UAJxaGjkR_iAHH4XA9R0", "types": ["establishment", "point_of_interest", "university"]}]}, "141720752": {"AfN": "davidson college", "Location": [{"address_components": [{"long_name": "405", "short_name": "405", "types": ["street_number"]}, {"long_name": "North Main Street", "short_name": "N Main St", "types": ["route"]}, {"long_name": "Davidson", "short_name": "Davidson", "types": ["locality", "political"]}, {"long_name": "9, Deweese", "short_name": "9, Deweese", "types": ["administrative_area_level_3", "political"]}, {"long_name": "Mecklenburg County", "short_name": "Mecklenburg County", "types": ["administrative_area_level_2", "political"]}, {"long_name": "North Carolina", "short_name": "NC", "types": ["administrative_area_level_1", "political"]}, {"long_name": "United States", "short_name": "US", "types": ["country", "political"]}, {"long_name": "28035", "short_name": "28035", "types": ["postal_code"]}], "formatted_address": "405 N Main St, Davidson, NC 28035, USA", "geometry": {"location": {"lat": 35.5017318, "lng": -80.84677930000001}, "location_type": "ROOFTOP", "viewport": {"northeast": {"lat": 35.5030807802915, "lng": -80.84543031970851}, "southwest": {"lat": 35.5003828197085, "lng": -80.84812828029152}}}, "place_id": "ChIJCcLJMUGqVogRb46hXZ_bG7s", "types": ["establishment", "point_of_interest", "university"]}]}, "4047665": {"AfN": "dawson college", "Location": [{"address_components": [{"long_name": "3040", "short_name": "3040", "types": ["street_number"]}, {"long_name": "Rue Sherbrooke Ouest", "short_name": "Rue Sherbrooke O", "types": ["route"]}, {"long_name": "Montr\u00e9al", "short_name": "Montr\u00e9al", "types": ["locality", "political"]}, {"long_name": "Communaut\u00e9-Urbaine-de-Montr\u00e9al", "short_name": "Communaut\u00e9-Urbaine-de-Montr\u00e9al", "types": ["administrative_area_level_2", "political"]}, {"long_name": "Qu\u00e9bec", "short_name": "QC", "types": ["administrative_area_level_1", "political"]}, {"long_name": "Canada", "short_name": "CA", "types": ["country", "political"]}, {"long_name": "H3Z 1A4", "short_name": "H3Z 1A4", "types": ["postal_code"]}], "formatted_address": "3040 Rue Sherbrooke O, Montr\u00e9al, QC H3Z 1A4, Canada", "geometry": {"location": {"lat": 45.489698, "lng": -73.587785}, "location_type": "ROOFTOP", "viewport": {"northeast": {"lat": 45.49104698029149, "lng": -73.58643601970849}, "southwest": {"lat": 45.4883490197085, "lng": -73.5891339802915}}}, "place_id": "ChIJq-T-oxIayUwR4TfxLVjJJW0", "types": ["establishment", "point_of_interest", "university"]}]}, "5996616": {"AfN": "de la salle university", "Location": [{"address_components": [{"long_name": "2401", "short_name": "2401", "types": ["street_number"]}, {"long_name": "Taft Avenue", "short_name": "Taft Ave", "types": ["route"]}, {"long_name": "Malate", "short_name": "Malate", "types": ["political", "sublocality", "sublocality_level_1"]}, {"long_name": "Manila", "short_name": "Manila", "types": ["locality", "political"]}, {"long_name": "Metro Manila", "short_name": "NCR", "types": ["administrative_area_level_1", "political"]}, {"long_name": "Philippines", "short_name": "PH", "types": ["country", "political"]}, {"long_name": "1004", "short_name": "1004", "types": ["postal_code"]}], "formatted_address": "2401 Taft Ave, Malate, Manila, 1004 Metro Manila, Philippines", "geometry": {"location": {"lat": 14.5642894, "lng": 120.9932028}, "location_type": "ROOFTOP", "viewport": {"northeast": {"lat": 14.5656383802915, "lng": 120.9945517802915}, "southwest": {"lat": 14.5629404197085, "lng": 120.9918538197085}}}, "place_id": "ChIJm0WG0n7JlzMRKq5-mY0GJ1k", "types": ["establishment", "museum", "point_of_interest", "university"]}]}, "66943878": {"AfN": "de montfort university", "Location": [{"address_components": [{"long_name": "Gateway House", "short_name": "Gateway House", "types": ["premise"]}, {"long_name": "Leicester", "short_name": "Leicester", "types": ["postal_town"]}, {"long_name": "Leicester", "short_name": "Leicester", "types": ["administrative_area_level_2", "political"]}, {"long_name": "England", "short_name": "England", "types": ["administrative_area_level_1", "political"]}, {"long_name": "United Kingdom", "short_name": "GB", "types": ["country", "political"]}, {"long_name": "LE1 9BH", "short_name": "LE1 9BH", "types": ["postal_code"]}], "formatted_address": "Gateway House, Leicester LE1 9BH, UK", "geometry": {"location": {"lat": 52.62978, "lng": -1.13937}, "location_type": "ROOFTOP", "viewport": {"northeast": {"lat": 52.6311289802915, "lng": -1.138021019708498}, "southwest": {"lat": 52.6284310197085, "lng": -1.140718980291502}}}, "place_id": "ChIJzfd3w8_deUgRed0fxPyeHNk", "types": ["establishment", "point_of_interest", "university"]}]}, "1310729568": {"AfN": "deaconess hospital", "Location": [{"address_components": [{"long_name": "5501", "short_name": "5501", "types": ["street_number"]}, {"long_name": "N Portland Ave", "short_name": "N Portland Ave", "types": ["route"]}, {"long_name": "Central Oklahoma City", "short_name": "Central Oklahoma City", "types": ["neighborhood", "political"]}, {"long_name": "Oklahoma City", "short_name": "Oklahoma City", "types": ["locality", "political"]}, {"long_name": "Oklahoma County", "short_name": "Oklahoma County", "types": ["administrative_area_level_2", "political"]}, {"long_name": "Oklahoma", "short_name": "OK", "types": ["administrative_area_level_1", "political"]}, {"long_name": "United States", "short_name": "US", "types": ["country", "political"]}, {"long_name": "73112", "short_name": "73112", "types": ["postal_code"]}], "formatted_address": "5501 N Portland Ave, Oklahoma City, OK 73112, USA", "geometry": {"location": {"lat": 35.526691, "lng": -97.584649}, "location_type": "ROOFTOP", "viewport": {"northeast": {"lat": 35.5280399802915, "lng": -97.58330001970849}, "southwest": {"lat": 35.5253420197085, "lng": -97.58599798029151}}}, "place_id": "ChIJZ7dkXusasocRFoyp1LJuJMY", "types": ["doctor", "establishment", "health", "hospital", "point_of_interest"]}]}, "149704539": {"AfN": "deakin university", "Location": [{"address_components": [{"long_name": "12", "short_name": "12", "types": ["floor"]}, {"long_name": "Tower 2", "short_name": "Tower 2", "types": ["premise"]}, {"long_name": "727", "short_name": "727", "types": ["street_number"]}, {"long_name": "Collins Street", "short_name": "Collins St", "types": ["route"]}, {"long_name": "Docklands", "short_name": "Docklands", "types": ["locality", "political"]}, {"long_name": "Melbourne City", "short_name": "Melbourne", "types": ["administrative_area_level_2", "political"]}, {"long_name": "Victoria", "short_name": "VIC", "types": ["administrative_area_level_1", "political"]}, {"long_name": "Australia", "short_name": "AU", "types": ["country", "political"]}, {"long_name": "3008", "short_name": "3008", "types": ["postal_code"]}], "formatted_address": "12, Tower 2, 727 Collins St, Docklands VIC 3008, Australia", "geometry": {"location": {"lat": -37.82052789999999, "lng": 144.9502334}, "location_type": "ROOFTOP", "viewport": {"northeast": {"lat": -37.8191789197085, "lng": 144.9515823802915}, "southwest": {"lat": -37.8218768802915, "lng": 144.9488844197085}}}, "place_id": "ChIJe-LYckxd1moR5e0JByPEDeI", "types": ["establishment", "point_of_interest", "university"]}]}, "1280467473": {"AfN": "deborah heart and lung center", "Location": [{"address_components": [{"long_name": "200", "short_name": "200", "types": ["street_number"]}, {"long_name": "Trenton Road", "short_name": "Trenton Rd", "types": ["route"]}, {"long_name": "Browns Mills", "short_name": "Browns Mills", "types": ["political", "sublocality", "sublocality_level_1"]}, {"long_name": "Pemberton Township", "short_name": "Pemberton Township", "types": ["administrative_area_level_3", "political"]}, {"long_name": "Burlington County", "short_name": "Burlington County", "types": ["administrative_area_level_2", "political"]}, {"long_name": "New Jersey", "short_name": "NJ", "types": ["administrative_area_level_1", "political"]}, {"long_name": "United States", "short_name": "US", "types": ["country", "political"]}, {"long_name": "08015", "short_name": "08015", "types": ["postal_code"]}, {"long_name": "1764", "short_name": "1764", "types": ["postal_code_suffix"]}], "formatted_address": "200 Trenton Rd, Browns Mills, NJ 08015, USA", "geometry": {"location": {"lat": 39.97758779999999, "lng": -74.5851955}, "location_type": "ROOFTOP", "viewport": {"northeast": {"lat": 39.9789367802915, "lng": -74.5838465197085}, "southwest": {"lat": 39.9762388197085, "lng": -74.58654448029151}}}, "place_id": "ChIJo1eygXFqwYkRT8C7NgGiKm8", "types": ["establishment", "health", "hospital", "point_of_interest"]}]}, "352274": {"AfN": "deccan college post graduate and research institute", "Location": [{"address_components": [{"long_name": "Pune", "short_name": "Pune", "types": ["locality", "political"]}, {"long_name": "Maharashtra", "short_name": "MH", "types": ["administrative_area_level_1", "political"]}, {"long_name": "India", "short_name": "IN", "types": ["country", "political"]}, {"long_name": "411006", "short_name": "411006", "types": ["postal_code"]}], "formatted_address": "Deccan College Road, Yerawada, Pune, Maharashtra 411006, India", "geometry": {"location": {"lat": 18.5494492, "lng": 73.87327859999999}, "location_type": "GEOMETRIC_CENTER", "viewport": {"northeast": {"lat": 18.5507981802915, "lng": 73.8746275802915}, "southwest": {"lat": 18.5481002197085, "lng": 73.8719296197085}}}, "place_id": "ChIJNWD4OunAwjsR3ihKvTzx9W0", "types": ["establishment", "point_of_interest", "university"]}]}, "1327191685": {"AfN": "decode genetics", "Location": [{"address_components": [{"long_name": "Sturlugata", "short_name": "Sturlugata", "types": ["route"]}, {"long_name": "Reykjav\u00edk", "short_name": "RVK", "types": ["locality", "political"]}, {"long_name": "Iceland", "short_name": "IS", "types": ["country", "political"]}, {"long_name": "101", "short_name": "101", "types": ["postal_code"]}], "formatted_address": "8, Sturlugata, 101 Reykjav\u00edk, Iceland", "geometry": {"location": {"lat": 64.1356343, "lng": -21.9460857}, "location_type": "GEOMETRIC_CENTER", "viewport": {"northeast": {"lat": 64.13698328029152, "lng": -21.94473671970849}, "southwest": {"lat": 64.13428531970851, "lng": -21.9474346802915}}}, "place_id": "ChIJZejxFTcL1kgR8l2DpXdh1OI", "types": ["establishment", "point_of_interest"]}]}, "202429437": {"AfN": "defence metallurgical research laboratory", "Location": []}, "1297460800": {"AfN": "defence research and development canada", "Location": [{"address_components": [{"long_name": "400", "short_name": "400", "types": ["street_number"]}, {"long_name": "Cumberland Street", "short_name": "Cumberland St", "types": ["route"]}, {"long_name": "Byward Market - Parliament Hill", "short_name": "Byward Market - Parliament Hill", "types": ["neighborhood", "political"]}, {"long_name": "Ottawa", "short_name": "Ottawa", "types": ["locality", "political"]}, {"long_name": "Ottawa Division", "short_name": "Ottawa Division", "types": ["administrative_area_level_2", "political"]}, {"long_name": "Ontario", "short_name": "ON", "types": ["administrative_area_level_1", "political"]}, {"long_name": "Canada", "short_name": "CA", "types": ["country", "political"]}, {"long_name": "K1N 1J8", "short_name": "K1N 1J8", "types": ["postal_code"]}], "formatted_address": "400 Cumberland St, Ottawa, ON K1N 1J8, Canada", "geometry": {"location": {"lat": 45.4282603, "lng": -75.6880437}, "location_type": "ROOFTOP", "viewport": {"northeast": {"lat": 45.4296092802915, "lng": -75.68669471970848}, "southwest": {"lat": 45.4269113197085, "lng": -75.6893926802915}}}, "place_id": "ChIJq8vKngMFzkwRKAhxbm-V5Kg", "types": ["establishment", "point_of_interest"]}, {"address_components": [{"long_name": "1133", "short_name": "1133", "types": ["street_number"]}, {"long_name": "Sheppard Avenue West", "short_name": "Sheppard Ave W", "types": ["route"]}, {"long_name": "North York", "short_name": "North York", "types": ["political", "sublocality", "sublocality_level_1"]}, {"long_name": "Toronto", "short_name": "Toronto", "types": ["locality", "political"]}, {"long_name": "Toronto Division", "short_name": "Toronto Division", "types": ["administrative_area_level_2", "political"]}, {"long_name": "Ontario", "short_name": "ON", "types": ["administrative_area_level_1", "political"]}, {"long_name": "Canada", "short_name": "CA", "types": ["country", "political"]}, {"long_name": "M3K 2C9", "short_name": "M3K 2C9", "types": ["postal_code"]}], "formatted_address": "1133 Sheppard Ave W, North York, ON M3K 2C9, Canada", "geometry": {"location": {"lat": 43.7510765, "lng": -79.46945699999999}, "location_type": "ROOFTOP", "viewport": {"northeast": {"lat": 43.75242548029149, "lng": -79.4681080197085}, "southwest": {"lat": 43.74972751970849, "lng": -79.4708059802915}}}, "place_id": "ChIJVVVlAR0yK4gR20XZf0pyRC0", "types": ["establishment", "point_of_interest"]}]}, "1340206300": {"AfN": "defence research and development organisation", "Location": [{"address_components": [{"long_name": "400", "short_name": "400", "types": ["street_number"]}, {"long_name": "Cumberland Street", "short_name": "Cumberland St", "types": ["route"]}, {"long_name": "Byward Market - Parliament Hill", "short_name": "Byward Market - Parliament Hill", "types": ["neighborhood", "political"]}, {"long_name": "Ottawa", "short_name": "Ottawa", "types": ["locality", "political"]}, {"long_name": "Ottawa Division", "short_name": "Ottawa Division", "types": ["administrative_area_level_2", "political"]}, {"long_name": "Ontario", "short_name": "ON", "types": ["administrative_area_level_1", "political"]}, {"long_name": "Canada", "short_name": "CA", "types": ["country", "political"]}, {"long_name": "K1N 1J8", "short_name": "K1N 1J8", "types": ["postal_code"]}], "formatted_address": "400 Cumberland St, Ottawa, ON K1N 1J8, Canada", "geometry": {"location": {"lat": 45.4282603, "lng": -75.6880437}, "location_type": "ROOFTOP", "viewport": {"northeast": {"lat": 45.4296092802915, "lng": -75.68669471970848}, "southwest": {"lat": 45.4269113197085, "lng": -75.6893926802915}}}, "place_id": "ChIJq8vKngMFzkwRKAhxbm-V5Kg", "types": ["establishment", "point_of_interest"]}]}, "1339065421": {"AfN": "defence science and technology laboratory", "Location": [{"address_components": [{"long_name": "Porton Down", "short_name": "Porton Down", "types": ["locality", "political"]}, {"long_name": "Salisbury", "short_name": "Salisbury", "types": ["postal_town"]}, {"long_name": "Wiltshire", "short_name": "Wiltshire", "types": ["administrative_area_level_2", "political"]}, {"long_name": "England", "short_name": "England", "types": ["administrative_area_level_1", "political"]}, {"long_name": "United Kingdom", "short_name": "GB", "types": ["country", "political"]}, {"long_name": "SP4 0JQ", "short_name": "SP4 0JQ", "types": ["postal_code"]}], "formatted_address": "Porton Down, Salisbury SP4 0JQ, UK", "geometry": {"location": {"lat": 51.1312297, "lng": -1.7036842}, "location_type": "GEOMETRIC_CENTER", "viewport": {"northeast": {"lat": 51.13257868029149, "lng": -1.702335219708498}, "southwest": {"lat": 51.1298807197085, "lng": -1.705033180291502}}}, "place_id": "ChIJl4WOdNHvc0gRDP6eTbSXlts", "types": ["establishment", "point_of_interest"]}]}, "1303474014": {"AfN": "defence science and technology organisation", "Location": []}, "1293812685": {"AfN": "defenders of wildlife", "Location": [{"address_components": [{"long_name": "Suite 310", "short_name": "Suite 310", "types": ["subpremise"]}, {"long_name": "535", "short_name": "535", "types": ["street_number"]}, {"long_name": "16th Street", "short_name": "16th St", "types": ["route"]}, {"long_name": "Central Business District", "short_name": "Central Business District", "types": ["neighborhood", "political"]}, {"long_name": "Denver", "short_name": "Denver", "types": ["locality", "political"]}, {"long_name": "Denver County", "short_name": "Denver County", "types": ["administrative_area_level_2", "political"]}, {"long_name": "Colorado", "short_name": "CO", "types": ["administrative_area_level_1", "political"]}, {"long_name": "United States", "short_name": "US", "types": ["country", "political"]}, {"long_name": "80202", "short_name": "80202", "types": ["postal_code"]}], "formatted_address": "535 16th St Suite 310, Denver, CO 80202, USA", "geometry": {"location": {"lat": 39.7444297, "lng": -104.9907446}, "location_type": "ROOFTOP", "viewport": {"northeast": {"lat": 39.7457786802915, "lng": -104.9893956197085}, "southwest": {"lat": 39.7430807197085, "lng": -104.9920935802915}}}, "place_id": "ChIJDYsdqcV4bIcRrVbmwqr_7nQ", "types": ["establishment", "point_of_interest"]}]}, "283207810": {"AfN": "defense centers of excellence for psychological health and traumatic brain injury", "Location": [{"address_components": [{"long_name": "9", "short_name": "9", "types": ["floor"]}, {"long_name": "1335", "short_name": "1335", "types": ["street_number"]}, {"long_name": "East West Highway", "short_name": "East West Highway", "types": ["route"]}, {"long_name": "Downtown Silver Spring", "short_name": "Downtown Silver Spring", "types": ["neighborhood", "political"]}, {"long_name": "Silver Spring", "short_name": "Silver Spring", "types": ["locality", "political"]}, {"long_name": "Montgomery County", "short_name": "Montgomery County", "types": ["administrative_area_level_2", "political"]}, {"long_name": "Maryland", "short_name": "MD", "types": ["administrative_area_level_1", "political"]}, {"long_name": "United States", "short_name": "US", "types": ["country", "political"]}, {"long_name": "20910", "short_name": "20910", "types": ["postal_code"]}], "formatted_address": "9, 1335 East West Highway, Silver Spring, MD 20910, USA", "geometry": {"location": {"lat": 38.9933577, "lng": -77.031672}, "location_type": "ROOFTOP", "viewport": {"northeast": {"lat": 38.9947066802915, "lng": -77.03032301970849}, "southwest": {"lat": 38.9920087197085, "lng": -77.03302098029151}}}, "place_id": "ChIJ08apzrjIt4kRenr29_eHY0k", "types": ["establishment", "point_of_interest"]}]}, "1295271775": {"AfN": "defense intelligence agency", "Location": [{"address_components": [{"long_name": "200", "short_name": "200", "types": ["street_number"]}, {"long_name": "MacDill Boulevard Southeast", "short_name": "MacDill Blvd SE", "types": ["route"]}, {"long_name": "Southwest Washington", "short_name": "Southwest Washington", "types": ["neighborhood", "political"]}, {"long_name": "Washington", "short_name": "Washington", "types": ["locality", "political"]}, {"long_name": "District of Columbia", "short_name": "DC", "types": ["administrative_area_level_1", "political"]}, {"long_name": "United States", "short_name": "US", "types": ["country", "political"]}, {"long_name": "20340", "short_name": "20340", "types": ["postal_code"]}], "formatted_address": "200 MacDill Blvd SE, Washington, DC 20340, USA", "geometry": {"location": {"lat": 38.8479162, "lng": -77.01225540000002}, "location_type": "ROOFTOP", "viewport": {"northeast": {"lat": 38.8492651802915, "lng": -77.01090641970852}, "southwest": {"lat": 38.8465672197085, "lng": -77.01360438029153}}}, "place_id": "ChIJ0wgj1oa3t4kRnCi5emuEBsc", "types": ["establishment", "point_of_interest"]}, {"address_components": [{"long_name": "4600", "short_name": "4600", "types": ["street_number"]}, {"long_name": "Sangamore Road", "short_name": "Sangamore Rd", "types": ["route"]}, {"long_name": "Bethesda", "short_name": "Bethesda", "types": ["locality", "political"]}, {"long_name": "7", "short_name": "7", "types": ["administrative_area_level_3", "political"]}, {"long_name": "Montgomery County", "short_name": "Montgomery County", "types": ["administrative_area_level_2", "political"]}, {"long_name": "Maryland", "short_name": "MD", "types": ["administrative_area_level_1", "political"]}, {"long_name": "United States", "short_name": "US", "types": ["country", "political"]}, {"long_name": "20816", "short_name": "20816", "types": ["postal_code"]}], "formatted_address": "4600 Sangamore Rd, Bethesda, MD 20816, USA", "geometry": {"location": {"lat": 38.9493588, "lng": -77.1217648}, "location_type": "ROOFTOP", "viewport": {"northeast": {"lat": 38.9507077802915, "lng": -77.1204158197085}, "southwest": {"lat": 38.9480098197085, "lng": -77.1231137802915}}}, "place_id": "ChIJEeTvOBLKt4kRQQ2_krboPFo", "types": ["establishment", "point_of_interest"]}]}, "1310588384": {"AfN": "defense manpower data center", "Location": [{"address_components": [{"long_name": "400", "short_name": "400", "types": ["street_number"]}, {"long_name": "Gigling Road", "short_name": "Gigling Rd", "types": ["route"]}, {"long_name": "Seaside", "short_name": "Seaside", "types": ["locality", "political"]}, {"long_name": "Monterey County", "short_name": "Monterey County", "types": ["administrative_area_level_2", "political"]}, {"long_name": "California", "short_name": "CA", "types": ["administrative_area_level_1", "political"]}, {"long_name": "United States", "short_name": "US", "types": ["country", "political"]}, {"long_name": "93955", "short_name": "93955", "types": ["postal_code"]}], "formatted_address": "400 Gigling Rd, Seaside, CA 93955, USA", "geometry": {"location": {"lat": 36.6427136, "lng": -121.7954618}, "location_type": "ROOFTOP", "viewport": {"northeast": {"lat": 36.6440625802915, "lng": -121.7941128197085}, "southwest": {"lat": 36.6413646197085, "lng": -121.7968107802915}}}, "place_id": "ChIJzfssgEfljYAR1EHX5d1QOIQ", "types": ["establishment", "local_government_office", "point_of_interest"]}]}, "1331871522": {"AfN": "defense threat reduction agency", "Location": [{"address_components": [{"long_name": "6201", "short_name": "6201", "types": ["subpremise"]}, {"long_name": "8725", "short_name": "8725", "types": ["street_number"]}, {"long_name": "John J Kingman Road", "short_name": "John J Kingman Rd", "types": ["route"]}, {"long_name": "Fort Belvoir", "short_name": "Fort Belvoir", "types": ["locality", "political"]}, {"long_name": "Mount Vernon", "short_name": "Mt Vernon", "types": ["administrative_area_level_3", "political"]}, {"long_name": "Fairfax County", "short_name": "Fairfax County", "types": ["administrative_area_level_2", "political"]}, {"long_name": "Virginia", "short_name": "VA", "types": ["administrative_area_level_1", "political"]}, {"long_name": "United States", "short_name": "US", "types": ["country", "political"]}, {"long_name": "22060", "short_name": "22060", "types": ["postal_code"]}, {"long_name": "6201", "short_name": "6201", "types": ["postal_code_suffix"]}], "formatted_address": "8725 John J Kingman Rd #6201, Fort Belvoir, VA 22060, USA", "geometry": {"location": {"lat": 38.7173649, "lng": -77.16204019999999}, "location_type": "ROOFTOP", "viewport": {"northeast": {"lat": 38.7187138802915, "lng": -77.16069121970848}, "southwest": {"lat": 38.7160159197085, "lng": -77.1633891802915}}}, "place_id": "ChIJo6fsBu6st4kRWtAEtGcPWtw", "types": ["establishment", "point_of_interest"]}]}, "27324606": {"AfN": "degremont", "Location": [{"address_components": [{"long_name": "510", "short_name": "510", "types": ["street_number"]}, {"long_name": "East Jackson Street", "short_name": "E Jackson St", "types": ["route"]}, {"long_name": "Biotech and MCV District", "short_name": "Biotech and MCV District", "types": ["neighborhood", "political"]}, {"long_name": "Richmond", "short_name": "Richmond", "types": ["locality", "political"]}, {"long_name": "Virginia", "short_name": "VA", "types": ["administrative_area_level_1", "political"]}, {"long_name": "United States", "short_name": "US", "types": ["country", "political"]}, {"long_name": "23219", "short_name": "23219", "types": ["postal_code"]}, {"long_name": "1436", "short_name": "1436", "types": ["postal_code_suffix"]}], "formatted_address": "510 E Jackson St, Richmond, VA 23219, USA", "geometry": {"location": {"lat": 37.5464457, "lng": -77.4331414}, "location_type": "ROOFTOP", "viewport": {"northeast": {"lat": 37.5477946802915, "lng": -77.4317924197085}, "southwest": {"lat": 37.5450967197085, "lng": -77.4344903802915}}}, "place_id": "ChIJQdaeESURsYkRFpRNBc6y248", "types": ["establishment", "point_of_interest"]}]}, "90803817": {"AfN": "del rosario university", "Location": [{"address_components": [{"long_name": "6-25", "short_name": "6-25", "types": ["street_number"]}, {"long_name": "Calle 12c", "short_name": "Cl. 12c", "types": ["route"]}, {"long_name": "La Concordia", "short_name": "La Concordia", "types": ["neighborhood", "political"]}, {"long_name": "La Candelaria", "short_name": "La Candelaria", "types": ["political", "sublocality", "sublocality_level_1"]}, {"long_name": "Bogot\u00e1", "short_name": "Bogot\u00e1", "types": ["locality", "political"]}, {"long_name": "Bogot\u00e1", "short_name": "Bogot\u00e1", "types": ["administrative_area_level_3", "political"]}, {"long_name": "Bogot\u00e1", "short_name": "Bogot\u00e1", "types": ["administrative_area_level_1", "political"]}, {"long_name": "Colombia", "short_name": "CO", "types": ["country", "political"]}, {"long_name": "111711", "short_name": "111711", "types": ["postal_code"]}], "formatted_address": "Cl. 12c #6-25, Bogot\u00e1, Colombia", "geometry": {"location": {"lat": 4.6001576, "lng": -74.0734574}, "location_type": "ROOFTOP", "viewport": {"northeast": {"lat": 4.601506580291503, "lng": -74.07210841970848}, "southwest": {"lat": 4.598808619708498, "lng": -74.0748063802915}}}, "place_id": "ChIJJwCMs02aP44RPv0LkD0XYJg", "types": ["establishment", "point_of_interest", "university"]}]}, "25163455": {"AfN": "delaware biotechnology institute", "Location": [{"address_components": [{"long_name": "15", "short_name": "15", "types": ["street_number"]}, {"long_name": "Innovation Way", "short_name": "Innovation Way", "types": ["route"]}, {"long_name": "Newark", "short_name": "Newark", "types": ["locality", "political"]}, {"long_name": "New Castle County", "short_name": "New Castle County", "types": ["administrative_area_level_2", "political"]}, {"long_name": "Delaware", "short_name": "DE", "types": ["administrative_area_level_1", "political"]}, {"long_name": "United States", "short_name": "US", "types": ["country", "political"]}, {"long_name": "19711", "short_name": "19711", "types": ["postal_code"]}], "formatted_address": "15 Innovation Way, Newark, DE 19711, USA", "geometry": {"location": {"lat": 39.677971, "lng": -75.7347987}, "location_type": "ROOFTOP", "viewport": {"northeast": {"lat": 39.6793199802915, "lng": -75.73344971970849}, "southwest": {"lat": 39.6766220197085, "lng": -75.73614768029151}}}, "place_id": "ChIJadphNxiqx4kR93ehdShO_Lk", "types": ["establishment", "point_of_interest"]}]}, "1338311740": {"AfN": "delaware department of natural resources and environmental control", "Location": [{"address_components": [{"long_name": "Richardson & Robbins Building", "short_name": "Richardson & Robbins Building", "types": ["premise"]}, {"long_name": "89", "short_name": "89", "types": ["street_number"]}, {"long_name": "Kings Highway Southwest", "short_name": "Kings Hwy SW", "types": ["route"]}, {"long_name": "Dover", "short_name": "Dover", "types": ["locality", "political"]}, {"long_name": "Kent County", "short_name": "Kent County", "types": ["administrative_area_level_2", "political"]}, {"long_name": "Delaware", "short_name": "DE", "types": ["administrative_area_level_1", "political"]}, {"long_name": "United States", "short_name": "US", "types": ["country", "political"]}, {"long_name": "19901", "short_name": "19901", "types": ["postal_code"]}], "formatted_address": "Richardson & Robbins Building, 89 Kings Hwy SW, Dover, DE 19901, USA", "geometry": {"location": {"lat": 39.160108, "lng": -75.523879}, "location_type": "ROOFTOP", "viewport": {"northeast": {"lat": 39.1614569802915, "lng": -75.52253001970848}, "southwest": {"lat": 39.1587590197085, "lng": -75.5252279802915}}}, "place_id": "ChIJuam1iKtkx4kRb3SidYXK2_I", "types": ["establishment", "local_government_office", "point_of_interest"]}]}, "126548940": {"AfN": "delaware state university", "Location": [{"address_components": [{"long_name": "1200", "short_name": "1200", "types": ["street_number"]}, {"long_name": "North Dupont Highway", "short_name": "N Dupont Hwy", "types": ["route"]}, {"long_name": "Dover", "short_name": "Dover", "types": ["locality", "political"]}, {"long_name": "Kent County", "short_name": "Kent County", "types": ["administrative_area_level_2", "political"]}, {"long_name": "Delaware", "short_name": "DE", "types": ["administrative_area_level_1", "political"]}, {"long_name": "United States", "short_name": "US", "types": ["country", "political"]}, {"long_name": "19901", "short_name": "19901", "types": ["postal_code"]}], "formatted_address": "1200 N Dupont Hwy, Dover, DE 19901, USA", "geometry": {"location": {"lat": 39.1861372, "lng": -75.5422735}, "location_type": "ROOFTOP", "viewport": {"northeast": {"lat": 39.1874861802915, "lng": -75.54092451970848}, "southwest": {"lat": 39.1847882197085, "lng": -75.54362248029149}}}, "place_id": "ChIJa0P8UTp7x4kRV10YW_t9SbU", "types": ["establishment", "point_of_interest", "school", "university"]}]}, "85407739": {"AfN": "delaware technical community college", "Location": [{"address_components": [{"long_name": "100", "short_name": "100", "types": ["street_number"]}, {"long_name": "Campus Drive", "short_name": "Campus Dr", "types": ["route"]}, {"long_name": "Dover", "short_name": "Dover", "types": ["locality", "political"]}, {"long_name": "Kent County", "short_name": "Kent County", "types": ["administrative_area_level_2", "political"]}, {"long_name": "Delaware", "short_name": "DE", "types": ["administrative_area_level_1", "political"]}, {"long_name": "United States", "short_name": "US", "types": ["country", "political"]}, {"long_name": "19904", "short_name": "19904", "types": ["postal_code"]}], "formatted_address": "100 Campus Dr, Dover, DE 19904, USA", "geometry": {"location": {"lat": 39.19838499999999, "lng": -75.56176300000001}, "location_type": "ROOFTOP", "viewport": {"northeast": {"lat": 39.19973398029149, "lng": -75.56041401970852}, "southwest": {"lat": 39.19703601970849, "lng": -75.56311198029152}}}, "place_id": "ChIJGSL76CN7x4kRWoQBINb3siU", "types": ["establishment", "point_of_interest", "university"]}, {"address_components": [{"long_name": "400", "short_name": "400", "types": ["street_number"]}, {"long_name": "Stanton Christiana Road", "short_name": "Stanton Christiana Rd", "types": ["route"]}, {"long_name": "Newark", "short_name": "Newark", "types": ["locality", "political"]}, {"long_name": "New Castle County", "short_name": "New Castle County", "types": ["administrative_area_level_2", "political"]}, {"long_name": "Delaware", "short_name": "DE", "types": ["administrative_area_level_1", "political"]}, {"long_name": "United States", "short_name": "US", "types": ["country", "political"]}, {"long_name": "19713", "short_name": "19713", "types": ["postal_code"]}, {"long_name": "2111", "short_name": "2111", "types": ["postal_code_suffix"]}], "formatted_address": "400 Stanton Christiana Rd, Newark, DE 19713, USA", "geometry": {"location": {"lat": 39.6894137, "lng": -75.64918399999999}, "location_type": "ROOFTOP", "viewport": {"northeast": {"lat": 39.6907626802915, "lng": -75.6478350197085}, "southwest": {"lat": 39.6880647197085, "lng": -75.6505329802915}}}, "place_id": "ChIJB_JnGBABx4kReaS0OYK09tg", "types": ["establishment", "point_of_interest", "university"]}]}, "67149013": {"AfN": "delaware valley college", "Location": [{"address_components": [{"long_name": "700", "short_name": "700", "types": ["street_number"]}, {"long_name": "East Butler Avenue", "short_name": "E Butler Ave", "types": ["route"]}, {"long_name": "Doylestown", "short_name": "Doylestown", "types": ["locality", "political"]}, {"long_name": "Doylestown Township", "short_name": "Doylestown Township", "types": ["administrative_area_level_3", "political"]}, {"long_name": "Bucks County", "short_name": "Bucks County", "types": ["administrative_area_level_2", "political"]}, {"long_name": "Pennsylvania", "short_name": "PA", "types": ["administrative_area_level_1", "political"]}, {"long_name": "United States", "short_name": "US", "types": ["country", "political"]}, {"long_name": "18901", "short_name": "18901", "types": ["postal_code"]}], "formatted_address": "700 E Butler Ave, Doylestown, PA 18901, USA", "geometry": {"location": {"lat": 40.2982282, "lng": -75.15994289999999}, "location_type": "ROOFTOP", "viewport": {"northeast": {"lat": 40.2995771802915, "lng": -75.15859391970848}, "southwest": {"lat": 40.2968792197085, "lng": -75.16129188029149}}}, "place_id": "ChIJP-_ZbN-nxokRdlgFOHpjthk", "types": ["establishment", "point_of_interest", "university"]}]}, "98358874": {"AfN": "delft university of technology", "Location": [{"address_components": [{"long_name": "2", "short_name": "2", "types": ["street_number"]}, {"long_name": "Mekelweg", "short_name": "Mekelweg", "types": ["route"]}, {"long_name": "Delft", "short_name": "Delft", "types": ["locality", "political"]}, {"long_name": "Delft", "short_name": "Delft", "types": ["administrative_area_level_2", "political"]}, {"long_name": "Zuid-Holland", "short_name": "ZH", "types": ["administrative_area_level_1", "political"]}, {"long_name": "Netherlands", "short_name": "NL", "types": ["country", "political"]}, {"long_name": "2628 CD", "short_name": "2628 CD", "types": ["postal_code"]}], "formatted_address": "Mekelweg 2, 2628 CD Delft, Netherlands", "geometry": {"location": {"lat": 51.99625589999999, "lng": 4.3758659}, "location_type": "ROOFTOP", "viewport": {"northeast": {"lat": 51.9976048802915, "lng": 4.377214880291502}, "southwest": {"lat": 51.9949069197085, "lng": 4.374516919708498}}}, "place_id": "ChIJeXhZfo61xUcRfAMsjOUFHj0", "types": ["establishment", "point_of_interest", "university"]}]}, "863896202": {"AfN": "delhi technological university", "Location": [{"address_components": [{"long_name": "Delhi", "short_name": "Delhi", "types": ["locality", "political"]}, {"long_name": "Delhi", "short_name": "DL", "types": ["administrative_area_level_1", "political"]}, {"long_name": "India", "short_name": "IN", "types": ["country", "political"]}, {"long_name": "110042", "short_name": "110042", "types": ["postal_code"]}], "formatted_address": "Shahbad Daulatpur, Main Bawana Road, Delhi, 110042, India", "geometry": {"location": {"lat": 28.7500749, "lng": 77.11766519999999}, "location_type": "GEOMETRIC_CENTER", "viewport": {"northeast": {"lat": 28.7514238802915, "lng": 77.11901418029149}, "southwest": {"lat": 28.7487259197085, "lng": 77.11631621970848}}}, "place_id": "ChIJZclnKiEBDTkRsNEwHMpw1Ic", "types": ["establishment", "point_of_interest", "university"]}]}, "145325580": {"AfN": "deloitte", "Location": [{"address_components": [{"long_name": "#2010", "short_name": "#2010", "types": ["subpremise"]}, {"long_name": "6100", "short_name": "6100", "types": ["street_number"]}, {"long_name": "South Yale Avenue", "short_name": "S Yale Ave", "types": ["route"]}, {"long_name": "Tulsa", "short_name": "Tulsa", "types": ["locality", "political"]}, {"long_name": "Tulsa County", "short_name": "Tulsa County", "types": ["administrative_area_level_2", "political"]}, {"long_name": "Oklahoma", "short_name": "OK", "types": ["administrative_area_level_1", "political"]}, {"long_name": "United States", "short_name": "US", "types": ["country", "political"]}, {"long_name": "74136", "short_name": "74136", "types": ["postal_code"]}], "formatted_address": "6100 S Yale Ave #2010, Tulsa, OK 74136, USA", "geometry": {"location": {"lat": 36.07236, "lng": -95.9232432}, "location_type": "ROOFTOP", "viewport": {"northeast": {"lat": 36.07370898029149, "lng": -95.9218942197085}, "southwest": {"lat": 36.07101101970849, "lng": -95.92459218029151}}}, "place_id": "ChIJoYif6njrtocR_LrKFjsx4Ok", "types": ["accounting", "establishment", "finance", "point_of_interest"]}]}, "126452172": {"AfN": "delphi automotive", "Location": [{"address_components": [{"long_name": "5725", "short_name": "5725", "types": ["street_number"]}, {"long_name": "Delphi Drive", "short_name": "Delphi Dr", "types": ["route"]}, {"long_name": "Troy", "short_name": "Troy", "types": ["locality", "political"]}, {"long_name": "Oakland County", "short_name": "Oakland County", "types": ["administrative_area_level_2", "political"]}, {"long_name": "Michigan", "short_name": "MI", "types": ["administrative_area_level_1", "political"]}, {"long_name": "United States", "short_name": "US", "types": ["country", "political"]}, {"long_name": "48098", "short_name": "48098", "types": ["postal_code"]}, {"long_name": "2815", "short_name": "2815", "types": ["postal_code_suffix"]}], "formatted_address": "5725 Delphi Dr, Troy, MI 48098, USA", "geometry": {"location": {"lat": 42.601582, "lng": -83.1620526}, "location_type": "ROOFTOP", "viewport": {"northeast": {"lat": 42.6029309802915, "lng": -83.1607036197085}, "southwest": {"lat": 42.6002330197085, "lng": -83.1634015802915}}}, "place_id": "ChIJKw_PM97DJIgR9avw2rdlq8g", "types": ["establishment", "point_of_interest"]}]}, "1320351128": {"AfN": "delta air lines", "Location": [{"address_components": [{"long_name": "United States", "short_name": "US", "types": ["country", "political"]}, {"long_name": "Kellogg School", "short_name": "Kellogg School", "types": ["neighborhood", "political"]}, {"long_name": "Wichita", "short_name": "Wichita", "types": ["locality", "political"]}, {"long_name": "Sedgwick County", "short_name": "Sedgwick County", "types": ["administrative_area_level_2", "political"]}, {"long_name": "Kansas", "short_name": "KS", "types": ["administrative_area_level_1", "political"]}, {"long_name": "67211", "short_name": "67211", "types": ["postal_code"]}], "formatted_address": "Wichita, KS 67211, USA", "geometry": {"location": {"lat": 37.6718787, "lng": -97.3238396}, "location_type": "GEOMETRIC_CENTER", "viewport": {"northeast": {"lat": 37.6732276802915, "lng": -97.3224906197085}, "southwest": {"lat": 37.6705297197085, "lng": -97.32518858029151}}}, "place_id": "ChIJvyVRso7juocRGPtSW5TKqCA", "types": ["establishment", "gas_station", "point_of_interest"]}]}, "898622095": {"AfN": "democratic governors association", "Location": [{"address_components": [{"long_name": "United States", "short_name": "US", "types": ["country", "political"]}], "formatted_address": "United States", "geometry": {"bounds": {"northeast": {"lat": 71.5388001, "lng": -66.885417}, "southwest": {"lat": 18.7763, "lng": 170.5957}}, "location": {"lat": 37.09024, "lng": -95.712891}, "location_type": "APPROXIMATE", "viewport": {"northeast": {"lat": 49.38, "lng": -66.94}, "southwest": {"lat": 25.82, "lng": -124.39}}}, "place_id": "ChIJCzYy5IS16lQRQrfeQ5K5Oxw", "types": ["country", "political"]}]}, "1297502334": {"AfN": "democratic republic of the congo ministry of health", "Location": [{"address_components": [{"long_name": "1100", "short_name": "1100", "types": ["street_number"]}, {"long_name": "Connecticut Avenue Northwest", "short_name": "Connecticut Ave NW", "types": ["route"]}, {"long_name": "Downtown", "short_name": "Downtown", "types": ["neighborhood", "political"]}, {"long_name": "Washington", "short_name": "Washington", "types": ["locality", "political"]}, {"long_name": "District of Columbia", "short_name": "DC", "types": ["administrative_area_level_1", "political"]}, {"long_name": "United States", "short_name": "US", "types": ["country", "political"]}, {"long_name": "20036", "short_name": "20036", "types": ["postal_code"]}], "formatted_address": "1100 Connecticut Ave NW, Washington, DC 20036, USA", "geometry": {"location": {"lat": 38.904088, "lng": -77.0406}, "location_type": "ROOFTOP", "viewport": {"northeast": {"lat": 38.9054369802915, "lng": -77.03925101970849}, "southwest": {"lat": 38.90273901970851, "lng": -77.04194898029151}}}, "place_id": "ChIJb7kWfsS3t4kRSh54S2djWPA", "types": ["embassy", "establishment", "point_of_interest"]}]}, "147962203": {"AfN": "democritus university of thrace", "Location": [{"address_components": [{"long_name": "12", "short_name": "12", "types": ["street_number"]}, {"long_name": "Vasilissis Sofias", "short_name": "Vasilissis Sofias", "types": ["route"]}, {"long_name": "Xanthi", "short_name": "Xanthi", "types": ["locality", "political"]}, {"long_name": "Xanthi", "short_name": "Xanthi", "types": ["administrative_area_level_3", "political"]}, {"long_name": "Greece", "short_name": "GR", "types": ["country", "political"]}, {"long_name": "671 00", "short_name": "671 00", "types": ["postal_code"]}], "formatted_address": "Vasilissis Sofias 12, Xanthi 671 00, Greece", "geometry": {"location": {"lat": 41.14211, "lng": 24.890159}, "location_type": "ROOFTOP", "viewport": {"northeast": {"lat": 41.14345898029149, "lng": 24.8915079802915}, "southwest": {"lat": 41.1407610197085, "lng": 24.8888100197085}}}, "place_id": "ChIJPf9z3TgtrBQRU2B8DL35Aa0", "types": ["establishment", "point_of_interest", "university"]}]}, "20577493": {"AfN": "denison university", "Location": [{"address_components": [{"long_name": "100", "short_name": "100", "types": ["street_number"]}, {"long_name": "West College Street", "short_name": "W College St", "types": ["route"]}, {"long_name": "Granville", "short_name": "Granville", "types": ["locality", "political"]}, {"long_name": "Granville Township", "short_name": "Granville Township", "types": ["administrative_area_level_3", "political"]}, {"long_name": "Licking County", "short_name": "Licking County", "types": ["administrative_area_level_2", "political"]}, {"long_name": "Ohio", "short_name": "OH", "types": ["administrative_area_level_1", "political"]}, {"long_name": "United States", "short_name": "US", "types": ["country", "political"]}, {"long_name": "43023", "short_name": "43023", "types": ["postal_code"]}, {"long_name": "1100", "short_name": "1100", "types": ["postal_code_suffix"]}], "formatted_address": "100 W College St, Granville, OH 43023, USA", "geometry": {"location": {"lat": 40.0734583, "lng": -82.5223309}, "location_type": "ROOFTOP", "viewport": {"northeast": {"lat": 40.07480728029149, "lng": -82.52098191970849}, "southwest": {"lat": 40.0721093197085, "lng": -82.52367988029151}}}, "place_id": "ChIJGZaQk9M_OIgRpkF0Zzxf8YA", "types": ["establishment", "point_of_interest", "university"]}]}, "67530263": {"AfN": "denso", "Location": [{"address_components": [{"long_name": "1", "short_name": "1", "types": ["street_number"]}, {"long_name": "Denso Road", "short_name": "Denso Rd", "types": ["route"]}, {"long_name": "Battle Creek", "short_name": "Battle Creek", "types": ["locality", "political"]}, {"long_name": "Michigan", "short_name": "MI", "types": ["administrative_area_level_1", "political"]}, {"long_name": "United States", "short_name": "US", "types": ["country", "political"]}, {"long_name": "49037", "short_name": "49037", "types": ["postal_code"]}], "formatted_address": "1, 1 Denso Rd, Battle Creek, MI 49037, United States", "geometry": {"location": {"lat": 42.3305308, "lng": -85.2816189}, "location_type": "ROOFTOP", "viewport": {"northeast": {"lat": 42.3318797802915, "lng": -85.2802699197085}, "southwest": {"lat": 42.3291818197085, "lng": -85.28296788029151}}}, "place_id": "ChIJkYcTsSiNF4gR54rtqqg4ero", "types": ["establishment", "point_of_interest"]}]}, "113808498": {"AfN": "departamento de oceanografia e pescas", "Location": [{"address_components": [{"long_name": "Horta", "short_name": "Horta", "types": ["locality", "political"]}, {"long_name": "Azores", "short_name": "Azores", "types": ["administrative_area_level_1", "political"]}, {"long_name": "Portugal", "short_name": "PT", "types": ["country", "political"]}, {"long_name": "9900-140", "short_name": "9900-140", "types": ["postal_code"]}], "formatted_address": "9900-140 Horta, Portugal", "geometry": {"location": {"lat": 38.5417363, "lng": -28.6268843}, "location_type": "GEOMETRIC_CENTER", "viewport": {"northeast": {"lat": 38.54308528029149, "lng": -28.6255353197085}, "southwest": {"lat": 38.54038731970849, "lng": -28.6282332802915}}}, "place_id": "ChIJ1xTSBdiKRwsR9SC-6o6cCYc", "types": ["establishment", "point_of_interest"]}]}, "1327435754": {"AfN": "department of agriculture and rural development", "Location": [{"address_components": [{"long_name": "525", "short_name": "525", "types": ["street_number"]}, {"long_name": "West Allegan Street", "short_name": "W Allegan St", "types": ["route"]}, {"long_name": "Downtown", "short_name": "Downtown", "types": ["neighborhood", "political"]}, {"long_name": "Lansing", "short_name": "Lansing", "types": ["locality", "political"]}, {"long_name": "Ingham County", "short_name": "Ingham County", "types": ["administrative_area_level_2", "political"]}, {"long_name": "Michigan", "short_name": "MI", "types": ["administrative_area_level_1", "political"]}, {"long_name": "United States", "short_name": "US", "types": ["country", "political"]}, {"long_name": "48933", "short_name": "48933", "types": ["postal_code"]}, {"long_name": "1502", "short_name": "1502", "types": ["postal_code_suffix"]}], "formatted_address": "525 W Allegan St, Lansing, MI 48933, USA", "geometry": {"location": {"lat": 42.73196069999999, "lng": -84.5592544}, "location_type": "ROOFTOP", "viewport": {"northeast": {"lat": 42.73330968029149, "lng": -84.55790541970849}, "southwest": {"lat": 42.7306117197085, "lng": -84.56060338029151}}}, "place_id": "ChIJU-PNLtTBIogRf4DxFbk9VnQ", "types": ["establishment", "local_government_office", "point_of_interest"]}]}, "892585713": {"AfN": "department of agriculture fisheries and forestry", "Location": [{"address_components": [{"long_name": "2800", "short_name": "2800", "types": ["street_number"]}, {"long_name": "North Lincoln Boulevard", "short_name": "N Lincoln Blvd", "types": ["route"]}, {"long_name": "Capitol View", "short_name": "Capitol View", "types": ["neighborhood", "political"]}, {"long_name": "Oklahoma City", "short_name": "Oklahoma City", "types": ["locality", "political"]}, {"long_name": "Oklahoma County", "short_name": "Oklahoma County", "types": ["administrative_area_level_2", "political"]}, {"long_name": "Oklahoma", "short_name": "OK", "types": ["administrative_area_level_1", "political"]}, {"long_name": "United States", "short_name": "US", "types": ["country", "political"]}, {"long_name": "73105", "short_name": "73105", "types": ["postal_code"]}, {"long_name": "4207", "short_name": "4207", "types": ["postal_code_suffix"]}], "formatted_address": "2800 N Lincoln Blvd, Oklahoma City, OK 73105, USA", "geometry": {"location": {"lat": 35.49795, "lng": -97.501935}, "location_type": "ROOFTOP", "viewport": {"northeast": {"lat": 35.4992989802915, "lng": -97.5005860197085}, "southwest": {"lat": 35.4966010197085, "lng": -97.50328398029151}}}, "place_id": "ChIJD00y62cXsocRUgI4_lA34G4", "types": ["establishment", "local_government_office", "point_of_interest"]}]}, "156617370": {"AfN": "department of aviation", "Location": [{"address_components": [{"long_name": "10510", "short_name": "10510", "types": ["street_number"]}, {"long_name": "West Zemke Road", "short_name": "W Zemke Rd", "types": ["route"]}, {"long_name": "O'Hare", "short_name": "O'Hare", "types": ["neighborhood", "political"]}, {"long_name": "Chicago", "short_name": "Chicago", "types": ["locality", "political"]}, {"long_name": "Cook County", "short_name": "Cook County", "types": ["administrative_area_level_2", "political"]}, {"long_name": "Illinois", "short_name": "IL", "types": ["administrative_area_level_1", "political"]}, {"long_name": "United States", "short_name": "US", "types": ["country", "political"]}, {"long_name": "60666", "short_name": "60666", "types": ["postal_code"]}], "formatted_address": "10510 W Zemke Rd, Chicago, IL 60666, USA", "geometry": {"location": {"lat": 41.9949089, "lng": -87.88735249999999}, "location_type": "ROOFTOP", "viewport": {"northeast": {"lat": 41.9962578802915, "lng": -87.88600351970848}, "southwest": {"lat": 41.9935599197085, "lng": -87.8887014802915}}}, "place_id": "ChIJO55Wmma2D4gRlpG7wHNBlzc", "types": ["establishment", "local_government_office", "point_of_interest"]}]}, "56328125": {"AfN": "department of biotechnology", "Location": [{"address_components": [{"long_name": "Providence", "short_name": "Providence", "types": ["locality", "political"]}, {"long_name": "Jewelry District", "short_name": "Jewelry District", "types": ["neighborhood", "political"]}, {"long_name": "Providence County", "short_name": "Providence County", "types": ["administrative_area_level_2", "political"]}, {"long_name": "Rhode Island", "short_name": "RI", "types": ["administrative_area_level_1", "political"]}, {"long_name": "United States", "short_name": "US", "types": ["country", "political"]}, {"long_name": "02903", "short_name": "02903", "types": ["postal_code"]}], "formatted_address": "Providence, RI 02903, USA", "geometry": {"location": {"lat": 41.8188288, "lng": -71.41022319999999}, "location_type": "GEOMETRIC_CENTER", "viewport": {"northeast": {"lat": 41.82017778029149, "lng": -71.40887421970848}, "southwest": {"lat": 41.8174798197085, "lng": -71.41157218029149}}}, "place_id": "ChIJv34yN2tF5IkRe9HIImmiY1Q", "types": ["establishment", "point_of_interest", "university"]}]}, "90390419": {"AfN": "department of employment economic development and innovation", "Location": [{"address_components": [{"long_name": "Saint Paul", "short_name": "Saint Paul", "types": ["locality", "political"]}, {"long_name": "MN", "short_name": "MN", "types": ["administrative_area_level_1", "political"]}, {"long_name": "United States", "short_name": "US", "types": ["country", "political"]}, {"long_name": "55101", "short_name": "55101", "types": ["postal_code"]}], "formatted_address": "1st National Bank Building, 332 Minnesota Street, Suite E200, Saint Paul, MN 55101, United States", "geometry": {"location": {"lat": 44.946855, "lng": -93.09088899999999}, "location_type": "GEOMETRIC_CENTER", "viewport": {"northeast": {"lat": 44.9482039802915, "lng": -93.08954001970848}, "southwest": {"lat": 44.9455060197085, "lng": -93.0922379802915}}}, "place_id": "ChIJ983AWE7V94cR_xQQZ3Dd7io", "types": ["establishment", "point_of_interest"]}]}, "305754458": {"AfN": "department of environment and primary industries", "Location": [{"address_components": [{"long_name": "26", "short_name": "26", "types": ["subpremise"]}, {"long_name": "28", "short_name": "28", "types": ["street_number"]}, {"long_name": "Wellington Street", "short_name": "Wellington St", "types": ["route"]}, {"long_name": "Kerang", "short_name": "Kerang", "types": ["locality", "political"]}, {"long_name": "Gannawarra Shire", "short_name": "Gannawarra", "types": ["administrative_area_level_2", "political"]}, {"long_name": "Victoria", "short_name": "VIC", "types": ["administrative_area_level_1", "political"]}, {"long_name": "Australia", "short_name": "AU", "types": ["country", "political"]}, {"long_name": "3579", "short_name": "3579", "types": ["postal_code"]}], "formatted_address": "26/28 Wellington St, Kerang VIC 3579, Australia", "geometry": {"location": {"lat": -35.735405, "lng": 143.922139}, "location_type": "ROOFTOP", "viewport": {"northeast": {"lat": -35.7340560197085, "lng": 143.9234879802915}, "southwest": {"lat": -35.7367539802915, "lng": 143.9207900197085}}}, "place_id": "ChIJEygUGqbc22oRIglEbqz1X6c", "types": ["establishment", "point_of_interest"]}]}, "19132802": {"AfN": "department of environmental affairs and tourism", "Location": [{"address_components": [{"long_name": "4901", "short_name": "4901", "types": ["street_number"]}, {"long_name": "Jefferson Highway", "short_name": "Jefferson Hwy", "types": ["route"]}, {"long_name": "Jefferson", "short_name": "Jefferson", "types": ["locality", "political"]}, {"long_name": "2", "short_name": "2", "types": ["administrative_area_level_3", "political"]}, {"long_name": "Jefferson Parish", "short_name": "Jefferson Parish", "types": ["administrative_area_level_2", "political"]}, {"long_name": "Louisiana", "short_name": "LA", "types": ["administrative_area_level_1", "political"]}, {"long_name": "United States", "short_name": "US", "types": ["country", "political"]}, {"long_name": "70121", "short_name": "70121", "types": ["postal_code"]}, {"long_name": "3123", "short_name": "3123", "types": ["postal_code_suffix"]}], "formatted_address": "4901 Jefferson Hwy, Jefferson, LA 70121, USA", "geometry": {"location": {"lat": 29.9557374, "lng": -90.17855899999999}, "location_type": "ROOFTOP", "viewport": {"northeast": {"lat": 29.9570863802915, "lng": -90.17721001970848}, "southwest": {"lat": 29.9543884197085, "lng": -90.17990798029149}}}, "place_id": "ChIJPQoW8426IIYR6Sy0ltNp0XQ", "types": ["establishment", "local_government_office", "point_of_interest"]}, {"address_components": [{"long_name": "Environmental Affairs", "short_name": "Environmental Affairs", "types": ["establishment", "park", "point_of_interest"]}, {"long_name": "# 206", "short_name": "# 206", "types": ["subpremise"]}, {"long_name": "839", "short_name": "839", "types": ["street_number"]}, {"long_name": "Broadway", "short_name": "Broadway", "types": ["route"]}, {"long_name": "Gary", "short_name": "Gary", "types": ["locality", "political"]}, {"long_name": "Calumet Township", "short_name": "Calumet Township", "types": ["administrative_area_level_3", "political"]}, {"long_name": "Lake County", "short_name": "Lake County", "types": ["administrative_area_level_2", "political"]}, {"long_name": "Indiana", "short_name": "IN", "types": ["administrative_area_level_1", "political"]}, {"long_name": "United States", "short_name": "US", "types": ["country", "political"]}, {"long_name": "46402", "short_name": "46402", "types": ["postal_code"]}, {"long_name": "2414", "short_name": "2414", "types": ["postal_code_suffix"]}], "formatted_address": "Environmental Affairs, 839 Broadway # 206, Gary, IN 46402, USA", "geometry": {"location": {"lat": 41.595639, "lng": -87.33662}, "location_type": "ROOFTOP", "viewport": {"northeast": {"lat": 41.59698798029149, "lng": -87.33527101970849}, "southwest": {"lat": 41.5942900197085, "lng": -87.33796898029149}}}, "place_id": "ChIJBcQ9VFnCEYgR7yFCee0PZi0", "types": ["establishment", "park", "point_of_interest"]}]}, "64968199": {"AfN": "department of housing", "Location": [{"address_components": [{"long_name": "# 280", "short_name": "# 280", "types": ["subpremise"]}, {"long_name": "1110", "short_name": "1110", "types": ["street_number"]}, {"long_name": "West Washington Street", "short_name": "W Washington St", "types": ["route"]}, {"long_name": "Central City", "short_name": "Central City", "types": ["neighborhood", "political"]}, {"long_name": "Phoenix", "short_name": "Phoenix", "types": ["locality", "political"]}, {"long_name": "Maricopa County", "short_name": "Maricopa County", "types": ["administrative_area_level_2", "political"]}, {"long_name": "Arizona", "short_name": "AZ", "types": ["administrative_area_level_1", "political"]}, {"long_name": "United States", "short_name": "US", "types": ["country", "political"]}, {"long_name": "85007", "short_name": "85007", "types": ["postal_code"]}], "formatted_address": "1110 W Washington St # 280, Phoenix, AZ 85007, USA", "geometry": {"location": {"lat": 33.4486776, "lng": -112.0876623}, "location_type": "ROOFTOP", "viewport": {"northeast": {"lat": 33.4500265802915, "lng": -112.0863133197085}, "southwest": {"lat": 33.4473286197085, "lng": -112.0890112802915}}}, "place_id": "ChIJZaHOni0SK4cReqFWbqc6NEo", "types": ["establishment", "local_government_office", "point_of_interest"]}]}, "1281122123": {"AfN": "department of industry", "Location": [{"address_components": [{"long_name": "Wichita", "short_name": "Wichita", "types": ["locality", "political"]}, {"long_name": "Sedgwick County", "short_name": "Sedgwick County", "types": ["administrative_area_level_2", "political"]}, {"long_name": "Kansas", "short_name": "KS", "types": ["administrative_area_level_1", "political"]}, {"long_name": "United States", "short_name": "US", "types": ["country", "political"]}, {"long_name": "67208", "short_name": "67208", "types": ["postal_code"]}], "formatted_address": "Wichita, KS 67208, USA", "geometry": {"location": {"lat": 37.7176249, "lng": -97.2921619}, "location_type": "GEOMETRIC_CENTER", "viewport": {"northeast": {"lat": 37.71897388029149, "lng": -97.29081291970849}, "southwest": {"lat": 37.71627591970849, "lng": -97.29351088029149}}}, "place_id": "ChIJie91nubiuocRwQXD2WEWQSw", "types": ["establishment", "point_of_interest", "university"]}]}, "47885676": {"AfN": "department of management studies", "Location": [{"address_components": [{"long_name": "New Delhi", "short_name": "New Delhi", "types": ["locality", "political"]}, {"long_name": "Delhi", "short_name": "DL", "types": ["administrative_area_level_1", "political"]}, {"long_name": "India", "short_name": "IN", "types": ["country", "political"]}, {"long_name": "110016", "short_name": "110016", "types": ["postal_code"]}], "formatted_address": "IV Floor, Vishwakarma Bhavan, Saheed Jeet Singh Marg, Hauz Khas, New Delhi, Delhi 110016, India", "geometry": {"location": {"lat": 28.5426238, "lng": 77.1830602}, "location_type": "GEOMETRIC_CENTER", "viewport": {"northeast": {"lat": 28.5439727802915, "lng": 77.18440918029151}, "southwest": {"lat": 28.54127481970849, "lng": 77.1817112197085}}}, "place_id": "ChIJh7hf1fEdDTkRIeBuN12TaeQ", "types": ["establishment", "point_of_interest", "university"]}]}, "122018834": {"AfN": "department of mineral resources", "Location": [{"address_components": [{"long_name": "3601", "short_name": "3601", "types": ["street_number"]}, {"long_name": "New Garden Road", "short_name": "New Garden Rd", "types": ["route"]}, {"long_name": "Salem", "short_name": "Salem", "types": ["locality", "political"]}, {"long_name": "Butler Township", "short_name": "Butler Township", "types": ["administrative_area_level_3", "political"]}, {"long_name": "Columbiana County", "short_name": "Columbiana County", "types": ["administrative_area_level_2", "political"]}, {"long_name": "Ohio", "short_name": "OH", "types": ["administrative_area_level_1", "political"]}, {"long_name": "United States", "short_name": "US", "types": ["country", "political"]}, {"long_name": "44460", "short_name": "44460", "types": ["postal_code"]}, {"long_name": "9571", "short_name": "9571", "types": ["postal_code_suffix"]}], "formatted_address": "3601 New Garden Rd, Salem, OH 44460, USA", "geometry": {"location": {"lat": 40.8454149, "lng": -80.8954645}, "location_type": "ROOFTOP", "viewport": {"northeast": {"lat": 40.8467638802915, "lng": -80.89411551970849}, "southwest": {"lat": 40.8440659197085, "lng": -80.8968134802915}}}, "place_id": "ChIJHah1C_-rNogROLs1Tu0iRmU", "types": ["establishment", "local_government_office", "point_of_interest"]}]}, "1336338359": {"AfN": "department of national defence", "Location": [{"address_components": [{"long_name": "200", "short_name": "200", "types": ["street_number"]}, {"long_name": "James Street North", "short_name": "James St N", "types": ["route"]}, {"long_name": "Beasley", "short_name": "Beasley", "types": ["neighborhood", "political"]}, {"long_name": "Hamilton", "short_name": "Hamilton", "types": ["locality", "political"]}, {"long_name": "Hamilton Division", "short_name": "Hamilton Division", "types": ["administrative_area_level_2", "political"]}, {"long_name": "Ontario", "short_name": "ON", "types": ["administrative_area_level_1", "political"]}, {"long_name": "Canada", "short_name": "CA", "types": ["country", "political"]}, {"long_name": "L8R 2L1", "short_name": "L8R 2L1", "types": ["postal_code"]}], "formatted_address": "200 James St N, Hamilton, ON L8R 2L1, Canada", "geometry": {"location": {"lat": 43.2619627, "lng": -79.8664123}, "location_type": "ROOFTOP", "viewport": {"northeast": {"lat": 43.2633116802915, "lng": -79.8650633197085}, "southwest": {"lat": 43.2606137197085, "lng": -79.8677612802915}}}, "place_id": "ChIJj93a5IabLIgRpFcz-A5KL7Q", "types": ["establishment", "point_of_interest"]}]}, "211148476": {"AfN": "department of national parks wildlife and plant conservation", "Location": [{"address_components": [{"long_name": "61", "short_name": "61", "types": ["street_number"]}, {"long_name": "Phaholyothin Road", "short_name": "Phaholyothin Road", "types": ["route"]}, {"long_name": "Khwaeng Lat Yao", "short_name": "Khwaeng Lat Yao", "types": ["political", "sublocality", "sublocality_level_2"]}, {"long_name": "Khet Chatuchak", "short_name": "Khet Chatuchak", "types": ["political", "sublocality", "sublocality_level_1"]}, {"long_name": "Krung Thep Maha Nakhon", "short_name": "Krung Thep Maha Nakhon", "types": ["administrative_area_level_1", "political"]}, {"long_name": "Thailand", "short_name": "TH", "types": ["country", "political"]}, {"long_name": "10900", "short_name": "10900", "types": ["postal_code"]}], "formatted_address": "61 Phaholyothin Road Khwaeng Lat Yao, Khet Chatuchak, Krung Thep Maha Nakhon 10900, Thailand", "geometry": {"location": {"lat": 13.849811, "lng": 100.5798571}, "location_type": "ROOFTOP", "viewport": {"northeast": {"lat": 13.8511599802915, "lng": 100.5812060802915}, "southwest": {"lat": 13.8484620197085, "lng": 100.5785081197085}}}, "partial_match": true, "place_id": "ChIJpbI6niGd4jARceZmmJFHnCs", "types": ["establishment", "point_of_interest"]}]}, "1332353952": {"AfN": "department of planning and environment", "Location": [{"address_components": [{"long_name": "A-227", "short_name": "A-227", "types": ["subpremise"]}, {"long_name": "Brewster Building", "short_name": "Brewster Building", "types": ["premise"]}, {"long_name": "East 10th Street", "short_name": "E 10th St", "types": ["route"]}, {"long_name": "Greenville", "short_name": "Greenville", "types": ["locality", "political"]}, {"long_name": "North Carolina", "short_name": "NC", "types": ["administrative_area_level_1", "political"]}, {"long_name": "United States", "short_name": "US", "types": ["country", "political"]}, {"long_name": "27858", "short_name": "27858", "types": ["postal_code"]}], "formatted_address": "MS 557, Brewster Building, E 10th St A-227, Greenville, NC 27858, United States", "geometry": {"location": {"lat": 35.604492, "lng": -77.362398}, "location_type": "ROOFTOP", "viewport": {"northeast": {"lat": 35.6058409802915, "lng": -77.36104901970849}, "southwest": {"lat": 35.6031430197085, "lng": -77.36374698029151}}}, "place_id": "ChIJTfaGlvHnrokRX6_LJV093X4", "types": ["establishment", "point_of_interest", "university"]}]}, "249127253": {"AfN": "department of primary industries and water", "Location": [{"address_components": [{"long_name": "10", "short_name": "10", "types": ["street_number"]}, {"long_name": "Valentine Avenue", "short_name": "Valentine Ave", "types": ["route"]}, {"long_name": "Parramatta", "short_name": "Parramatta", "types": ["locality", "political"]}, {"long_name": "Parramatta City Council", "short_name": "Parramatta", "types": ["administrative_area_level_2", "political"]}, {"long_name": "New South Wales", "short_name": "NSW", "types": ["administrative_area_level_1", "political"]}, {"long_name": "Australia", "short_name": "AU", "types": ["country", "political"]}, {"long_name": "2150", "short_name": "2150", "types": ["postal_code"]}], "formatted_address": "10 Valentine Ave, Parramatta NSW 2150, Australia", "geometry": {"location": {"lat": -33.8187251, "lng": 151.0062523}, "location_type": "ROOFTOP", "viewport": {"northeast": {"lat": -33.81737611970851, "lng": 151.0076012802915}, "southwest": {"lat": -33.8200740802915, "lng": 151.0049033197085}}}, "partial_match": true, "place_id": "ChIJSdL9JyKjEmsRJ5ZYMpLa0BA", "types": ["establishment", "local_government_office", "point_of_interest"]}, {"address_components": [{"long_name": "1", "short_name": "1", "types": ["street_number"]}, {"long_name": "Franklin Wharf", "short_name": "Franklin Wharf", "types": ["route"]}, {"long_name": "Hobart", "short_name": "Hobart", "types": ["locality", "political"]}, {"long_name": "Hobart City Council", "short_name": "Hobart City", "types": ["administrative_area_level_2", "political"]}, {"long_name": "Tasmania", "short_name": "TAS", "types": ["administrative_area_level_1", "political"]}, {"long_name": "Australia", "short_name": "AU", "types": ["country", "political"]}, {"long_name": "7000", "short_name": "7000", "types": ["postal_code"]}], "formatted_address": "1 Franklin Wharf, Hobart TAS 7000, Australia", "geometry": {"location": {"lat": -42.8834781, "lng": 147.3326308}, "location_type": "ROOFTOP", "viewport": {"northeast": {"lat": -42.88212911970851, "lng": 147.3339797802915}, "southwest": {"lat": -42.88482708029151, "lng": 147.3312818197085}}}, "partial_match": true, "place_id": "ChIJWdipnIZ1bqoRjvYWwwh2FHk", "types": ["establishment", "local_government_office", "point_of_interest"]}]}, "1299623118": {"AfN": "department of science and technology", "Location": [{"address_components": [{"long_name": "Morrill Hall", "short_name": "Morrill Hall", "types": ["premise"]}, {"long_name": "303", "short_name": "303", "types": ["street_number"]}, {"long_name": "Cornell University", "short_name": "Cornell University", "types": ["route"]}, {"long_name": "Ithaca", "short_name": "Ithaca", "types": ["locality", "political"]}, {"long_name": "Tompkins County", "short_name": "Tompkins County", "types": ["administrative_area_level_2", "political"]}, {"long_name": "New York", "short_name": "NY", "types": ["administrative_area_level_1", "political"]}, {"long_name": "United States", "short_name": "US", "types": ["country", "political"]}, {"long_name": "14850", "short_name": "14850", "types": ["postal_code"]}], "formatted_address": "Morrill Hall, 303 Cornell University, Ithaca, NY 14850, USA", "geometry": {"location": {"lat": 42.4486997, "lng": -76.48531799999999}, "location_type": "ROOFTOP", "viewport": {"northeast": {"lat": 42.45004868029149, "lng": -76.4839690197085}, "southwest": {"lat": 42.4473507197085, "lng": -76.4866669802915}}}, "place_id": "ChIJ____r4uB0IkRvT8JjcndGN4", "types": ["establishment", "point_of_interest"]}]}, "1305868803": {"AfN": "department of sustainability environment water population and communities", "Location": []}, "870049543": {"AfN": "department of the army", "Location": [{"address_components": [{"long_name": "4655", "short_name": "4655", "types": ["street_number"]}, {"long_name": "Lexington Avenue North", "short_name": "Lexington Ave N", "types": ["route"]}, {"long_name": "Saint Paul", "short_name": "St Paul", "types": ["locality", "political"]}, {"long_name": "Ramsey County", "short_name": "Ramsey County", "types": ["administrative_area_level_2", "political"]}, {"long_name": "Minnesota", "short_name": "MN", "types": ["administrative_area_level_1", "political"]}, {"long_name": "United States", "short_name": "US", "types": ["country", "political"]}, {"long_name": "55126", "short_name": "55126", "types": ["postal_code"]}, {"long_name": "5862", "short_name": "5862", "types": ["postal_code_suffix"]}], "formatted_address": "4655 Lexington Ave N, St Paul, MN 55126, USA", "geometry": {"location": {"lat": 45.0812056, "lng": -93.1494079}, "location_type": "ROOFTOP", "viewport": {"northeast": {"lat": 45.08255458029149, "lng": -93.14805891970849}, "southwest": {"lat": 45.07985661970849, "lng": -93.1507568802915}}}, "place_id": "ChIJTz68a1kos1IRTpnPObC7-y8", "types": ["establishment", "point_of_interest"]}]}, "1286819638": {"AfN": "department of tourism", "Location": [{"address_components": [{"long_name": "900", "short_name": "900", "types": ["street_number"]}, {"long_name": "North Stiles Avenue", "short_name": "N Stiles Ave", "types": ["route"]}, {"long_name": "Oklahoma City", "short_name": "Oklahoma City", "types": ["locality", "political"]}, {"long_name": "Oklahoma County", "short_name": "Oklahoma County", "types": ["administrative_area_level_2", "political"]}, {"long_name": "Oklahoma", "short_name": "OK", "types": ["administrative_area_level_1", "political"]}, {"long_name": "United States", "short_name": "US", "types": ["country", "political"]}, {"long_name": "73104", "short_name": "73104", "types": ["postal_code"]}, {"long_name": "3234", "short_name": "3234", "types": ["postal_code_suffix"]}], "formatted_address": "3234, 900 N Stiles Ave, Oklahoma City, OK 73104, United States", "geometry": {"location": {"lat": 35.4767367, "lng": -97.5054124}, "location_type": "ROOFTOP", "viewport": {"northeast": {"lat": 35.4780856802915, "lng": -97.50406341970849}, "southwest": {"lat": 35.4753877197085, "lng": -97.50676138029151}}}, "place_id": "ChIJPQ70ED0XsocRhiuurKTqNzc", "types": ["establishment", "local_government_office", "point_of_interest"]}]}, "126595327": {"AfN": "department of trade and industry", "Location": [{"address_components": [{"long_name": "2340", "short_name": "2340", "types": ["street_number"]}, {"long_name": "Lombardy Lane", "short_name": "Lombardy Ln", "types": ["route"]}, {"long_name": "Northwest Dallas", "short_name": "Northwest Dallas", "types": ["neighborhood", "political"]}, {"long_name": "Dallas", "short_name": "Dallas", "types": ["locality", "political"]}, {"long_name": "Dallas County", "short_name": "Dallas County", "types": ["administrative_area_level_2", "political"]}, {"long_name": "Texas", "short_name": "TX", "types": ["administrative_area_level_1", "political"]}, {"long_name": "United States", "short_name": "US", "types": ["country", "political"]}, {"long_name": "75220", "short_name": "75220", "types": ["postal_code"]}], "formatted_address": "2340 Lombardy Ln, Dallas, TX 75220, USA", "geometry": {"location": {"lat": 32.8662854, "lng": -96.9008917}, "location_type": "ROOFTOP", "viewport": {"northeast": {"lat": 32.86763438029149, "lng": -96.89954271970849}, "southwest": {"lat": 32.86493641970849, "lng": -96.9022406802915}}}, "place_id": "ChIJ1-NrdUCdToYReRi6tfO7Cr0", "types": ["establishment", "point_of_interest"]}]}, "21113243": {"AfN": "department of urology university of virginia", "Location": [{"address_components": [{"long_name": "1300", "short_name": "1300", "types": ["street_number"]}, {"long_name": "Jefferson Park Avenue", "short_name": "Jefferson Park Ave", "types": ["route"]}, {"long_name": "Jefferson Park Avenue", "short_name": "Jefferson Park Avenue", "types": ["neighborhood", "political"]}, {"long_name": "Charlottesville", "short_name": "Charlottesville", "types": ["locality", "political"]}, {"long_name": "Virginia", "short_name": "VA", "types": ["administrative_area_level_1", "political"]}, {"long_name": "United States", "short_name": "US", "types": ["country", "political"]}, {"long_name": "22903", "short_name": "22903", "types": ["postal_code"]}, {"long_name": "3363", "short_name": "3363", "types": ["postal_code_suffix"]}], "formatted_address": "1300 Jefferson Park Ave, Charlottesville, VA 22903, USA", "geometry": {"location": {"lat": 38.0318824, "lng": -78.50056239999999}, "location_type": "ROOFTOP", "viewport": {"northeast": {"lat": 38.0332313802915, "lng": -78.49921341970848}, "southwest": {"lat": 38.0305334197085, "lng": -78.50191138029149}}}, "place_id": "ChIJJaYjDUeGs4kRdhNxf07KYv8", "types": ["doctor", "establishment", "health", "point_of_interest"]}]}, "179483912": {"AfN": "department of water", "Location": [{"address_components": [{"long_name": "4500", "short_name": "4500", "types": ["street_number"]}, {"long_name": "Westbank Expressway", "short_name": "Westbank Expy", "types": ["route"]}, {"long_name": "Marrero", "short_name": "Marrero", "types": ["locality", "political"]}, {"long_name": "2", "short_name": "2", "types": ["administrative_area_level_3", "political"]}, {"long_name": "Jefferson Parish", "short_name": "Jefferson Parish", "types": ["administrative_area_level_2", "political"]}, {"long_name": "Louisiana", "short_name": "LA", "types": ["administrative_area_level_1", "political"]}, {"long_name": "United States", "short_name": "US", "types": ["country", "political"]}, {"long_name": "70072", "short_name": "70072", "types": ["postal_code"]}], "formatted_address": "4500 Westbank Expy, Marrero, LA 70072, USA", "geometry": {"location": {"lat": 29.8958796, "lng": -90.0955054}, "location_type": "ROOFTOP", "viewport": {"northeast": {"lat": 29.8972285802915, "lng": -90.0941564197085}, "southwest": {"lat": 29.8945306197085, "lng": -90.0968543802915}}}, "place_id": "ChIJWWiAG22kIIYRBL6mvo2OZr0", "types": ["establishment", "point_of_interest"]}]}, "118353179": {"AfN": "depaul university", "Location": [{"address_components": [{"long_name": "1", "short_name": "1", "types": ["street_number"]}, {"long_name": "East Jackson Boulevard", "short_name": "E Jackson Blvd", "types": ["route"]}, {"long_name": "Chicago Loop", "short_name": "Chicago Loop", "types": ["neighborhood", "political"]}, {"long_name": "Chicago", "short_name": "Chicago", "types": ["locality", "political"]}, {"long_name": "Cook County", "short_name": "Cook County", "types": ["administrative_area_level_2", "political"]}, {"long_name": "Illinois", "short_name": "IL", "types": ["administrative_area_level_1", "political"]}, {"long_name": "United States", "short_name": "US", "types": ["country", "political"]}, {"long_name": "60604", "short_name": "60604", "types": ["postal_code"]}], "formatted_address": "1 E Jackson Blvd, Chicago, IL 60604, USA", "geometry": {"location": {"lat": 41.877512, "lng": -87.62722699999999}, "location_type": "ROOFTOP", "viewport": {"northeast": {"lat": 41.87886098029151, "lng": -87.6258780197085}, "southwest": {"lat": 41.87616301970851, "lng": -87.6285759802915}}}, "place_id": "ChIJvxp14KIsDogR_wCz_5JoO5Y", "types": ["establishment", "point_of_interest", "university"]}]}, "12113309": {"AfN": "depauw university", "Location": [{"address_components": [{"long_name": "Administration Building", "short_name": "Administration Building", "types": ["premise"]}, {"long_name": "313", "short_name": "313", "types": ["street_number"]}, {"long_name": "South Locust Street", "short_name": "S Locust St", "types": ["route"]}, {"long_name": "Greencastle", "short_name": "Greencastle", "types": ["locality", "political"]}, {"long_name": "Greencastle Township", "short_name": "Greencastle Township", "types": ["administrative_area_level_3", "political"]}, {"long_name": "Putnam County", "short_name": "Putnam County", "types": ["administrative_area_level_2", "political"]}, {"long_name": "Indiana", "short_name": "IN", "types": ["administrative_area_level_1", "political"]}, {"long_name": "United States", "short_name": "US", "types": ["country", "political"]}, {"long_name": "46135", "short_name": "46135", "types": ["postal_code"]}], "formatted_address": "Administration Building, 313 S Locust St, Greencastle, IN 46135, USA", "geometry": {"location": {"lat": 39.6393943, "lng": -86.86289459999999}, "location_type": "ROOFTOP", "viewport": {"northeast": {"lat": 39.6407432802915, "lng": -86.8615456197085}, "southwest": {"lat": 39.6380453197085, "lng": -86.8642435802915}}}, "place_id": "ChIJp5coR7LfbIgRmbxAHZy330s", "types": ["establishment", "point_of_interest", "university"]}]}, "94975175": {"AfN": "des moines university", "Location": [{"address_components": [{"long_name": "3200", "short_name": "3200", "types": ["street_number"]}, {"long_name": "Grand Avenue", "short_name": "Grand Ave", "types": ["route"]}, {"long_name": "Greenwood", "short_name": "Greenwood", "types": ["neighborhood", "political"]}, {"long_name": "Des Moines", "short_name": "Des Moines", "types": ["locality", "political"]}, {"long_name": "Des Moines", "short_name": "Des Moines", "types": ["administrative_area_level_3", "political"]}, {"long_name": "Polk County", "short_name": "Polk County", "types": ["administrative_area_level_2", "political"]}, {"long_name": "Iowa", "short_name": "IA", "types": ["administrative_area_level_1", "political"]}, {"long_name": "United States", "short_name": "US", "types": ["country", "political"]}, {"long_name": "50312", "short_name": "50312", "types": ["postal_code"]}], "formatted_address": "3200 Grand Ave, Des Moines, IA 50312, USA", "geometry": {"location": {"lat": 41.5833567, "lng": -93.6621029}, "location_type": "ROOFTOP", "viewport": {"northeast": {"lat": 41.58470568029149, "lng": -93.6607539197085}, "southwest": {"lat": 41.58200771970849, "lng": -93.6634518802915}}}, "place_id": "ChIJofyYtSqZ7ocR56TqvTzKG2w", "types": ["establishment", "health", "point_of_interest", "university"]}]}, "38984865": {"AfN": "desales university", "Location": [{"address_components": [{"long_name": "2755", "short_name": "2755", "types": ["street_number"]}, {"long_name": "Station Avenue", "short_name": "Station Ave", "types": ["route"]}, {"long_name": "Center Valley", "short_name": "Center Valley", "types": ["neighborhood", "political"]}, {"long_name": "Upper Saucon Township", "short_name": "Upper Saucon Township", "types": ["administrative_area_level_3", "political"]}, {"long_name": "Lehigh County", "short_name": "Lehigh County", "types": ["administrative_area_level_2", "political"]}, {"long_name": "Pennsylvania", "short_name": "PA", "types": ["administrative_area_level_1", "political"]}, {"long_name": "United States", "short_name": "US", "types": ["country", "political"]}, {"long_name": "18034", "short_name": "18034", "types": ["postal_code"]}], "formatted_address": "2755 Station Ave, Center Valley, PA 18034, USA", "geometry": {"location": {"lat": 40.5387807, "lng": -75.3792986}, "location_type": "ROOFTOP", "viewport": {"northeast": {"lat": 40.5401296802915, "lng": -75.3779496197085}, "southwest": {"lat": 40.5374317197085, "lng": -75.38064758029151}}}, "place_id": "ChIJazo3FQU9xIkROSvxOjw6nTU", "types": ["establishment", "library", "point_of_interest", "school", "university"]}]}, "62340098": {"AfN": "desautels faculty of management", "Location": [{"address_components": [{"long_name": "1001", "short_name": "1001", "types": ["street_number"]}, {"long_name": "Rue Sherbrooke Ouest", "short_name": "Rue Sherbrooke O", "types": ["route"]}, {"long_name": "Ville-Marie", "short_name": "Ville-Marie", "types": ["political", "sublocality", "sublocality_level_1"]}, {"long_name": "Montr\u00e9al", "short_name": "Montr\u00e9al", "types": ["locality", "political"]}, {"long_name": "Communaut\u00e9-Urbaine-de-Montr\u00e9al", "short_name": "Communaut\u00e9-Urbaine-de-Montr\u00e9al", "types": ["administrative_area_level_2", "political"]}, {"long_name": "Qu\u00e9bec", "short_name": "QC", "types": ["administrative_area_level_1", "political"]}, {"long_name": "Canada", "short_name": "CA", "types": ["country", "political"]}, {"long_name": "H3A 1G5", "short_name": "H3A 1G5", "types": ["postal_code"]}], "formatted_address": "1001 Rue Sherbrooke O, Montr\u00e9al, QC H3A 1G5, Canada", "geometry": {"location": {"lat": 45.5023822, "lng": -73.576362}, "location_type": "ROOFTOP", "viewport": {"northeast": {"lat": 45.5037311802915, "lng": -73.5750130197085}, "southwest": {"lat": 45.5010332197085, "lng": -73.57771098029151}}}, "place_id": "ChIJQVd_KUcayUwR3hV6FKrT45M", "types": ["establishment", "point_of_interest", "university"]}]}, "60138030": {"AfN": "desert research institute", "Location": [{"address_components": [{"long_name": "755", "short_name": "755", "types": ["street_number"]}, {"long_name": "East Flamingo Road", "short_name": "E Flamingo Rd", "types": ["route"]}, {"long_name": "Las Vegas", "short_name": "Las Vegas", "types": ["locality", "political"]}, {"long_name": "Clark County", "short_name": "Clark County", "types": ["administrative_area_level_2", "political"]}, {"long_name": "Nevada", "short_name": "NV", "types": ["administrative_area_level_1", "political"]}, {"long_name": "United States", "short_name": "US", "types": ["country", "political"]}, {"long_name": "89119", "short_name": "89119", "types": ["postal_code"]},